Long,Lat,Stn_Name,Clim_ID,Prov_or_Ter,Tm,DwTm,D,Tx,DwTx,Tn,DwTn,S,DwS,S%N,P,DwP,P%N,S_G,Pd,BS,DwBS,BS%,HDD,CDD,YYYY_MM
-123.742,48.935,CHEMAINUS,1011500,BC,9.9,0,NA,20,0,2.5,0,0,0,NA,45.1,0,NA,0,9,NA,NA,NA,244.2,0,2015_04
-124.052,48.829,LAKE COWICHAN,1012055,BC,8.7,14,0.2,24.5,10,-1,10,0,10,NA,69.8,10,NA,0,10,NA,NA,NA,148.6,0,2015_04
-123.226,48.425,DISCOVERY ISLAND,1012475,BC,NA,NA,NA,17.2,0,NA,NA,NA,NA,NA,NA,NA,NA,NA,NA,NA,NA,NA,NA,NA,2015_04
-123.728,48.735,DUNCAN KELVIN CREEK,1012573,BC,10,14,0.8,21.5,14,1,14,0,14,NA,15.6,14,NA,0,3,NA,NA,NA,128.6,0,2015_04
-123.439,48.432,ESQUIMALT HARBOUR,1012710,BC,9.5,0,NA,17.8,0,3.3,0,NA,NA,NA,16.8,3,NA,NA,4,NA,NA,NA,255.2,0,2015_04
-123.573,48.985,GALIANO NORTH,10130MN,BC,10,6,NA,20,6,3.5,6,0,6,NA,31.2,6,NA,0,9,NA,NA,NA,191.1,0,2015_04
-123.53,48.575,MALAHAT,1014820,BC,8.2,0,NA,19,0,1.4,0,NA,NA,NA,3.6,18,NA,NA,1,NA,NA,NA,293.6,0,2015_04
-123.561,48.374,METCHOSIN,1015105,BC,NA,NA,NA,NA,NA,NA,NA,0,0,NA,42,0,70,0,7,NA,NA,NA,NA,NA,2015_04
-123.718,48.824,NORTH COWICHAN,1015628,BC,NA,NA,NA,NA,NA,NA,NA,0,0,0.0,41.4,0,60,0,9,NA,NA,NA,NA,NA,2015_04
-123.719,48.824,NORTH COWICHAN,1015630,BC,8.9,0,NA,22.5,0,-0.7,0,NA,NA,NA,31.9,0,NA,NA,9,NA,NA,NA,273.2,0,2015_04
-123.531,48.298,RACE ROCKS,1016640,BC,9.7,0,NA,18.3,0,4.1,0,NA,NA,NA,NA,NA,NA,NA,NA,NA,NA,NA,249.4,0,2015_04
-123.419,48.622,SAANICHTON CDA,1016940,BC,9.1,0,-0.1,19,0,2,0,0,0,NA,31,0,60,0,9,NA,NA,NA,266,0,2015_04
-123.546,48.888,SALTSPRING ST MARY'S L,1016995,BC,10.2,1,0.6,20,1,3,1,0,1,NA,31.3,1,NA,0,8,NA,NA,NA,226,0,2015_04
-123.427,48.598,SAANICHTON MT NEWTON,1016RM0,BC,NA,NA,NA,NA,NA,NA,NA,0,26,NA,12.2,26,NA,NA,4,NA,NA,NA,NA,NA,2015_04
-123.128,48.775,SATURNA CAPMON,1017098,BC,9.1,1,0,19.4,1,1.6,0,0,1,NA,21.6,1,NA,NA,6,NA,NA,NA,259.2,0,2015_04
-123.128,48.775,SATURNA CAPMON CS,1017099,BC,8.8,3,NA,19.7,3,1.6,2,NA,NA,NA,16.2,3,NA,NA,6,NA,NA,NA,249.7,0,2015_04
-123.045,48.784,SATURNA ISLAND CS,1017101,BC,10.2,0,NA,17.7,0,5,0,NA,NA,NA,13.6,0,NA,NA,7,NA,NA,NA,233.1,0,2015_04
-123.626,48.647,SHAWNIGAN LAKE,1017230,BC,8.9,0,0.1,21,0,1,0,0,0,0.0,34.8,0,49,0,9,NA,NA,NA,274.5,0,2015_04
-123.921,48.377,SHERINGHAM POINT,1017254,BC,8.8,0,NA,17.2,0,3.8,0,NA,NA,NA,54,3,NA,NA,10,NA,NA,NA,276.5,0,2015_04
-123.305,48.457,VICTORIA UNIVERSITY CS,1018598,BC,9.4,0,NA,19.5,0,1.8,0,NA,NA,NA,7.8,11,NA,NA,2,NA,NA,NA,257.5,0,2015_04
-123.443,48.476,VICTORIA FRANCIS PARK,1018605,BC,NA,NA,NA,NA,NA,NA,NA,0,21,NA,29.8,21,NA,0,6,NA,NA,NA,NA,NA,2015_04
-123.325,48.413,VICTORIA GONZALES CS,1018611,BC,10.1,0,NA,19.9,0,4,0,NA,NA,NA,6,5,NA,NA,2,NA,NA,NA,238,0,2015_04
-123.501,48.538,VICTORIA HIGHLANDS NORTH,1018618,BC,8.8,15,NA,21.8,12,0.5,13,0,12,NA,34.4,12,NA,0,5,NA,NA,NA,137.8,0,2015_04
-123.426,48.647,VICTORIA INTL A,1018621,BC,8.8,0,NA,19,0,1.1,0,0,0,NA,27.6,0,NA,NA,8,NA,NA,NA,275.5,0,2015_04
-124.16,49.35,BALLENAS ISLAND,1020590,BC,9.7,0,NA,16.7,0,5,0,NA,NA,NA,19.2,0,NA,NA,6,NA,NA,NA,248.1,0,2015_04
-125.273,49.952,CAMPBELL RIVER A,1021261,BC,7.5,0,-0.5,22.1,0,-2.6,0,0,0,0.0,51.2,0,56,0,11,NA,NA,NA,314.1,0,2015_04
-125.208,49.945,CAMPBELL RIVER SURFSIDE,1021266,BC,NA,NA,NA,NA,NA,NA,NA,0,0,NA,67.4,0,77,0,12,NA,NA,NA,NA,NA,2015_04
-125.195,49.998,CAPE MUDGE,1021330,BC,9.4,0,0.6,20,0,2,0,0,0,0.0,59.4,0,63,0,8,NA,NA,NA,256.7,0,2015_04
-125.446,50.333,CHATHAM POINT,1021480,BC,8.9,0,0.2,17,0,3,0,0,0,0.0,83.4,0,49,0,12,NA,NA,NA,271.8,0,2015_04
-124.683,49.472,CHROME ISLAND,1021500,BC,9.8,0,NA,18,0,3.5,0,0,0,NA,54,0,NA,0,10,NA,NA,NA,246,0,2015_04
-124.9,49.717,COMOX A,1021830,BC,8.9,0,0.2,19,0,0.7,0,0,0,0.0,33.1,0,51,0,8,NA,NA,NA,271.6,0,2015_04
-124.949,50.071,CORTES ISLAND TIBER BAY,1021960,BC,9.3,0,NA,21.6,0,-0.5,0,0,0,NA,59.2,0,NA,0,11,NA,NA,NA,262.1,0,2015_04
-124.999,49.763,COURTENAY GRANTHAM,1021988,BC,8.5,7,NA,16.5,7,1.5,7,0,7,NA,41.4,7,NA,NA,10,NA,NA,NA,218.9,0,2015_04
-125.033,49.686,COURTENAY PUNTLEDGE,1021989,BC,8.3,5,NA,21,3,-1,2,0,3,NA,24.2,3,NA,0,7,NA,NA,NA,242.3,0,2015_04
-123.811,49.209,ENTRANCE ISLAND,1022689,BC,9.9,0,NA,16.7,0,5.5,0,NA,NA,NA,42.2,0,NA,NA,6,NA,NA,NA,242.1,0,2015_04
-125.993,50.454,FANNY ISLAND,1022795,BC,8.9,0,NA,16.6,0,3.5,0,NA,NA,NA,86.2,4,NA,NA,11,NA,NA,NA,272.7,0,2015_04
-123.734,49.154,GABRIOLA ISLAND,1023042,BC,8.4,0,-0.1,20,0,-0.5,0,0,0,NA,39.6,0,63,0,8,NA,NA,NA,289,0,2015_04
-125.203,50.099,HERIOT BAY SE,1023462,BC,8.9,2,NA,20.5,2,1.5,2,0,2,NA,77.8,2,NA,0,12,NA,NA,NA,253.7,0,2015_04
-124.512,49.353,LITTLE QUALICUM HATCHERY,1024638,BC,8,0,0,20.5,0,-1.5,0,0,0,NA,33.7,0,53,0,11,NA,NA,NA,300,0,2015_04
-125.606,49.576,MYRA CREEK,1025254,BC,7.3,4,NA,23,2,-1,2,0,2,NA,107.6,2,NA,0,13,NA,NA,NA,278.8,0,2015_04
-123.87,49.054,NANAIMO A,1025370,BC,8.7,2,-0.3,21.7,2,-1.2,2,0,2,NA,43.8,2,NA,0,10,NA,NA,NA,261.7,0,2015_04
-123.988,49.199,NANAIMO CITY YARD,10253G0,BC,NA,NA,NA,NA,NA,NA,NA,0,0,NA,40.9,0,57,0,7,NA,NA,NA,NA,NA,2015_04
-127.367,50.681,PORT HARDY A,1026271,BC,7.2,0,NA,16.3,0,-1,0,0,0,NA,158.2,0,NA,NA,21,NA,NA,NA,324.1,0,2015_04
-124.394,49.337,QUALICUM BEACH AIRPORT,1026562,BC,8.5,0,NA,20.5,0,0,0,NA,NA,NA,16.4,0,NA,NA,7,NA,NA,NA,286,0,2015_04
-124.617,49.394,QUALICUM R FISH RESEARCH,1026565,BC,9.1,3,0.5,19,3,0.5,3,0,3,NA,38.1,3,NA,NA,7,NA,NA,NA,240.2,0,2015_04
-125.304,50.016,QUINSAM RIVER HATCHERY,1026639,BC,8.2,0,-0.3,22,0,-1,0,0,0,0.0,82.6,0,82,0,17,NA,NA,NA,293.8,0,2015_04
-124.435,49.487,SISTERS ISLAND,1027403,BC,10.1,0,NA,17.7,0,5,0,NA,NA,NA,NA,NA,NA,NA,NA,NA,NA,NA,236.3,0,2015_04
-123.809,49.209,ENTRANCE ISLAND,102BFHH,BC,9.8,0,NA,17,0,4,0,0,0,NA,50.3,0,NA,0,7,NA,NA,NA,247,0,2015_04
-124.982,49.337,ALBERNI ROBERTSON CREEK,1030230,BC,9.1,0,0.6,25,0,-0.5,0,0,0,0.0,101,0,70,0,15,NA,NA,NA,268,0,2015_04
-125.216,48.786,CAPE BEALE LIGHT,1031316,BC,9.2,0,0.7,16,0,3.5,0,0,0,NA,178.2,0,81,0,15,NA,NA,NA,263,0,2015_04
-124.751,48.612,CARMANAH POINT,1031402,BC,NA,NA,NA,NA,NA,NA,NA,4.8,0,######,147.6,0,67,0,15,NA,NA,NA,NA,NA,2015_04
-126.418,49.8,CONUMA RIVER HATCHERY,1031844,BC,NA,NA,NA,NA,NA,NA,NA,0,5,NA,210,5,NA,NA,17,NA,NA,NA,NA,NA,2015_04
-126.543,49.383,ESTEVAN POINT,1032730,BC,8.7,0,0.4,16,0,2,0,0,0,0.0,293,0,107,0,18,NA,NA,NA,279.8,0,2015_04
-126.543,49.383,ESTEVAN POINT CS,1032731,BC,8.4,0,NA,15.3,0,2.3,0,NA,NA,NA,173.9,0,NA,NA,30,NA,NA,NA,287.6,0,2015_04
-126.055,49.779,GOLD RIVER TOWNSITE,1033232,BC,8.9,0,0.5,24,0,0,0,0,0,0.0,153.6,0,82,0,18,NA,NA,NA,272.9,0,2015_04
-125.923,49.111,LENNARD ISLAND,1034600,BC,8.9,2,NA,15.5,2,3.5,2,0,2,NA,210.4,2,NA,0,15,NA,NA,NA,256.1,0,2015_04
-124.655,48.859,NITINAT RIVER HATCHERY,1035612,BC,8.5,2,-0.1,22,2,0,2,0,2,NA,210.6,2,NA,0,16,NA,NA,NA,265.3,0,2015_04
-126.617,49.6,NOOTKA LIGHTSTATION,1035614,BC,9.1,0,0.3,19,0,3.5,0,0,0,0.0,280.9,0,106,0,20,NA,NA,NA,267.6,0,2015_04
-125.097,48.723,PACHENA POINT,1035940,BC,8.7,2,0.4,15.5,2,2,2,0,2,NA,152.7,2,NA,0,15,NA,NA,NA,261.3,0,2015_04
-124.752,49.202,PORT ALBERNI COX LAKE,1036208,BC,8.9,4,0,23,4,-0.5,4,0,4,NA,97.4,4,NA,NA,14,NA,NA,NA,237.7,0,2015_04
-127.455,50.386,PORT ALICE,1036240,BC,8.3,0,0.1,18.5,0,1.5,0,0,0,0.0,323.2,0,125,0,19,NA,NA,NA,289.8,0,2015_04
-127.653,50.534,QUATSINO,1036570,BC,7,16,-1.2,14.5,16,1,16,0,16,NA,106.2,16,NA,NA,10,NA,NA,NA,153.5,0,2015_04
-128.033,50.441,QUATSINO LIGHTSTATION,1036572,BC,9,1,0.8,17.5,1,2.5,1,7.8,1,NA,286,1,NA,0,21,NA,NA,NA,259.8,0,2015_04
-124.927,49.317,PORT ALBERNI (AUT),1036B06,BC,8.4,1,NA,24.7,1,-1.1,1,NA,NA,NA,15.6,25,NA,NA,2,NA,NA,NA,278.1,0,2015_04
-128.908,50.821,SARTINE ISLAND (AUT),1037090,BC,8,0,NA,11.9,0,3.2,0,NA,NA,NA,160.6,3,NA,NA,17,NA,NA,NA,301.5,0,2015_04
-127.94,50.112,SOLANDER ISLAND (AUT),1037553,BC,8.2,0,NA,13.1,0,3.4,0,NA,NA,NA,145,4,NA,NA,16,NA,NA,NA,295.3,0,2015_04
-126.654,49.932,TAHSIS VILLAGE NORTH,1037899,BC,8.6,11,NA,22,11,0,11,0,11,NA,235.6,11,NA,0,15,NA,NA,NA,178.2,0,2015_04
-125.773,49.082,TOFINO A,1038205,BC,8,2,0,18.7,2,0.5,2,0,2,NA,259.4,2,NA,0,14,NA,NA,NA,281.4,0,2015_04
-125.527,48.945,UCLUELET KENNEDY CAMP,1038332,BC,8.4,0,0,18.5,0,0,0,0,0,0.0,246.6,0,93,0,15,NA,NA,NA,289,0,2015_04
-126.779,50.053,ZEBALLOS MURAUDE CREEK,1039035,BC,8,0,NA,22.5,0,-0.5,0,1,0,NA,296.6,0,NA,0,21,NA,NA,NA,300.6,0,2015_04
-123.541,49.386,GIBSONS GOWER POINT,1043152,BC,9.6,0,0.1,17,0,3.5,0,0,0,0.0,58.6,0,61,0,12,NA,NA,NA,251.4,0,2015_04
-123.913,49.468,MERRY ISLAND LIGHTSTATION,1045100,BC,10.2,1,0.5,17.5,1,4.5,1,0,1,NA,40.8,1,NA,0,10,NA,NA,NA,225.5,0,2015_04
-123.299,49.488,HOWE SOUND - PAM ROCKS,10459NN,BC,10.5,0,NA,19.4,0,4.9,0,NA,NA,NA,48.4,0,NA,NA,11,NA,NA,NA,226,0,2015_04
-124.032,49.634,PENDER HARBOUR,1046115,BC,NA,NA,NA,NA,NA,NA,NA,0,0,NA,61.6,0,NA,0,9,NA,NA,NA,NA,NA,2015_04
-123.496,49.526,PORT MELLON,1046332,BC,9.2,1,NA,20.8,1,1.9,0,NA,NA,NA,25.9,23,NA,NA,5,NA,NA,NA,255,0,2015_04
-124.5,49.834,POWELL RIVER A,1046391,BC,8.2,0,-0.4,20.3,0,-1,0,0,0,0.0,67.2,0,81,0,11,NA,NA,NA,294.8,0,2015_04
-124.497,49.835,POWELL RIVER,1046392,BC,7.8,0,NA,19.7,0,-0.6,0,NA,NA,NA,52.7,0,NA,NA,10,NA,NA,NA,304.7,0,2015_04
-123.715,49.458,SECHELT AUT,1047172,BC,8.6,0,NA,20.8,0,0.5,0,NA,NA,NA,45.8,0,NA,NA,11,NA,NA,NA,282.9,0,2015_04
-123.161,49.783,SQUAMISH AIRPORT,10476F0,BC,9.1,0,NA,21.9,0,-0.4,0,NA,NA,NA,90.1,2,NA,NA,12,NA,NA,NA,267.6,0,2015_04
-122.955,50.129,WHISTLER,1048898,BC,5.5,16,-0.5,18.5,16,-2.2,16,1.8,16,NA,28.4,16,NA,0,8,NA,NA,NA,174.4,0,2015_04
-131.016,51.936,CAPE ST JAMES,1051351,BC,7.7,0,NA,13,0,2.5,0,NA,NA,NA,NA,NA,NA,NA,NA,NA,NA,NA,308.8,0,2015_04
-132.772,53.316,KINDAKUN ROCKS (AUT),1054222,BC,7.6,0,NA,11.9,0,3.2,0,NA,NA,NA,135.2,5,NA,NA,16,NA,NA,NA,312.2,0,2015_04
-133.058,54.255,LANGARA,1054500,BC,6.9,0,0.5,13.4,0,0.7,0,2,0,62.0,232.8,0,167,0,23,NA,NA,NA,334.5,0,2015_04
-133.058,54.255,LANGARA ISLAND RCS,1054503,BC,6.7,0,NA,12.7,0,1.6,0,NA,NA,NA,205.2,1,NA,NA,18,NA,NA,NA,337.9,0,2015_04
-132.167,54,MASSET A,1054925,BC,6.7,0,NA,14.9,0,-2,0,0.5,0,NA,225.4,0,NA,0,22,NA,NA,NA,339.8,0,2015_04
-131.661,54.159,ROSE SPIT (AUT),1056869,BC,7.6,0,NA,12.9,0,0.5,0,NA,NA,NA,NA,NA,NA,NA,NA,NA,NA,NA,312.1,0,2015_04
-131.813,53.254,SANDSPIT A,1057050,BC,7,0,0.4,13,0,0,0,0,0,0.0,143.9,0,147,0,22,NA,NA,NA,329.6,0,2015_04
-131.813,53.249,SANDSPIT AIRPORT AUTO,1057051,BC,6.9,0,NA,13,0,-0.3,0,NA,NA,NA,119.7,0,NA,NA,20,NA,NA,NA,331.9,0,2015_04
-131.814,53.254,SANDSPIT,1057052,BC,7.1,4,NA,12.5,4,0.9,4,NA,NA,NA,0,4,NA,NA,0,NA,NA,NA,282.4,0,2015_04
-132.299,53.764,SEWALL MASSET INLET,105PA91,BC,6.9,4,NA,15.5,4,0,4,0,4,NA,160.8,4,NA,NA,18,NA,NA,NA,287.5,0,2015_04
-127.864,51.604,ADDENBROKE ISLAND,1060080,BC,8.5,0,0.5,18,0,2,0,0,0,0.0,414.7,0,176,0,19,NA,NA,NA,284.4,0,2015_04
-128.157,52.185,BELLA BELLA,1060815,BC,7.1,2,NA,16.2,2,-1.1,2,NA,NA,NA,305.8,2,NA,NA,19,NA,NA,NA,306.4,0,2015_04
-126.596,52.388,BELLA COOLA A,1060841,BC,8.3,0,-0.3,18.9,0,-1.9,0,0,0,0.0,61,0,110,0,10,NA,NA,NA,289.8,0,2015_04
-128.524,52.643,BOAT BLUFF,1060901,BC,7.8,0,0.4,15.5,0,3,0,0,0,0.0,565,0,145,0,22,NA,NA,NA,306.5,0,2015_04
-130.638,53.493,BONILLA ISLAND,1060902,BC,8,0,0.6,12.5,0,3.5,0,0,0,0.0,246.2,0,150,0,19,NA,NA,NA,299.5,0,2015_04
-130.639,53.493,BONILLA ISLAND (AUT),1060R0K,BC,7.6,0,NA,10.9,0,3.9,0,NA,NA,NA,153.4,1,NA,NA,18,NA,NA,NA,312.2,0,2015_04
-127.471,52.187,CATHEDRAL POINT (AUT),1061458,BC,7.9,0,NA,16.1,0,2,0,NA,NA,NA,239,9,NA,NA,11,NA,NA,NA,304.4,0,2015_04
-131.602,53.03,CUMSHEWA ISLAND,1062251,BC,7.6,0,NA,12.3,0,2.7,0,NA,NA,NA,NA,NA,NA,NA,NA,NA,NA,NA,310.6,0,2015_04
-128.112,52.185,DRYAD POINT,1062544,BC,8.6,0,0.5,18,0,3,0,0,0,0.0,287.8,0,142,0,21,NA,NA,NA,283,0,2015_04
-127.835,51.247,EGG ISLAND,1062646,BC,8.1,0,0.4,15.5,0,2.5,0,0,0,0.0,262.2,0,133,0,19,NA,NA,NA,297.1,0,2015_04
-130.708,54.569,GREEN ISLAND,1063298,BC,8.1,0,0.7,14,0,2.5,0,0,0,0.0,198.2,0,120,0,18,NA,NA,NA,297.4,0,2015_04
-130.698,54.58,GREY ISLET (AUT),1063303,BC,8.1,13,NA,12.5,9,2.7,9,NA,NA,NA,77.6,16,NA,NA,6,NA,NA,NA,169,0,2015_04
-127.632,50.94,HERBERT ISLAND (AUT),1063461,BC,8.8,0,NA,15,0,3.5,0,NA,NA,NA,67.4,2,NA,NA,15,NA,NA,NA,275,0,2015_04
-130.361,54.172,HOLLAND ROCK,1063496,BC,7.7,0,NA,12.7,0,1.2,0,NA,NA,NA,77.4,4,NA,NA,16,NA,NA,NA,308.9,0,2015_04
-128.407,52.27,IVORY ISLAND,1063690,BC,8.1,0,0.1,15,0,3,0,0,0,0.0,302.8,0,143,0,20,NA,NA,NA,297.5,0,2015_04
-128.634,54.054,KITIMAT TOWNSITE,1064320,BC,6,3,-1.1,16,3,-0.5,3,5,3,NA,138.8,3,NA,0,20,NA,NA,NA,324.1,0,2015_04
-130.609,54.296,LUCY ISLAND LIGHTSTATION,1064728,BC,7.8,0,NA,12.6,0,2.1,0,NA,NA,NA,NA,NA,NA,NA,NA,NA,NA,NA,305.1,0,2015_04
-128.719,52.262,MCINNES ISLAND,1065010,BC,NA,NA,NA,NA,NA,5.8,29,NA,NA,NA,NA,NA,NA,NA,NA,NA,NA,NA,NA,NA,2015_04
-130.445,54.286,PRINCE RUPERT,1066482,BC,7.1,5,NA,13.1,4,0.8,4,NA,NA,NA,184,3,NA,NA,17,NA,NA,NA,273,0,2015_04
-130.29,54.32,PRINCE RUPERT MONT CIRC,1066488,BC,NA,NA,NA,NA,NA,NA,NA,0,12,NA,308.9,12,NA,0,16,NA,NA,NA,NA,NA,2015_04
-129.985,55.936,STEWART A,1067742,BC,6.6,0,0.6,17.3,0,-1.2,0,4.5,0,28.0,142.5,0,160,0,18,NA,NA,NA,341.6,0,2015_04
-128.625,54.502,TERRACE PCC,1068131,BC,7.4,0,0.1,16.5,0,-1.5,0,0,0,0.0,99,0,153,0,14,NA,NA,NA,317.4,0,2015_04
-128.578,54.469,TERRACE A,1068134,BC,6,0,NA,15.4,0,-3.5,0,4.2,1,NA,105.6,2,NA,NA,14,NA,NA,NA,360,0,2015_04
-130.88,54.295,TRIPLE ISLAND,1068250,BC,8.1,0,NA,13,0,3,0,0,0,NA,123.1,0,NA,0,15,NA,NA,NA,297.3,0,2015_04
-128.682,54.044,KITIMAT HATCHERY,106D289,BC,6.9,11,NA,16.5,11,-1.5,11,3.8,11,NA,195.5,11,NA,0,14,NA,NA,NA,210.5,0,2015_04
-126.277,54.199,EQUITY SILVER,1072692,BC,0.1,0,-0.8,11,0,-12,0,51.8,0,291.0,60.2,0,214,0,11,NA,NA,NA,537.7,0,2015_04
-126.668,54.396,HOUSTON,1073615,BC,6.3,9,NA,17,9,-4,9,0,9,NA,19.4,9,NA,0,6,NA,NA,NA,245.1,0,2015_04
-129.03,55.238,NASS CAMP,1075384,BC,6.6,0,0.6,17.5,0,-3.5,0,3.8,0,110.0,63.2,0,132,NA,13,NA,NA,NA,343.3,0,2015_04
-127.183,54.825,SMITHERS,1077499,BC,5,1,NA,14.9,1,-4.9,1,NA,NA,NA,32.2,1,NA,NA,8,NA,NA,NA,376.7,0,2015_04
-127.183,54.825,SMITHERS A,1077500,BC,5.7,0,0.9,17.7,0,-4,0,1.8,0,32.0,41.2,0,173,0,9,NA,NA,NA,369.5,0,2015_04
-127.189,54.824,SMITHERS AIRPORT AUTO,1077501,BC,5.4,0,NA,15.3,0,-4.1,0,NA,NA,NA,27.7,0,NA,NA,9,NA,NA,NA,377.7,0,2015_04
-127.171,55.289,SUSKWA VALLEY,107G879,BC,3.2,0,-1.7,14.5,0,-6.5,0,19.8,0,319.0,66.7,0,164,0,13,NA,NA,NA,445.5,0,2015_04
-125.997,53.772,OOTSA LAKESKINS LAKE CLIMATE,1085836,BC,3.3,0,NA,13,0,-5.6,0,NA,NA,NA,27.3,0,NA,NA,7,NA,NA,NA,441.7,0,2015_04
-122.734,50.306,PEMBERTON AIRPORT CS,1086082,BC,9.3,0,NA,27.2,0,-1.5,0,NA,NA,NA,22.1,0,NA,NA,8,NA,NA,NA,261.2,0,2015_04
-124.136,52.114,PUNTZI MOUNTAIN (AUT),1086558,BC,3.9,0,NA,21.6,0,-10.5,0,NA,NA,NA,15.1,0,NA,NA,4,NA,NA,NA,422.9,0,2015_04
-124.403,51.675,TATLAYOKO LAKE RCS,1088015,BC,4.7,0,NA,21.3,0,-9.5,0,NA,NA,NA,10.4,0,NA,NA,2,NA,NA,NA,398.9,0,2015_04
-125.959,54.383,BURNS LAKE DECKER LAKE,1091174,BC,3.4,0,NA,17.5,0,-8.2,0,NA,NA,NA,21.5,0,NA,NA,4,NA,NA,NA,438.5,0,2015_04
-120.7,53.6,CRESCENT SPUR,1092120,BC,6.3,1,NA,24.5,1,-5,1,21.2,1,NA,78.8,1,NA,0,13,NA,NA,NA,339.7,0,2015_04
-124.286,54.455,FORT ST JAMES,1092970,BC,5.7,15,1.8,14.5,15,-4.5,15,0,13,NA,4.4,13,NA,0,2,NA,NA,NA,185.1,0,2015_04
-124.286,54.455,FORT ST JAMES AUTO,1092975,BC,5.1,0,NA,17.6,0,-4.6,0,NA,NA,NA,14.8,2,NA,NA,4,NA,NA,NA,388.3,0,2015_04
-122.699,53.531,HIXON,1093474,BC,6,4,0.1,26,4,-5,4,0,3,NA,43.8,3,NA,NA,5,NA,NA,NA,311.9,0,2015_04
-121.364,52.363,HORSEFLY LAKE GRUHS LAKE,1093600,BC,4.5,20,-0.9,21.5,20,-6,20,0,20,NA,1.4,20,NA,NA,1,NA,NA,NA,135.3,0,2015_04
-122.374,52.38,MCLEESE LAKE FRASERVIEW,1095015,BC,8.6,10,1.6,25,10,-4.5,10,0,10,NA,11,10,NA,0,3,NA,NA,NA,188.5,0,2015_04
-122.286,52.531,MCLEESE LAKE GRANITE MT,1095018,BC,4.4,13,NA,19,9,-5.5,9,24.8,9,NA,30,9,NA,0,5,NA,NA,NA,230.9,0,2015_04
-122.678,53.884,PRINCE GEORGE,1096439,BC,5.2,1,NA,20.1,1,-6,0,NA,NA,NA,27.5,1,NA,NA,4,NA,NA,NA,370,0,2015_04
-122.672,53.889,PRINCE GEORGE AIRPORT AUTO,1096453,BC,5.3,0,NA,20.6,0,-6.1,0,NA,NA,NA,34.4,0,NA,NA,6,NA,NA,NA,381.9,0,2015_04
-122.768,53.88,PRINCE GEORGE STP,1096468,BC,6.2,4,0.3,19,4,-3.5,4,0,4,NA,15,4,NA,NA,6,NA,NA,NA,307.2,0,2015_04
-122.51,53.026,QUESNEL,1096629,BC,6.6,1,NA,22.7,1,-4.9,0,NA,NA,NA,17.7,1,NA,NA,5,NA,NA,NA,329.8,0,2015_04
-122.506,53.027,QUESNEL AIRPORT AUTO,1096631,BC,6.6,0,NA,22.9,0,-5.1,0,NA,NA,NA,15.4,0,NA,NA,5,NA,NA,NA,343.5,0,2015_04
-121.686,52.184,SPOKIN LAKE 4E,1097646,BC,3.6,0,0,20,0,-8,0,9.7,0,75.0,20.7,0,61,0,9,NA,NA,NA,431.1,0,2015_04
-122.054,52.183,WILLIAMS LAKE A,1098941,BC,4.9,0,NA,19.9,0,-5.6,0,8.2,0,NA,13.6,0,NA,NA,6,NA,NA,NA,393.2,0,2015_04
-124.017,54.033,VANDERHOOF,1098D90,BC,6.4,7,0.8,23,7,-5,7,0,7,NA,23.8,7,NA,0,7,NA,NA,NA,266.7,0,2015_04
-121.263,51.623,108 MILE HOUSE ABEL LAKE,109E7R6,BC,5.4,0,NA,22,0,-6.5,0,12,0,NA,17.4,0,NA,0,7,NA,NA,NA,378.4,0,2015_04
-122.36,49.025,ABBOTSFORD A,1100031,BC,9.6,0,NA,21.7,0,1.6,0,0,0,NA,52.9,0,NA,NA,9,NA,NA,NA,252.3,0,2015_04
-121.76,49.243,AGASSIZ RCS,1100119,BC,10.6,0,-0.2,23.1,0,2.9,0,NA,NA,NA,72.1,0,NA,NA,14,NA,NA,NA,222.6,0,2015_04
-121.76,49.243,AGASSIZ CDA,1100120,BC,10.7,0,0.4,23,0,3,0,0,0,0.0,84.6,0,67,0,12,NA,NA,NA,218.1,0,2015_04
-122.955,50.129,WHISTLER - NESTERS,1100875,BC,6.1,0,NA,22.5,0,-2.7,0,NA,NA,NA,29.5,0,NA,NA,9,NA,NA,NA,356.1,0,2015_04
-122.936,50.102,BLACKCOMB BASE SLIDING CENTER,1100881,BC,4.5,0,NA,19.2,0,-2.8,0,NA,NA,NA,35.8,3,NA,NA,11,NA,NA,NA,405.9,0,2015_04
-122.918,49.278,BURNABY SIMON FRASER U,1101158,BC,10.3,22,1.6,19.8,22,2.2,22,0,22,NA,17.5,22,NA,NA,3,NA,NA,NA,61.6,0,2015_04
-123.111,50.144,CALLAGHAN VALLEY,1101300,BC,4.7,0,NA,20.3,0,-3.1,0,NA,NA,NA,91.6,0,NA,NA,16,NA,NA,NA,399.1,0,2015_04
-122.866,49.269,COQUITLAM COMO LAKE AVE,1101889,BC,NA,NA,NA,NA,NA,NA,NA,0,0,0.0,79.6,0,56,0,11,NA,NA,NA,NA,NA,2015_04
-121.704,49.08,CHILLIWACK R HATCHERY,1101N65,BC,8.9,0,-0.1,23,0,-0.5,0,0,0,0.0,71.2,0,63,0,12,NA,NA,NA,273,0,2015_04
-123.002,49.126,DELTA BURNS BOG,1102415,BC,9,1,NA,21.5,1,-0.3,0,NA,NA,NA,45.2,3,NA,NA,8,NA,NA,NA,260.3,0,2015_04
-123.093,49.011,DELTA TSAWWASSEN BEACH,1102425,BC,10.4,1,0,19,1,2,1,0,1,NA,40.4,1,NA,0,10,NA,NA,NA,220.4,0,2015_04
-122.551,49.145,FORT LANGLEY TELEGRAPH TRAIL,1102912,BC,9.5,2,NA,22,2,1,2,0,2,NA,74.6,2,NA,0,14,NA,NA,NA,239.1,0,2015_04
-122.573,49.264,HANEY UBC RF ADMIN,1103332,BC,9.4,1,0.2,23,0,0.5,1,0,0,0.0,118,0,69,0,14,NA,NA,NA,250,0,2015_04
-121.579,49.356,LAIDLAW,1104488,BC,10.7,0,0.5,23.5,0,2,0,0,0,0.0,109.7,0,66,0,17,NA,NA,NA,220.4,0,2015_04
-122.507,49.211,MAPLE RIDGE KANAKA CREEK,1104R02,BC,9.2,0,-0.4,22.5,0,-1,0,0,0,0.0,87.2,0,61,0,13,NA,NA,NA,264.9,0,2015_04
-122.271,49.153,MISSION WEST ABBEY,1105192,BC,9.8,0,0.2,22,0,2,0,0,0,0.0,92.4,0,61,0,14,NA,NA,NA,247.4,0,2015_04
-123.078,49.182,RICHMOND OPERATIONS CENTRE,1105210,BC,NA,NA,NA,NA,NA,NA,NA,NA,NA,NA,42.9,0,NA,NA,9,NA,NA,NA,NA,NA,2015_04
-123.078,49.381,N VANC GROUSE MTN RESORT,1105658,BC,3.9,15,0.3,17,15,-4,15,17,15,NA,22.8,15,NA,NA,6,NA,NA,NA,211.5,0,2015_04
-123.115,49.315,N VANCOUVER WHARVES,1105669,BC,NA,NA,NA,NA,NA,NA,NA,0,7,NA,27.9,7,NA,NA,6,NA,NA,NA,NA,NA,2015_04
-122.69,49.208,PITT MEADOWS CS,1106178,BC,9.6,1,NA,22.8,1,0.2,0,NA,NA,NA,79.1,1,NA,NA,11,NA,NA,NA,243.5,0,2015_04
-123.265,49.33,POINT ATKINSON,1106200,BC,9,0,NA,17.3,0,0.3,0,NA,NA,NA,46.2,0,NA,NA,12,NA,NA,NA,270.2,0,2015_04
-123.087,49.179,RICHMOND DALLYN 2,1106764,BC,NA,NA,NA,NA,NA,NA,NA,0,5,NA,52.6,5,NA,0,10,NA,NA,NA,NA,NA,2015_04
-123.093,49.171,RICHMOND NATURE PARK,1106PF7,BC,9.9,0,0,22,0,-1,0,0,0,0.0,59.4,0,62,0,11,NA,NA,NA,242.9,0,2015_04
-123.303,49.106,SANDHEADS CS,1107010,BC,10.1,0,NA,15.9,0,5.3,0,NA,NA,NA,NA,NA,NA,NA,NA,NA,NA,NA,237,0,2015_04
-122.11,49.113,SUMAS CANAL,1107785,BC,10.9,16,NA,22,11,4,11,0,11,NA,80.7,11,NA,0,11,NA,NA,NA,98.8,0,2015_04
-123.187,49.183,VANCOUVER SEA ISLAND CCG,1108380,BC,9.4,0,NA,18.8,0,0.8,0,NA,NA,NA,42.9,0,NA,NA,7,NA,NA,NA,259,0,2015_04
-123.184,49.195,VANCOUVER INTL A,1108395,BC,9.2,0,NA,18.5,0,0.4,0,0,0,NA,51.4,1,NA,0,10,NA,NA,NA,263.9,0,2015_04
-123.122,49.295,VANCOUVER HARBOUR CS,1108446,BC,10.3,1,NA,19.2,1,2.8,0,NA,NA,NA,76.9,1,NA,NA,11,NA,NA,NA,223.5,0,2015_04
-123.193,49.347,WEST VANCOUVER AUT,1108824,BC,9.6,0,NA,20.1,0,2.1,0,NA,NA,NA,80.6,0,NA,NA,14,NA,NA,NA,252.6,0,2015_04
-122.947,50.068,WHISTLER ROUNDHOUSE,1108906,BC,-1.7,0,NA,10.5,0,-9.5,0,71.1,0,NA,85.1,0,NA,173,15,NA,NA,NA,590.3,0,2015_04
-122.784,49.018,WHITE ROCK CAMPBELL SCIENTIFIC,1108910,BC,10.1,1,NA,19.8,1,3.3,0,NA,NA,NA,45.8,6,NA,NA,7,NA,NA,NA,228,0,2015_04
-122.967,49.438,N VAN SEYMOUR HATCHERY,110N666,BC,8.4,2,0.3,22,2,0,2,0,2,NA,166.4,2,NA,0,14,NA,NA,NA,268.9,0,2015_04
-121.498,49.368,HOPE A,1113542,BC,10.5,1,NA,23.3,1,1.7,1,NA,NA,NA,98.5,2,NA,NA,15,NA,NA,NA,216.9,0,2015_04
-121.493,49.37,HOPE AIRPORT,1113543,BC,10.3,0,NA,22.9,0,1.7,0,NA,NA,NA,88.3,1,NA,NA,14,NA,NA,NA,230.9,0,2015_04
-121.233,49.267,HOPE SLIDE,1113581,BC,6.2,0,0.3,21.5,0,-4,0,2,0,13.0,39.2,0,51,0,10,NA,NA,NA,354.6,0,2015_04
-121.934,50.684,LILLOOET,1114619,BC,10.5,0,NA,26.1,0,-1.6,0,NA,NA,NA,NA,NA,NA,NA,NA,NA,NA,NA,224.3,0,2015_04
-121.582,50.224,LYTTON A,1114738,BC,10.8,3,NA,27.1,3,-1.8,1,NA,NA,NA,0.3,3,NA,NA,0,NA,NA,NA,194.8,0,2015_04
-121.582,50.224,LYTTON RCS,1114746,BC,10.9,0,NA,28.3,0,-2.2,0,NA,NA,NA,1.3,6,NA,NA,0,NA,NA,NA,213.1,0,2015_04
-120.069,49.364,HEDLEY N,1123370,BC,9.1,3,NA,27,3,-4,3,0,3,NA,15.6,3,NA,0,8,NA,NA,NA,241,0,2015_04
-120.333,49.673,JELLICOE,1123721,BC,5.6,5,NA,22.5,5,-6.5,5,9,5,NA,14.5,5,NA,0,4,NA,NA,NA,309,0,2015_04
-119.378,49.957,KELOWNA,1123939,BC,8.4,0,NA,25.8,0,-4.9,0,NA,NA,NA,4.9,0,NA,NA,2,NA,NA,NA,289.3,0,2015_04
-119.4,49.941,KELOWNA UBCO,1123996,BC,9.4,0,NA,26.4,0,-2.6,0,NA,NA,NA,4.3,0,NA,NA,2,NA,NA,NA,258.1,0,2015_04
-119.4,49.95,KELOWNA MWS0,11239R0,BC,9.3,1,NA,26,1,-2.6,1,0,1,NA,8,1,NA,0,3,NA,NA,NA,252.3,0,2015_04
-120.778,50.113,MERRITT,1125073,BC,7.2,0,NA,25.2,0,-7.2,0,NA,NA,NA,0,25,NA,NA,0,NA,NA,NA,323.7,0,2015_04
-120.801,50.114,MERRITT STP,1125079,BC,8.1,0,-0.1,24.5,0,-4.5,0,0,0,0.0,5.2,0,34,0,2,NA,NA,NA,298.4,0,2015_04
-119.445,50.056,OKANAGAN CENTRE,1125700,BC,10.3,0,0.9,25.5,0,0,0,0,0,0.0,6,0,19,0,2,NA,NA,NA,231.4,0,2015_04
-119.545,49.179,OLIVER STP,1125766,BC,11.8,11,1.1,27,11,-0.5,11,0,11,NA,2.2,11,NA,0,1,NA,NA,NA,118,0,2015_04
-119.441,49.028,OSOYOOS CS,1125852,BC,11,0,0,26.5,0,-1.8,0,NA,NA,NA,4.8,1,NA,NA,1,NA,NA,NA,210.4,0,2015_04
-119.717,49.783,PEACHLAND,1126070,BC,10.6,3,0.9,24.5,3,0,3,0,3,NA,12.2,3,NA,0,3,NA,NA,NA,199.6,0,2015_04
-119.602,49.463,PENTICTON A,1126146,BC,9.5,0,NA,25.5,0,-4.5,0,0,0,NA,7.4,0,NA,NA,3,NA,NA,NA,256.3,0,2015_04
-120.513,49.468,PRINCETON A,1126510,BC,6.8,0,-0.3,24.5,0,-6.5,0,8.8,0,476.0,12.2,0,66,0,3,NA,NA,NA,336.8,0,2015_04
-119.31,50.264,VERNON BELLA VISTA,1128553,BC,10.1,4,0.5,25,3,-2,3,0,0,0.0,4.8,0,17,0,2,NA,NA,NA,205.4,0,2015_04
-119.194,50.223,VERNON AUTO,1128582,BC,9.4,0,NA,26.7,0,-2.1,0,NA,NA,NA,5,0,NA,NA,2,NA,NA,NA,257.8,0,2015_04
-119.27,50.344,VERNON NORTH,1128583,BC,9.6,0,0.2,24.5,0,-2,0,0,0,0.0,7.8,0,27,0,3,NA,NA,NA,251.5,0,2015_04
-119.056,50.359,VERNON SILVER STAR LODGE,1128584,BC,-0.2,23,NA,9,23,-7,23,7,23,NA,7,23,NA,NA,2,NA,NA,NA,127.3,0,2015_04
-119.415,50.037,WINFIELD,1128958,BC,9.8,6,0.6,25.5,6,-0.5,6,0,6,NA,5.4,6,NA,0,3,NA,NA,NA,197.1,0,2015_04
-120.51,49.465,PRINCETON CS,112FN0M,BC,6.8,0,NA,24.3,0,-5.7,0,NA,NA,NA,11.8,0,NA,NA,5,NA,NA,NA,334.9,0,2015_04
-119.649,49.563,SUMMERLAND CS,112G8L1,BC,9.4,0,0,25.5,0,-2.1,0,NA,NA,NA,4.8,0,NA,NA,1,NA,NA,NA,258.3,0,2015_04
-118.491,49.037,GRAND FORKS HARDY MTN,1133273,BC,NA,NA,NA,NA,NA,NA,NA,0,0,NA,18,0,NA,0,7,NA,NA,NA,NA,NA,2015_04
-118.772,49.004,MIDWAY,1135126,BC,8.9,0,0.4,28,0,-6,0,0,0,0.0,15.6,0,33,0,4,NA,NA,NA,273.5,0,2015_04
-118.228,49.017,BILLINGS,1140876,BC,9.3,2,0.2,26,2,-3,2,0,2,NA,16.4,2,NA,0,5,NA,NA,NA,243.3,0,2015_04
-117.633,49.296,CASTLEGAR A,1141455,BC,9,0,0.2,28,0,-3.9,0,0,0,0.0,29.5,0,50,0,7,NA,NA,NA,269.1,0,2015_04
-117.774,49.343,CASTLEGAR BCHPA DAM,1141457,BC,9.7,0,0.9,27,0,-2,0,0,0,0.0,29.1,0,58,0,7,NA,NA,NA,247.6,0,2015_04
-116.518,49.097,CRESTON,1142160,BC,9.4,0,0.5,26,0,-2,0,0,0,0.0,16.8,0,36,0,6,NA,NA,NA,259,0,2015_04
-116.972,50.239,DUNCAN LAKE DAM,1142574,BC,7.4,0,0.1,23,0,-4,0,0,0,0.0,27.8,0,53,0,9,NA,NA,NA,319.2,0,2015_04
-118.068,49.872,FAUQUIER,1142820,BC,8,0,0.2,25,0,-4,0,0,0,0.0,30.6,0,50,0,9,NA,NA,NA,300.3,0,2015_04
-116.921,49.913,KASLO,1143900,BC,9.2,0,1.6,23.5,0,-2.5,0,0,0,0.0,21.6,0,35,0,6,NA,NA,NA,264.8,0,2015_04
-116.458,49.032,LISTER,1144635,BC,8.4,0,-0.1,25.7,0,-3.5,0,0,0,0.0,17.2,0,43,0,4,NA,NA,NA,287.6,0,2015_04
-117.817,50.269,NAKUSP CS,1145297,BC,8.3,0,NA,24.9,0,-2.8,0,NA,NA,NA,24.8,0,NA,NA,6,NA,NA,NA,291.2,0,2015_04
-117.206,49.586,NELSON NE,1145442,BC,8.6,0,NA,24,0,-2,0,0,0,NA,31.2,0,NA,0,8,NA,NA,NA,281.4,0,2015_04
-117.37,49.996,NEW DENVER,1145460,BC,8.4,0,0.5,26.5,0,-2.5,0,1,0,137.0,48.2,0,78,0,10,NA,NA,NA,286.7,0,2015_04
-117.305,49.491,NELSON CS,1145M29,BC,9.1,0,NA,23.2,0,-2.2,0,NA,NA,NA,24.8,0,NA,NA,7,NA,NA,NA,267.4,0,2015_04
-117.739,49.112,WARFIELD RCS,1148705,BC,9.5,0,NA,27.3,0,-3.2,0,NA,NA,NA,24,0,NA,NA,4,NA,NA,NA,255.7,0,2015_04
-116.501,49.082,CRESTON CAMPBELL SCIENTIFIC,114B1F0,BC,9.3,1,NA,26.4,1,-1.7,0,NA,NA,NA,9,1,NA,NA,2,NA,NA,NA,253.1,0,2015_04
-117.399,49.512,NELSON RIXEN CREEK,114EMDM,BC,8.1,1,NA,25,1,-2.5,1,3.6,1,NA,32.8,1,NA,0,8,NA,NA,NA,287.9,0,2015_04
-115.221,49.226,BAYNES LAKE KOOTENAY RIVER,1150690,BC,7.1,2,0.3,26,1,-6.5,2,0,1,NA,2.8,1,NA,0,2,NA,NA,NA,304.2,0,2015_04
-115.782,49.612,CRANBROOK A,1152105,BC,6.3,0,NA,24.8,0,-5.8,0,2.2,0,NA,5.4,0,NA,NA,4,NA,NA,NA,352.5,0,2015_04
-115.789,49.618,CRANBROOK AIRPORT AUTO,1152106,BC,6.5,0,NA,24.8,0,-5.1,0,NA,NA,NA,4,0,NA,NA,2,NA,NA,NA,344.4,0,2015_04
-115.073,49.489,FERNIE,1152850,BC,7.7,14,2.3,25,14,-6,14,0,14,NA,11.6,14,NA,0,2,NA,NA,NA,164.8,0,2015_04
-114.855,50.149,FORDING RIVER COMINCO,1152899,BC,1.2,24,0.1,19.8,18,-9.6,17,2.8,18,NA,12.8,18,NA,0,1,NA,NA,NA,100.9,0,2015_04
-115.461,49.524,FT STEELE DANDY CRK,1153034,BC,5.3,18,NA,25,12,-6,13,1,12,NA,7,12,NA,NA,2,NA,NA,NA,152.7,0,2015_04
-115.962,49.632,KIMBERLEY PCC,1154203,BC,7.8,13,1.3,25,13,-6,13,0,13,NA,0.4,13,NA,0,0,NA,NA,NA,174.2,0,2015_04
-116.061,50.631,KOOTENAY NP WEST GATE,1154410,BC,7.4,2,0.4,26,0,-4.5,2,0,0,0.0,20.2,0,65,NA,6,NA,NA,NA,296.2,0,2015_04
-114.883,49.745,SPARWOOD,1157630,BC,5.3,0,0.5,22.5,0,-6.5,0,4.4,0,25.0,7.5,0,18,0,2,NA,NA,NA,381.8,0,2015_04
-114.884,49.745,SPARWOOD CS,1157631,BC,5.2,0,NA,22.6,0,-6.5,0,NA,NA,NA,NA,NA,NA,NA,NA,NA,NA,NA,383,0,2015_04
-115.46,49.473,WARDNER KTNY HATCHERY,1158692,BC,6.7,9,-0.5,22,9,-5.5,7,0,7,NA,15.3,7,NA,NA,5,NA,NA,NA,236.5,0,2015_04
-115.631,49.807,WASA,1158730,BC,7,0,0.1,24,0,-5,0,0,0,0.0,17.8,0,47,0,6,NA,NA,NA,330.6,0,2015_04
-121.281,50.708,ASHCROFT,1160515,BC,10.5,0,NA,26.7,0,-2.1,0,NA,NA,NA,2.6,0,NA,NA,1,NA,NA,NA,224.6,0,2015_04
-119.29,52.129,BLUE RIVER A,1160899,BC,5.3,0,0.2,22.6,0,-7.2,0,7.8,0,111.0,45.4,0,77,0,9,NA,NA,NA,380.4,0,2015_04
-119.29,52.129,BLUE RIVER CS,1160H99,BC,5.3,1,NA,22.6,1,-7.3,0,NA,NA,NA,47,1,NA,NA,8,NA,NA,NA,367.2,0,2015_04
-121.083,51.709,BUFFALO LAKE,1161104,BC,4.3,2,0,20.5,2,-8.5,2,12.2,2,NA,18.3,2,NA,0,6,NA,NA,NA,384.1,0,2015_04
-120.082,51.653,CLEARWATER AUTO,1161650,BC,7.6,0,NA,25.5,0,-4.9,0,NA,NA,NA,11,0,NA,NA,4,NA,NA,NA,311.7,0,2015_04
-121.685,51.266,CLINTON A,1161662,BC,3.3,0,NA,19.7,0,-9.9,0,NA,NA,NA,6.9,0,NA,NA,2,NA,NA,NA,441.1,0,2015_04
-121.505,51.144,CLINTON RCS,1161663,BC,4.8,0,NA,21.2,0,-7.6,0,NA,NA,NA,10.2,0,NA,NA,1,NA,NA,NA,396.5,0,2015_04
-120.728,51.03,CRISS CREEK,1162177,BC,3,0,-0.7,20,0,-9,0,15.2,0,100.0,19.8,0,62,0,6,NA,NA,NA,451.4,0,2015_04
-120.183,51.297,DARFIELD,1162265,BC,8.3,0,-0.1,25,0,-3,0,0,0,0.0,19.4,0,68,0,6,NA,NA,NA,289.6,0,2015_04
-120.449,50.703,KAMLOOPS A,1163781,BC,9.8,0,NA,25.9,0,-2.9,0,0,0,NA,10.6,0,NA,NA,3,NA,NA,NA,247.4,0.5,2015_04
-120.442,50.702,KAMLOOPS AUT,1163842,BC,9.9,0,NA,25.4,0,-2.9,0,NA,NA,NA,7.2,0,NA,NA,2,NA,NA,NA,243.1,0.2,2015_04
-121.217,51.681,100 MILE HOUSE 6NE,1165793,BC,5.5,7,NA,22,7,-6,7,3.8,7,NA,12.8,7,NA,0,4,NA,NA,NA,288.5,0,2015_04
-120.8,50.935,RED LAKE,1166658,BC,5.3,0,0.8,20,0,-5,0,14,0,88.0,22.7,0,60,0,7,NA,NA,NA,379.8,0,2015_04
-119.234,50.686,SALMON ARM A,1166R45,BC,9.2,1,1.2,25,1,-4,1,0,1,NA,15.1,1,NA,NA,6,NA,NA,NA,256.8,0.3,2015_04
-119.35,50.545,SILVER CREEK,1167337,BC,8.5,1,0.1,26.5,1,-4.5,1,0,1,NA,5.4,1,NA,0,1,NA,NA,NA,276,0,2015_04
-119.911,50.903,SUN PEAKS MOUNTAIN,1168204,BC,-2.5,19,NA,7,19,-9,18,9.6,19,NA,9.6,19,NA,NA,1,NA,NA,NA,225,0,2015_04
-119.778,51.576,VAVENBY,1168520,BC,7.9,2,-0.1,26,1,-5,1,0,1,NA,8.6,1,NA,0,5,NA,NA,NA,282.6,0,2015_04
-120.2,50.6,KAMLOOPS PRATT ROAD,116C8P0,BC,8.1,4,NA,22,4,-3,4,0,4,NA,14.2,4,NA,0,6,NA,NA,NA,258.7,0,2015_04
-119.291,50.703,SALMON ARM CS,116FRMN,BC,8.9,0,-0.5,22.2,0,-2.8,0,NA,NA,NA,9.3,0,NA,NA,4,NA,NA,NA,272,0,2015_04
-119.883,50.887,SUN PEAKS LOWER,116Q20D,BC,0.8,19,NA,12.5,19,-8,18,5,19,NA,5,19,NA,NA,1,NA,NA,NA,188.8,0,2015_04
-119.918,50.902,SUN PEAKS UPPER,116QK0M,BC,-3.4,19,NA,5,19,-9.5,18,12,19,NA,12,19,NA,NA,2,NA,NA,NA,235.7,0,2015_04
-116.982,51.299,GOLDEN A,1173210,BC,6.3,0,-0.2,25,0,-5,0,3.2,0,129.0,30.6,0,126,0,5,NA,NA,NA,351.2,0,2015_04
-118.425,51.63,GOLDSTREAM RIVER,1173242,BC,6,0,0.9,21,0,-5,0,4,0,65.0,59,0,100,0,14,NA,NA,NA,359,0,2015_04
-118.585,52.053,MICA DAM,1175122,BC,5.4,4,0.4,18.5,2,-3,2,1.5,2,NA,64.2,2,NA,0,13,NA,NA,NA,328,0,2015_04
-118.183,50.967,REVELSTOKE A,1176745,BC,6.6,11,NA,20,11,-2.7,11,NA,NA,NA,11.3,11,NA,NA,4,NA,NA,NA,216.1,0,2015_04
-118.176,50.958,REVELSTOKE AIRPORT AUTO,1176755,BC,7.7,3,NA,24,3,-2.6,2,NA,NA,NA,16.3,3,NA,NA,5,NA,NA,NA,278.5,0,2015_04
-116.345,51.443,YOHO PARK,11790J1,BC,1.3,0,NA,17.7,0,-11.9,0,NA,NA,NA,41.9,0,NA,21,8,NA,NA,NA,502.1,0,2015_04
-116.541,51.433,YOHO NP EMERALD LAKE,117R00G,BC,3.1,6,NA,22,6,-9,6,10,6,NA,27.9,6,NA,0,5,NA,NA,NA,356.9,0,2015_04
-121.017,56.298,CHARLIE LAKE,11814FR,BC,4.3,1,NA,18.5,1,-7.5,1,6,1,NA,34,1,NA,0,6,NA,NA,NA,396.9,0,2015_04
-121.627,55.687,CHETWYND A,1181508,BC,5.2,0,0.6,21,0,-5.6,0,16.6,0,143.0,25.4,0,124,0,7,NA,NA,NA,384,0,2015_04
-120.183,55.742,DAWSON CREEK A,1182289,BC,5.4,0,NA,20.9,0,-7.3,0,NA,NA,NA,29.2,0,NA,NA,6,NA,NA,NA,378.3,0,2015_04
-120.74,56.238,FORT ST. JOHN A,1183001,BC,5.4,0,NA,19.8,0,-4.4,0,21.5,1,NA,50.1,1,NA,NA,5,NA,NA,NA,377.8,0,2015_04
-123.133,55.299,MACKENZIE,1184791,BC,4.5,0,NA,19.6,0,-6.4,0,NA,NA,NA,26.4,0,NA,NA,5,NA,NA,NA,406.3,0,2015_04
-123.138,55.305,MACKENZIE AIRPORT AUTO,1184793,BC,4.7,0,NA,20.3,0,-6.4,0,NA,NA,NA,22.9,0,NA,NA,5,NA,NA,NA,398,0,2015_04
-122.718,57.25,SIKANNI CHIEF,1187335,BC,2.2,21,NA,15.3,21,-9,21,19.6,21,NA,19.6,21,NA,NA,2,NA,NA,NA,142.4,0,2015_04
-130.031,58.422,DEASE LAKE A,1192341,BC,2,0,NA,12.3,0,-8.4,0,NA,NA,NA,4.8,0,NA,NA,3,NA,NA,NA,480.8,0,2015_04
-122.597,58.836,FORT NELSON A,1192946,BC,5.2,0,NA,21.6,0,-7.1,0,10.6,0,NA,19.1,0,NA,NA,4,NA,NA,NA,382.7,0,2015_04
-122.573,58.841,FORT NELSON UA,1192950,BC,6,1,NA,26.5,1,-7,1,0.4,1,NA,10.6,1,NA,0,2,NA,NA,NA,347.4,0,2015_04
-130.025,58.426,DEASE LAKE (AUT),119BLM0,BC,1.8,0,NA,12.3,0,-8.9,0,NA,NA,NA,5.1,1,NA,NA,4,NA,NA,NA,486.9,0,2015_04
-133.7,59.567,ATLIN,1200560,BC,3,0,1.7,10.5,0,-6.5,0,11.2,0,175.0,15.4,0,164,0,2,NA,NA,NA,449,0,2015_04
-136.367,59.45,PLEASANT CAMP,1206197,BC,3.3,2,0.5,13.5,2,-6,2,22.2,2,NA,106,2,NA,0,14,NA,NA,NA,412.5,0,2015_04
-139.04,61.371,BURWASH A,2100181,YT,0.1,1,NA,11.6,0,-17.1,1,NA,NA,NA,8.1,0,NA,NA,2,NA,NA,NA,519.9,0,2015_04
-139.017,61.367,BURWASH AIRPORT AUTO,2100184,YT,-0.1,0,NA,11.3,0,-17.5,0,NA,NA,NA,2.2,0,NA,NA,1,NA,NA,NA,543.1,0,2015_04
-136.192,62.115,CARMACKS CS,2100301,YT,2.8,0,NA,15.8,0,-9.4,0,NA,NA,NA,6.9,0,NA,0,2,NA,NA,NA,457.5,0,2015_04
-133.376,62.208,FARO (AUT),2100518,YT,1.5,0,NA,13.1,0,-11.2,0,NA,NA,NA,0.8,28,NA,NA,0,NA,NA,NA,494.1,0,2015_04
-137.58,60.773,HAINES JUNCTION,2100630,YT,1.7,0,NA,13.1,0,-10.8,0,NA,NA,NA,0.6,0,NA,1,0,NA,NA,NA,488.3,0,2015_04
-140.15,69.164,IVVAVIK NAT. PARK,2100660,YT,-8.2,1,NA,7.6,1,-25.5,1,NA,NA,NA,2.4,3,NA,0,0,NA,NA,NA,760.5,0,2015_04
-140.197,69.612,KOMAKUK BEACH,2100682,YT,-11.2,0,NA,6.1,0,-25,0,NA,NA,NA,NA,NA,NA,NA,NA,NA,NA,NA,876.9,0,2015_04
-130.037,63.244,MACMILLAN PASS,2100693,YT,-5.7,0,NA,4.5,0,-19.2,0,NA,NA,NA,29.5,1,NA,116,8,NA,NA,NA,710.9,0,2015_04
-140.848,68.801,MARGARET LAKE,2100697,YT,-8,6,NA,4.7,6,-25.7,1,NA,NA,NA,NA,NA,NA,NA,NA,NA,NA,NA,623.4,0,2015_04
-135.868,63.616,MAYO A,2100701,YT,2.9,0,NA,14.3,0,-7.2,0,1.4,0,NA,5,0,NA,NA,1,NA,NA,NA,452.5,0,2015_04
-135.183,60.876,MAYO ROAD,2100709,YT,2.5,0,1.1,15.5,0,-10,0,0,0,0.0,4.4,0,85,0,1,NA,NA,NA,465,0,2015_04
-139.839,67.571,OLD CROW RCS,2100805,YT,-6.1,0,NA,9.4,0,-24.5,0,NA,NA,NA,2.6,0,NA,0,0,NA,NA,NA,723.5,0,2015_04
-137.05,61.033,OTTER FALLS NCPC,2100840,YT,1.5,0,2.2,14,0,-11,0,2,0,25.0,2,0,23,NA,1,NA,NA,NA,496.1,0,2015_04
-137.311,62.83,PELLY RANCH,2100880,YT,2.6,2,1.9,15,2,-11,2,0.5,2,NA,9.5,2,NA,NA,4,NA,NA,NA,429.9,0,2015_04
-136.218,66.981,ROCK RIVER,2100935,YT,-5.2,0,NA,7.3,0,-19.1,0,NA,NA,NA,7.2,2,NA,NA,1,NA,NA,NA,696.7,0,2015_04
-137.217,68.95,SHINGLE POINT A,2100950,YT,-10.7,1,NA,4.6,0,-30,1,NA,NA,NA,NA,NA,NA,NA,NA,NA,NA,NA,831.7,0,2015_04
-129.132,61.182,HOUR LAKE,2100FCG,YT,0.5,0,NA,12.5,0,-15,0,8.2,0,NA,13.4,0,NA,NA,5,NA,NA,NA,525.7,0,2015_04
-139.127,64.061,DAWSON,2100LRP,YT,2.4,0,NA,15.7,0,-10.6,0,NA,NA,NA,19.3,0,NA,NA,4,NA,NA,NA,468.5,0,2015_04
-135.573,60.946,TAKHINI RIVER RANCH,2101095,YT,0.8,0,0.6,9.5,0,-9.5,0,3,0,134.0,4.2,0,134,NA,2,NA,NA,NA,514.6,0,2015_04
-132.733,60.167,TESLIN (AUT),2101102,YT,2.3,1,NA,12.3,1,-7.8,1,NA,NA,NA,10.1,1,NA,6,3,NA,NA,NA,455.8,0,2015_04
-128.832,60.116,WATSON LAKE (AUT),2101204,YT,1.4,0,NA,13.6,0,-13.2,0,NA,NA,NA,4.1,0,NA,0,1,NA,NA,NA,497.4,0,2015_04
-135.067,60.709,WHITEHORSE A,2101303,YT,2.9,0,NA,13.5,0,-7.1,0,NA,NA,NA,NA,NA,NA,NA,NA,NA,NA,NA,453.5,0,2015_04
-135.098,60.733,WHITEHORSE AUTO,2101310,YT,3,0,NA,12.9,0,-7.2,0,NA,NA,NA,2.9,0,NA,0,1,NA,NA,NA,448.7,0,2015_04
-124.717,70.167,CAPE PARRY A,2200675,NT,-14.1,0,NA,-1.4,0,-26.7,0,NA,NA,NA,NA,NA,NA,NA,NA,NA,NA,NA,963.1,0,2015_04
-126.123,67.021,COLVILLE LAKE,2200824,NT,-7.9,1,NA,6.4,0,-31.7,1,NA,NA,NA,40.3,5,NA,NA,16,NA,NA,NA,751.5,0,2015_04
-123.433,65.209,DELINE CS,2201022,NT,-5.9,0,NA,9.7,0,-30,0,NA,NA,NA,NA,NA,NA,4,NA,NA,NA,NA,715.5,0,2015_04
-124.468,61.257,DEADMEN VALLEY,22010H0,NT,3.5,0,NA,19,0,-14.6,0,NA,NA,NA,NA,NA,NA,NA,NA,NA,NA,NA,435.1,0,2015_04
-128.644,66.242,FORT GOOD HOPE CS,2201450,NT,-3.8,0,NA,10.2,0,-22.3,0,NA,NA,NA,NA,NA,NA,48,NA,NA,NA,NA,655.4,0,2015_04
-123.467,60.233,FORT LIARD,2201579,NT,4.6,0,NA,20,0,-9.6,0,NA,NA,NA,NA,NA,NA,NA,NA,NA,NA,NA,401.5,0,2015_04
-109.168,62.711,FORT RELIANCE (AUT),2201903,NT,-8,0,NA,16.5,0,-35.1,0,NA,NA,NA,25.3,2,NA,8,5,NA,NA,NA,781.2,0,2015_04
-121.237,61.76,FORT SIMPSON CLIMATE,2202102,NT,1,0,NA,16.5,0,-20.4,0,NA,NA,NA,27.4,0,NA,4,4,NA,NA,NA,510.3,0,2015_04
-121.237,61.76,FORT SIMPSON A,2202103,NT,1,0,NA,16,0,-20.5,0,8.8,0,NA,24,1,NA,NA,5,NA,NA,NA,510,0,2015_04
-111.962,60.02,FORT SMITH A,2202201,NT,0.9,0,NA,22.2,0,-24.8,0,6.4,1,NA,5.6,2,NA,NA,1,NA,NA,NA,514.4,0,2015_04
-111.929,60.026,FORT SMITH CLIMATE,2202202,NT,1.1,0,NA,23.2,0,-24.4,0,NA,NA,NA,5.5,0,NA,5,1,NA,NA,NA,508.3,0,2015_04
-105.133,63.6,HANBURY RIVER,2202351,NT,-16.9,0,NA,3.9,0,-36,0,NA,NA,NA,3.9,0,NA,39,1,NA,NA,NA,1046.4,0,2015_04
-115.783,60.84,HAY RIVER A,2202401,NT,-1,0,NA,21.5,0,-29.4,0,6.2,0,NA,7.2,0,NA,NA,2,NA,NA,NA,571.3,0,2015_04
-115.777,60.839,HAY RIVER CLIMATE,2202402,NT,-0.6,0,NA,21.2,0,-28.1,0,NA,NA,NA,14.4,0,NA,NA,6,NA,NA,NA,558.1,0,2015_04
-133.517,68.317,INUVIK CLIMATE,2202578,NT,-6.8,0,NA,8.4,0,-25.5,0,NA,NA,NA,18.2,0,NA,36,4,NA,NA,NA,743.9,0,2015_04
-117.245,63.134,WHATI,2202678,NT,-4,0,NA,15.7,0,-34.3,0,NA,NA,NA,NA,NA,NA,NA,NA,NA,NA,NA,658.9,0,2015_04
-126.799,65.281,NORMAN WELLS A,2202801,NT,-3.2,0,NA,10.7,0,-24.6,0,25.8,0,NA,32.4,1,NA,4,5,NA,NA,NA,634.8,0,2015_04
-126.753,65.288,NORMAN WELLS CLIMATE,2202810,NT,-0.8,7,NA,11.5,7,-17.3,5,NA,NA,NA,31.5,10,NA,4,8,NA,NA,NA,433.5,0,2015_04
-124.083,69.358,PAULATUK,2203058,NT,-13.7,0,NA,2.5,0,-30.4,0,NA,NA,NA,11.8,0,NA,4,4,NA,NA,NA,951.7,0,2015_04
-127.209,61.963,RABBIT KETTLE,2203342,NT,2.1,9,NA,16.6,8,-13.8,8,NA,NA,NA,NA,NA,NA,NA,NA,NA,NA,NA,334.6,0,2015_04
-117.328,64.112,RAE LAKES,2203359,NT,-7.9,13,NA,16.1,13,-33.8,12,NA,NA,NA,NA,NA,NA,NA,NA,NA,NA,NA,439.5,0,2015_04
-133.026,69.433,TUKTOYAKTUK A,2203912,NT,-12,1,3.7,3.3,1,-28.2,1,8.8,1,NA,8.8,1,NA,NA,3,NA,NA,NA,869.7,0,2015_04
-133.017,69.433,TUKTOYAKTUK,2203914,NT,-11.7,0,NA,3.8,0,-28.9,0,NA,NA,NA,NA,NA,NA,NA,NA,NA,NA,NA,889.6,0,2015_04
-114.44,62.463,YELLOWKNIFE A,2204101,NT,-4,0,NA,16.8,0,-30.3,0,2.8,0,NA,5.2,0,NA,NA,3,NA,NA,NA,660.7,0,2015_04
-114.383,62.45,YELLOWKNIFE-HENDERSON,2204110,NT,-4.3,0,NA,16.5,0,-29,0,2.5,0,NA,8.9,0,NA,0,2,NA,NA,NA,667.9,0,2015_04
-123.742,61.242,YOHIN,2204300,NT,1.8,12,NA,17.5,12,-10.6,11,NA,NA,NA,NA,NA,NA,NA,NA,NA,NA,NA,291,0,2015_04
-130.911,69.604,LIVERPOOL BAY,220B68C,NT,-13,0,NA,3.1,0,-27.8,0,NA,NA,NA,NA,NA,NA,NA,NA,NA,NA,NA,929.7,0,2015_04
-130.228,67.179,LITTLE CHICAGO,220B6Q3,NT,-3.8,0,NA,9.7,0,-25.1,0,NA,NA,NA,NA,NA,NA,NA,NA,NA,NA,NA,654.6,0,2015_04
-110.69,62.416,LUTSELK'E CS,220L002,NT,-5.7,0,NA,15.8,0,-32.2,0,NA,NA,NA,NA,NA,NA,NA,NA,NA,NA,NA,712.2,0,2015_04
-110.615,64.699,EKATI A,220N001,NT,-14.8,0,NA,4.5,0,-35.5,0,6,0,NA,7.8,0,NA,68,3,NA,NA,NA,985.2,0,2015_04
-122.851,61.125,LINDBURG LANDING,220N003,NT,2.3,0,NA,17,0,-19.9,0,NA,NA,NA,30,1,NA,NA,6,NA,NA,NA,472.3,0,2015_04
-133.502,68.746,TRAIL VALLEY,220N005,NT,-10.1,0,NA,6.7,0,-30.4,0,NA,NA,NA,4.6,2,NA,NA,1,NA,NA,NA,844.3,0,2015_04
-94.072,61.094,ARVIAT A,2300427,NU,-14.5,2,NA,0.2,2,-33.8,2,NA,NA,NA,1.6,3,NA,NA,0,NA,NA,NA,908.9,0,2015_04
-96,64.317,BAKER LAKE CLIMATE,2300501,NU,-17.9,1,NA,-1.4,1,-35.7,0,NA,NA,NA,16.1,28,NA,18,2,NA,NA,NA,1042.3,0,2015_04
-96.078,64.299,BAKER LAKE A,2300503,NU,-17.4,0,NA,-1,0,-35.4,0,26,0,NA,26.4,0,NA,50,8,NA,NA,NA,1061.6,0,2015_04
-108.015,66.838,BATHURST INLET,2300551,NU,-16.4,0,NA,1.7,0,-32.4,0,NA,NA,NA,27.2,1,NA,NA,12,NA,NA,NA,1031.3,0,2015_04
-115.144,67.817,KUGLUKTUK A,2300903,NU,-17.6,0,NA,3.6,0,-33.9,0,12.2,0,NA,9.3,0,NA,15,2,NA,NA,NA,1068.3,0,2015_04
-115.135,67.817,KUGLUKTUK CLIMATE,2300904,NU,-17.5,0,NA,3.7,0,-33.7,0,NA,NA,NA,9.4,0,NA,19,2,NA,NA,NA,1065.9,0,2015_04
-83.359,64.193,CORAL HARBOUR A,2301000,NU,-16.4,0,-0.4,-1.7,0,-35,0,14.7,0,81.0,14.4,0,79,33,5,NA,NA,NA,1033.2,0,2015_04
-83.35,64.183,CORAL HARBOUR RCS,2301010,NU,-15.9,0,NA,-0.6,0,-34.3,0,NA,NA,NA,41.4,0,NA,25,7,NA,NA,NA,1018.2,0,2015_04
-100.884,61.132,ENNADAI LAKE (AUT),2301102,NU,-13.5,1,NA,3.6,1,-35.3,1,NA,NA,NA,16.1,2,NA,0,3,NA,NA,NA,912.2,0,2015_04
-94.067,61.1,ARVIAT CLIMATE,2301153,NU,-14.5,0,NA,0.2,0,-33.9,0,NA,NA,NA,26.6,0,NA,NA,4,NA,NA,NA,974.1,0,2015_04
-95.85,68.636,GJOA HAVEN A,2302337,NU,-21.3,0,NA,-3.6,0,-36.5,0,NA,NA,NA,1.6,0,NA,NA,1,NA,NA,NA,1179.3,0,2015_04
-95.85,68.636,GJOA HAVEN CLIMATE,2302340,NU,-28.8,21,NA,-23.2,21,-36.6,20,NA,NA,NA,3.1,21,NA,NA,1,NA,NA,NA,421,0,2015_04
-100.087,68.318,HAT ISLAND,2302370,NU,-20.7,0,NA,-5.1,0,-36,0,NA,NA,NA,NA,NA,NA,NA,NA,NA,NA,NA,1161.4,0,2015_04
-89.726,68.437,CAM FOUR,2303093,NU,-20.6,0,NA,-6,0,-34.4,0,NA,NA,NA,NA,NA,NA,NA,NA,NA,NA,NA,1158.4,0,2015_04
-89.796,68.538,KUGAARUK CLIMATE,2303094,NU,-20.9,0,NA,-4.1,0,-40.5,0,NA,NA,NA,6.1,0,NA,3,1,NA,NA,NA,1166.2,0,2015_04
-92.115,62.811,RANKIN INLET A,2303405,NU,-15.8,0,NA,6.2,0,-36.1,0,8.8,0,NA,14.4,0,NA,47,5,NA,NA,NA,1013,0,2015_04
-79.26,56.537,SANIKILUAQ,2303668,NU,-8.9,0,NA,4.8,0,-25.8,0,NA,NA,NA,16.1,0,NA,NA,4,NA,NA,NA,805.6,0,2015_04
-93.433,68.817,SHEPHERD BAY A,2303685,NU,-13.5,26,NA,-6.9,26,-20.8,26,NA,NA,NA,NA,NA,NA,NA,NA,NA,NA,NA,126.1,0,2015_04
-119.219,69.276,CROKER RIVER,230J01Q,NU,-17.6,0,NA,-4.1,0,-30.9,0,NA,NA,NA,NA,NA,NA,NA,NA,NA,NA,NA,1067.7,0,2015_04
-111.246,65.755,LUPIN CS,230N002,NU,-17.5,0,NA,0.4,0,-33.5,0,NA,NA,NA,31.2,26,NA,84,4,NA,NA,NA,1065.9,0,2015_04
-62.333,82.5,ALERT CLIMATE,2400305,NU,-22.5,0,NA,-6.4,0,-36.7,0,NA,NA,NA,0.6,0,NA,58,0,NA,NA,NA,1214.1,0,2015_04
-62.333,82.5,ALERT UA,2400306,NU,NA,NA,NA,NA,NA,NA,NA,22.8,2,NA,21.4,1,NA,59,5,NA,NA,NA,NA,NA,2015_04
-85.012,72.993,ARCTIC BAY CS,2400404,NU,-23.5,2,NA,-9.9,2,-36.8,0,NA,NA,NA,4.4,22,NA,8,2,NA,NA,NA,1162.3,0,2015_04
-64.146,63.34,BREVOORT ISLAND,2400565,NU,-13.8,0,NA,-2.4,0,-23.5,0,NA,NA,NA,NA,NA,NA,NA,NA,NA,NA,NA,953.7,0,2015_04
-63.789,67.536,FOX FIVE,2400570,NU,-18.6,0,NA,-5.6,0,-28.1,0,NA,NA,NA,NA,NA,NA,NA,NA,NA,NA,NA,1097,0,2015_04
-64.033,67.547,QIKIQTARJUAQ CLIMATE,2400573,NU,-20.3,0,NA,-4.4,0,-31,0,NA,NA,NA,5.5,0,NA,68,1,NA,NA,NA,1150.2,0,2015_04
-64.032,67.547,QIKIQTARJUAQ A,2400577,NU,-20.1,3,NA,-3.8,2,-31,1,NA,NA,NA,0.2,1,NA,NA,0,NA,NA,NA,1029,0,2015_04
-105.137,69.108,CAMBRIDGE BAY A,2400601,NU,-20.5,0,NA,-5.7,0,-34,0,2.8,0,NA,2.8,0,NA,35,1,NA,NA,NA,1155.5,0,2015_04
-105.138,69.108,CAMBRIDGE BAY GSN,2400602,NU,-20.6,0,NA,-5.8,0,-33.9,0,NA,NA,NA,3.3,0,NA,11,2,NA,NA,NA,1157,0,2015_04
-76.53,64.231,KINNGAIT,2400636,NU,-13.4,0,NA,-1.3,0,-25.4,0,NA,NA,NA,13.6,0,NA,NA,3,NA,NA,NA,940.7,0,2015_04
-76.525,64.23,CAPE DORSET A,2400637,NU,-14,4,NA,-1,4,-25.1,3,NA,NA,NA,8.3,4,NA,NA,2,NA,NA,NA,832.2,0,2015_04
-61.383,66.65,CAPE DYER,2400650,NU,-18.1,0,NA,-6.3,0,-27.2,0,NA,NA,NA,NA,NA,NA,NA,NA,NA,NA,NA,1083.8,0,2015_04
-66.815,68.473,CAPE HOOPER,2400660,NU,-19.4,0,NA,-5.7,0,-26.7,0,NA,NA,NA,NA,NA,NA,NA,NA,NA,NA,NA,1120.7,0,2015_04
-107.823,69.036,CAPE PEEL WEST,2400697,NU,-20,0,NA,-7.2,0,-34.7,0,NA,NA,NA,NA,NA,NA,NA,NA,NA,NA,NA,1141.1,0,2015_04
-68.517,70.483,CLYDE RIVER CLIMATE,2400802,NU,-22.6,0,NA,-6.8,0,-34.5,0,NA,NA,NA,1.2,0,NA,NA,0,NA,NA,NA,1217.1,0,2015_04
-68.517,70.486,CLYDE RIVER A,2400804,NU,-22.3,0,NA,-6.2,0,-34,0,NA,NA,NA,0,0,NA,NA,0,NA,NA,NA,1209.9,0,2015_04
-63.578,64.958,CAPE MERCY,2400F63,NU,-16.3,0,NA,-4.6,0,-26.1,0,NA,NA,NA,NA,NA,NA,NA,NA,NA,NA,NA,1028.9,0,2015_04
-71.167,68.65,DEWAR LAKES,2401030,NU,-21,2,NA,-4.7,2,-32.4,2,NA,NA,NA,NA,NA,NA,NA,NA,NA,NA,NA,1090.7,0,2015_04
-85.933,79.983,EUREKA A,2401200,NU,-27,0,-0.5,-14.8,0,-40.4,0,10,0,219.0,8.2,0,223,7,3,NA,NA,NA,1351,0,2015_04
-94.198,72.018,FORT ROSS,2402051,NU,-19.7,0,NA,-2.4,0,-30.7,0,NA,NA,NA,6.2,1,NA,15,1,NA,NA,NA,1131.7,0,2015_04
-100.267,70.633,GATESHEAD ISLAND,2402332,NU,-20.6,0,NA,-6.3,0,-33.1,0,NA,NA,NA,30,1,NA,NA,5,NA,NA,NA,1157.5,0,2015_04
-82.902,76.423,GRISE FIORD CLIMATE,2402351,NU,-23,0,NA,-6.2,0,-34.3,0,NA,NA,NA,10.3,1,NA,4,4,NA,NA,NA,1229.9,0,2015_04
-81.244,68.776,SANIRAJAK,2402353,NU,-21.9,0,NA,-6.7,0,-35,0,NA,NA,NA,7.2,0,NA,46,1,NA,NA,NA,1196.2,0,2015_04
-81.243,68.776,HALL BEACH A,2402354,NU,-21.8,0,NA,-6.4,0,-35,0,NA,NA,NA,0.6,0,NA,NA,0,NA,NA,NA,1193.1,0,2015_04
-68.55,63.75,IQALUIT AWOS,2402591,NU,-13.4,8,NA,-1,7,-28.7,8,NA,NA,NA,NA,NA,NA,NA,NA,NA,NA,NA,690.7,0,2015_04
-68.544,63.747,IQALUIT CLIMATE,2402592,NU,-14.7,0,NA,-1.1,0,-29.1,0,NA,NA,NA,11.3,0,NA,24,2,NA,NA,NA,980.2,0,2015_04
-68.55,63.75,IQALUIT UA,2402594,NU,NA,NA,NA,NA,NA,NA,NA,20.6,2,NA,20.6,2,NA,23,7,NA,NA,NA,NA,NA,2015_04
-103.554,78.792,ISACHSEN (AUT),2402604,NU,-18,11,NA,-8.9,11,-31.9,11,NA,NA,NA,NA,NA,NA,NA,NA,NA,NA,NA,683.5,0,2015_04
-65.711,66.143,PANGNIRTUNG,2403049,NU,-15.6,1,NA,-3.7,1,-27.9,1,NA,NA,NA,4.6,8,NA,24,2,NA,NA,NA,973.2,0,2015_04
-77.958,72.693,POND INLET CLIMATE,2403204,NU,-25.4,0,NA,-11.9,0,-35.3,0,NA,NA,NA,6.9,0,NA,NA,3,NA,NA,NA,1303.1,0,2015_04
-77.969,72.689,POND INLET A,2403206,NU,-25,0,NA,-13.9,0,-33.9,0,NA,NA,NA,0,1,NA,NA,0,NA,NA,NA,1289.8,0,2015_04
-105.715,75.377,REA POINT,2403450,NU,-20.5,1,NA,-9,0,-33.7,1,NA,NA,NA,NA,NA,NA,NA,NA,NA,NA,NA,1115.5,0,2015_04
-94.969,74.717,RESOLUTE BAY A,2403498,NU,-21.3,1,NA,-7.4,1,-34.8,0,10.8,2,NA,6.5,4,NA,16,1,NA,NA,NA,1140.1,0,2015_04
-94.983,74.716,RESOLUTE CS,2403505,NU,-21,0,NA,-5.7,0,-33.9,0,NA,NA,NA,33.4,0,NA,2,11,NA,NA,NA,1169.6,0,2015_04
-64.633,61.6,RESOLUTION ISLAND,2403602,NU,-12.1,0,NA,0.5,0,-21.8,0,NA,NA,NA,NA,NA,NA,NA,NA,NA,NA,NA,904,0,2015_04
-79.033,69.083,ROWLEY ISLAND,2403625,NU,-19.3,0,NA,-7.5,0,-30.4,0,NA,NA,NA,NA,NA,NA,NA,NA,NA,NA,NA,1120.3,0,2015_04
-105.296,73.766,STEFANSSON ISLAND,2403756,NU,-21.9,0,NA,-7.3,0,-37.3,0,NA,NA,NA,15.7,10,NA,NA,3,NA,NA,NA,1197.8,0,2015_04
-91.816,81.161,SVARTEVAEG,2403833,NU,-23.8,0,NA,-11.4,0,-36,0,NA,NA,NA,0,0,NA,55,0,NA,NA,NA,1255.3,0,2015_04
-93.577,69.547,TALOYOAK A,2403855,NU,-21.3,0,NA,-6.8,0,-36.8,0,4.4,0,NA,4.4,0,NA,12,1,NA,NA,NA,1180.1,0,2015_04
-89.446,65.879,WAGER BAY (AUT),2403945,NU,NA,NA,NA,NA,NA,NA,NA,NA,NA,NA,0,29,NA,NA,0,NA,NA,NA,NA,NA,2015_04
-119.989,74.139,NANGMAGVIK LAKE,2500440,NT,-23.3,14,NA,-8,9,-37.4,11,NA,NA,NA,1,29,NA,NA,1,NA,NA,NA,660.2,0,2015_04
-117.8,70.761,HOLMAN CS,2502505,NT,NA,NA,NA,NA,NA,NA,NA,NA,NA,NA,1.3,1,NA,68,1,NA,NA,NA,NA,NA,2015_04
-125.254,71.993,SACHS HARBOUR CLIMATE,2503648,NT,-15.7,3,NA,-1.2,3,-31.9,2,NA,NA,NA,1.8,6,NA,16,1,NA,NA,NA,908.8,0,2015_04
-119.538,73.231,THOMSEN RIVER,2503886,NT,-27,13,NA,-14.2,13,-38.6,12,NA,NA,NA,NA,NA,NA,36,NA,NA,NA,NA,764.8,0,2015_04
-119.347,76.238,MOULD BAY CS,250M001,NT,-20.5,0,NA,-6.8,0,-34.7,0,NA,NA,NA,1.4,3,NA,21,0,NA,NA,NA,1153.6,0,2015_04
-112.967,54.283,ABEE AGDM,3010010,AB,3.9,0,NA,23.1,0,-9.6,0,NA,NA,NA,13.3,5,NA,NA,2,NA,NA,NA,421.9,0,2015_04
-111.181,53.113,ALBERT HALL AGCM,3010060,AB,5,0,NA,25.5,0,-8,0,NA,NA,NA,7.8,0,NA,NA,3,NA,NA,NA,391,0,2015_04
-111.779,52.315,ALLIANCE AGCM,3010162,AB,5.3,0,NA,26.3,0,-8,0,NA,NA,NA,6,2,NA,NA,2,NA,NA,NA,380.6,0,2015_04
-112.233,54.017,ANDREW,3010234,AB,5.7,2,1,26,2,-7,2,1,2,NA,8.6,2,NA,NA,3,NA,NA,NA,344,0,2015_04
-112.279,53.917,ANDREW AGDM,3010237,AB,5.3,2,NA,24.5,0,-5.9,2,NA,NA,NA,2,14,NA,NA,1,NA,NA,NA,356.4,0,2015_04
-111.465,52.582,BELLSHILL AGCM,3010650,AB,5.6,0,NA,25.4,0,-6.9,0,NA,NA,NA,14.9,3,NA,NA,4,NA,NA,NA,371.3,0,2015_04
-110.101,52.124,BODO AGDM,3010730,AB,5.9,0,NA,25.1,0,-7.8,0,NA,NA,NA,13.6,6,NA,NA,5,NA,NA,NA,364.4,0,2015_04
-114.483,53.167,BRETON,3010815,AB,5.3,0,NA,25,0,-6,0,28,0,NA,9,0,NA,0,2,NA,NA,NA,381.1,0,2015_04
-114.441,53.089,BRETON PLOTS,3010816,AB,5.2,0,NA,24.4,0,-6.5,0,NA,NA,NA,20.8,0,NA,NA,6,NA,NA,NA,383,0,2015_04
-113.889,53.997,BUSBY,3010978,AB,5.9,0,NA,24,0,-6.5,0,5,0,NA,10.2,0,NA,0,5,NA,NA,NA,362.1,0,2015_04
-113.922,53.931,BUSBY AGCM,3010979,AB,5.1,0,NA,23.4,0,-6.1,0,NA,NA,NA,21.7,0,NA,NA,9,NA,NA,NA,385.8,0,2015_04
-110.51,52.334,CADOGAN AGCM,3010992,AB,5.8,0,NA,25.5,0,-7.4,0,NA,NA,NA,14.7,8,NA,NA,4,NA,NA,NA,366.3,0,2015_04
-112.817,53.05,CAMROSE,3011240,AB,4.8,0,0.3,25.3,0,-10.1,0,NA,NA,NA,29.2,18,NA,NA,3,NA,NA,NA,395.3,0,2015_04
-112.8,52.95,CAMROSE 2,3011241,AB,6.2,25,NA,20,20,-7,21,0,19,NA,0,19,NA,0,0,NA,NA,NA,58.9,0,2015_04
-114.654,53.234,CARNWOOD,3011350,AB,5.3,0,NA,25,0,-6,0,16,0,NA,26,0,NA,0,5,NA,NA,NA,381.3,0,2015_04
-110.713,51.937,CONSORT AGDM,3011815,AB,5.3,0,NA,24.6,0,-7.8,0,NA,NA,NA,62.7,5,NA,NA,3,NA,NA,NA,381,0,2015_04
-111.449,52.074,CORONATION CLIMATE,3011887,AB,4.9,0,NA,24.4,0,-6.6,0,NA,NA,NA,9.1,0,NA,NA,3,NA,NA,NA,393.7,0,2015_04
-113.903,52.733,CRESTOMERE AGCM,3011892,AB,4.7,0,NA,26.1,0,-8.8,0,NA,NA,NA,21,8,NA,NA,8,NA,NA,NA,398.1,0,2015_04
-113.95,52.75,DAKOTA WEST,3011953,AB,5.5,5,1.3,26.5,5,-7,5,18.2,5,NA,20.2,5,NA,0,6,NA,NA,NA,312.9,0,2015_04
-113.176,52.183,DELBURNE AGCM,3012050,AB,5.5,0,NA,26.1,0,-6.9,0,NA,NA,NA,12.9,2,NA,NA,2,NA,NA,NA,376.1,0,2015_04
-110.588,53.659,DEWBERRY AGCM,3012073,AB,5.4,0,NA,24.8,0,-7.4,0,NA,NA,NA,6.8,5,NA,NA,3,NA,NA,NA,377.4,0,2015_04
-112.351,52.517,DONALDA SOUTH,3012095,AB,5.2,0,NA,27.5,0,-9,0,18,0,NA,18,0,NA,0,3,NA,NA,NA,383.8,0,2015_04
-110.433,52.778,EDGERTON AGCM,3012192,AB,5.4,0,NA,24.8,0,-8.2,0,NA,NA,NA,10,2,NA,NA,3,NA,NA,NA,378.7,0,2015_04
-113.519,53.572,EDMONTON CITY CENTRE AWOS,3012202,AB,NA,NA,NA,NA,NA,1.6,29,NA,NA,NA,NA,NA,NA,NA,NA,NA,NA,NA,NA,NA,2015_04
-113.606,53.307,EDMONTON INTERNATIONAL CS,3012206,AB,4,0,NA,26,0,-10.8,0,NA,NA,NA,5.9,0,NA,NA,2,NA,NA,NA,418.6,0,2015_04
-113.517,53.573,EDMONTON BLATCHFORD,3012209,AB,6.8,1,NA,25.2,1,-5.7,0,NA,NA,NA,4.7,2,NA,NA,2,NA,NA,NA,326.1,0,2015_04
-113.467,53.667,EDMONTON NAMAO AWOS A,3012212,AB,5.5,2,NA,24.7,2,-7.7,1,NA,NA,NA,8,4,NA,NA,3,NA,NA,NA,350.6,0,2015_04
-113.579,53.31,EDMONTON INTL A,3012216,AB,4.1,0,NA,25.9,0,-10.7,0,13.2,1,NA,14.6,1,NA,NA,2,NA,NA,NA,416.4,0,2015_04
-113.856,53.668,EDMONTON VILLENEUVE A,3012229,AB,5.3,1,NA,24.4,1,-7.3,1,NA,NA,NA,6.2,1,NA,NA,3,NA,NA,NA,367.1,0,2015_04
-114.108,53.548,EDMONTON STONY PLAIN,301222F,AB,6.2,0,1.2,23.9,0,-5.4,0,12.2,0,95.0,14.2,0,51,0,3,NA,NA,NA,354.1,0,2015_04
-113.75,53.417,EDMONTON WOODBEND,3012230,AB,5.5,0,0.8,25.5,0,-7.5,0,5.3,0,48.0,9.1,0,33,0,4,NA,NA,NA,374.5,0,2015_04
-112.868,53.683,ELK ISLAND NAT PARK,3012275,AB,5.6,0,1.4,24.5,0,-6.8,0,NA,NA,NA,16.5,0,63,NA,3,NA,NA,NA,371.8,0,2015_04
-111,52.967,FABYAN,3012515,AB,4.6,0,0.6,25,0,-9,0,12.5,0,124.0,13.3,0,49,0,4,NA,NA,NA,402.7,0,2015_04
-112.858,52.744,FERINTOSH AGCM,3012590,AB,4.5,0,NA,26.5,0,-12,0,NA,NA,NA,18.5,2,NA,NA,2,NA,NA,NA,404.4,0,2015_04
-112.12,52.467,FORESTBURG PLANT SITE,3012652,AB,5.9,0,0.1,26,0,-6.5,0,6,0,102.0,24.7,0,90,0,5,NA,NA,NA,361.9,0,2015_04
-112.123,52.548,FORESTBURG AGCM,3012653,AB,5.3,0,NA,27.5,0,-7.5,0,NA,NA,NA,13.7,2,NA,NA,2,NA,NA,NA,379.9,0,2015_04
-113.183,53.717,FORT SASKATCHEWAN,3012710,AB,3.7,7,-1.2,22,7,-21.5,7,0,7,NA,4.5,7,NA,0,1,NA,NA,NA,328.4,0,2015_04
-110.621,53.071,GILT EDGE NORTH AGCM,3012790,AB,5.4,0,NA,25,0,-8.5,0,NA,NA,NA,6.7,3,NA,NA,2,NA,NA,NA,376.7,0,2015_04
-114.539,53.833,GLENEVIS AGCM,3012818,AB,6.1,0,NA,25.2,0,-4.3,0,NA,NA,NA,NA,NA,NA,NA,NA,NA,NA,NA,356,0,2015_04
-112.164,52.116,HALKIRK AGCM,3012999,AB,5,1,NA,25.7,1,-7.7,0,NA,NA,NA,14.3,4,NA,NA,7,NA,NA,NA,376.3,0,2015_04
-111.212,51.78,HEMARUKA AGCM,3013140,AB,5.1,0,NA,25.5,0,-7.7,0,NA,NA,NA,1.9,4,NA,NA,1,NA,NA,NA,386.6,0,2015_04
-112.246,53.185,HOLDEN AGDM,3013340,AB,5,0,NA,25.7,0,-7.1,0,NA,NA,NA,NA,NA,NA,NA,NA,NA,NA,NA,389.5,0,2015_04
-110.784,52.578,HUGHENDEN AGCM,3013362,AB,5.3,0,NA,25.1,0,-8.8,0,NA,NA,NA,14.5,1,NA,NA,3,NA,NA,NA,381.7,0,2015_04
-111.872,52.848,KILLAM AGDM,3013640,AB,5.1,0,NA,26.1,0,-7.9,0,NA,NA,NA,39.4,7,NA,NA,16,NA,NA,NA,388.3,0,2015_04
-111.113,52.29,KESSLER AGCM,3013644,AB,5.5,0,NA,25.5,0,-7.9,0,NA,NA,NA,16,9,NA,NA,5,NA,NA,NA,376.1,0,2015_04
-110.416,53.353,KITSCOTY AGCM,3013660,AB,5.2,0,NA,24.4,0,-7.8,0,NA,NA,NA,15.7,8,NA,NA,8,NA,NA,NA,382.9,0,2015_04
-113.474,54.003,LEGAL AGCM,3013790,AB,5.6,1,NA,23.8,1,-5.3,1,NA,NA,NA,1.5,11,NA,NA,0,NA,NA,NA,358.7,0,2015_04
-110.579,53.943,LINDBERGH AGDM,3013921,AB,4.5,1,NA,24,1,-8.7,1,NA,NA,NA,7.9,8,NA,NA,4,NA,NA,NA,391.7,0,2015_04
-110.073,53.309,LLOYDMINSTER,3013959,AB,5,0,NA,24.2,0,-7.1,0,NA,NA,NA,10.8,0,NA,NA,3,NA,NA,NA,390.4,0,2015_04
-110.073,53.309,LLOYDMINSTER A,3013961,AB,5.2,0,1.2,24.2,0,-7,0,6.2,0,46.0,11,0,42,0,3,NA,NA,NA,384.7,0,2015_04
-112.267,53.083,HOLDEN SOUTH,3013C44,AB,NA,NA,NA,NA,NA,NA,NA,13,0,105.0,18.2,0,63,0,5,NA,NA,NA,NA,NA,2015_04
-111.255,53.456,MANNVILLE AGCM,3014195,AB,5.2,0,NA,25,0,-8.2,0,NA,NA,NA,13.1,0,NA,NA,4,NA,NA,NA,384,0,2015_04
-110.55,52.017,MONITOR,3014600,AB,NA,NA,NA,NA,NA,NA,NA,11.8,0,175.0,20.2,0,88,0,5,NA,NA,NA,NA,NA,2015_04
-112.3,53.567,MUNDARE AGDM,3014665,AB,5.4,0,NA,24.6,0,-7.4,0,NA,NA,NA,12.5,5,NA,NA,5,NA,NA,NA,378.5,0,2015_04
-111.114,53.72,MYRNAM AGCM,3014690,AB,5,0,NA,25.4,0,-8.1,0,NA,NA,NA,8.3,6,NA,NA,3,NA,NA,NA,389.1,0,2015_04
-113.165,53.262,NEW SAREPTA AGCM,3014795,AB,4.9,0,NA,24.2,0,-8.5,0,NA,NA,NA,11.1,5,NA,NA,2,NA,NA,NA,394.1,0,2015_04
-113.35,53.65,OLIVER AGDM,3014921,AB,5.3,0,NA,24.8,0,-8.7,0,NA,NA,NA,NA,NA,NA,NA,NA,NA,NA,NA,381.2,0,2015_04
-112.879,53.995,RADWAY AGCM,3015346,AB,5.6,0,NA,24.8,0,-7.2,0,NA,NA,NA,NA,NA,NA,NA,NA,NA,NA,NA,372.5,0,2015_04
-111.726,53.425,RANFURLY AUTO,3015401,AB,5.5,0,NA,25.8,0,-7.2,0,NA,NA,NA,11.7,0,NA,NA,4,NA,NA,NA,374.9,0,2015_04
-110.343,52.587,RIBSTONE SOUTH AGCM,3015480,AB,5.5,0,NA,24.7,0,-8.4,0,NA,NA,NA,4.3,6,NA,NA,3,NA,NA,NA,375.5,0,2015_04
-110.102,53.019,RIVERCOURSE AGCM,3015501,AB,5.2,0,NA,24.7,0,-7.1,0,NA,NA,NA,5.6,4,NA,NA,2,NA,NA,NA,384.2,0,2015_04
-114.912,52.421,ROCKY MTN HOUSE (AUT),3015523,AB,3.2,7,NA,21.2,7,-8.1,7,NA,NA,NA,5.2,7,NA,NA,1,NA,NA,NA,341,0,2015_04
-112.428,52.78,ROSALIND AGCM,3015600,AB,4.7,0,NA,26.9,0,-9.3,0,NA,NA,NA,14.8,0,NA,NA,2,NA,NA,NA,398.7,0,2015_04
-111.453,54.282,ST. LINA AGCM,3015673,AB,5.1,0,NA,23.9,0,-7.8,0,NA,NA,NA,17.7,4,NA,NA,3,NA,NA,NA,387.2,0,2015_04
-111.272,54.011,ST. PAUL AGCM,3015676,AB,4.1,1,NA,23.8,0,-7.8,1,NA,NA,NA,10.5,3,NA,NA,2,NA,NA,NA,403.5,0,2015_04
-110.755,51.59,SEDALIA AGCM,3015797,AB,5.8,0,NA,25.6,0,-8.2,0,NA,NA,NA,0.4,15,NA,NA,0,NA,NA,NA,366.3,0,2015_04
-111.7,52.783,SEDGEWICK TOWN,3015808,AB,11.2,27,6.7,25,26,4,27,0,26,NA,0,26,NA,0,0,NA,NA,NA,20.5,0,2015_04
-112.539,53.333,SHONTS AGCM,3015900,AB,4.9,0,NA,26.6,0,-8.1,0,NA,NA,NA,8.8,3,NA,NA,4,NA,NA,NA,392.4,0,2015_04
-112.499,54.278,SMOKY LAKE AGDM,3016022,AB,5.1,0,NA,23.4,0,-8.6,0,NA,NA,NA,13.4,0,NA,NA,1,NA,NA,NA,386.9,0,2015_04
-111.683,51.816,SPONDIN AGCM,3016070,AB,4.9,0,NA,26.3,0,-9.5,0,NA,NA,NA,5.2,8,NA,NA,3,NA,NA,NA,393.7,0,2015_04
-112.596,52.347,STETTLER AGDM,3016124,AB,5.4,0,NA,26.6,0,-5.8,0,NA,NA,NA,15,3,NA,NA,3,NA,NA,NA,377.9,0,2015_04
-113.895,53.217,THORSBY AGCM,3016441,AB,5.1,0,NA,24.7,0,-5.6,0,NA,NA,NA,22,2,NA,NA,4,NA,NA,NA,387.8,0,2015_04
-114.718,53.439,TOMAHAWK AGDM,3016505,AB,5.6,0,NA,25.7,0,-4.4,0,NA,NA,NA,33.9,2,NA,NA,7,NA,NA,NA,371.3,0,2015_04
-110.081,53.664,TULLIBY LAKE AGCM,3016593,AB,5.1,0,NA,24.4,0,-7.9,0,NA,NA,NA,7.3,8,NA,NA,2,NA,NA,NA,388.4,0,2015_04
-113.033,53.5,UNCAS,3016650,AB,NA,NA,NA,NA,NA,NA,NA,12.6,0,NA,16.6,0,NA,0,4,NA,NA,NA,NA,NA,2015_04
-111.678,53.625,TWO HILLS AGDM,3016655,AB,5.6,1,NA,24.9,0,-6.7,1,NA,NA,NA,0.8,19,NA,NA,0,NA,NA,NA,358.2,0,2015_04
-110.882,53.344,VERMILION AGDM,3016802,AB,5.1,0,NA,24.8,0,-8.9,0,NA,NA,NA,4.8,5,NA,NA,2,NA,NA,NA,386.7,0,2015_04
-111.732,53.182,VIKING AGCM,3016841,AB,5.2,0,NA,25.7,0,-7.6,0,NA,NA,NA,5.7,2,NA,NA,2,NA,NA,NA,383.4,0,2015_04
-111.767,53.283,VIKING NORTH 3,3016845,AB,5.4,0,NA,25,0,-8,0,7.5,0,NA,21.5,0,NA,0,6,NA,NA,NA,377,0,2015_04
-111.921,54.13,VILNA AGCM,3016852,AB,4.9,0,NA,24.4,0,-7.6,0,NA,NA,NA,9.5,5,NA,NA,2,NA,NA,NA,393.1,0,2015_04
-115.126,53.144,VIOLET GROVE CS,3016860,AB,5.4,0,NA,25.2,0,-6.6,0,NA,NA,NA,NA,NA,NA,NA,NA,NA,NA,NA,376.9,0,2015_04
-112.098,53.505,VEGREVILLE,3016GF0,AB,5.7,0,1.4,26.2,0,-6.8,0,NA,NA,NA,10.7,0,50,NA,5,NA,NA,NA,370,0,2015_04
-113.444,52.98,WETASKIWIN AGCM,3017282,AB,4.5,0,NA,24.8,0,-13.1,0,NA,NA,NA,18.7,9,NA,NA,1,NA,NA,NA,403.9,0,2015_04
-114.108,53.547,EDMONTON STONY PLAIN CS,301A001,AB,6,0,NA,23.8,0,-5.6,0,NA,NA,NA,25,0,NA,NA,4,NA,NA,NA,360.4,0,2015_04
-110.206,51.67,ESTHER 1,301B460,AB,5.9,0,NA,25.7,0,-9.2,0,NA,NA,NA,5.1,0,NA,NA,3,NA,NA,NA,361.9,0,2015_04
-113.533,53.517,UNIVERSITY OF ALBERTA METABOLIC CENTRE,301FFNJ,AB,8.5,13,3.5,26,9,-5,9,0,0,0.0,0,0,0,0,0,NA,NA,NA,161.5,0,2015_04
-111.096,52.829,WAINWRIGHT CFB AIRFIELD 21,301S001,AB,5.5,0,NA,25.7,0,-8.5,0,NA,NA,NA,9.6,7,NA,NA,2,NA,NA,NA,373.9,0,2015_04
-110.317,51.066,ACADIA VALLEY,3020035,AB,6.5,0,NA,26.2,0,-7.4,0,NA,NA,NA,4.4,3,NA,NA,2,NA,NA,NA,344.9,0,2015_04
-111.006,50.81,ATLEE AGCM,3020405,AB,6.4,0,NA,26.1,0,-7.3,0,NA,NA,NA,1.5,5,NA,NA,1,NA,NA,NA,348.8,0,2015_04
-113.357,51.379,BEISEKER AGCM,3020610,AB,4.5,0,NA,27.7,0,-9.6,0,NA,NA,NA,10.1,0,NA,NA,3,NA,NA,NA,404.1,0,2015_04
-112.803,51.998,BIG VALLEY AGCM,3020679,AB,5.7,1,NA,27,1,-6.2,1,NA,NA,NA,39.1,11,NA,NA,15,NA,NA,NA,358,0,2015_04
-112.252,51.775,CRAIGMYLE AGCM,3021912,AB,5.2,0,NA,26.1,0,-8,0,NA,NA,NA,22.3,5,NA,NA,5,NA,NA,NA,385.2,0,2015_04
-112.283,51.767,CRAIGMYLE,3021940,AB,4.6,0,-0.3,26,0,-10,0,6.5,0,64.0,27.5,0,108,0,3,NA,NA,NA,401.5,0,2015_04
-112.677,51.445,DRUMHELLER EAST,30221LG,AB,6.5,0,NA,28.4,0,-6.8,0,NA,NA,NA,0,29,NA,NA,0,NA,NA,NA,344.5,0,2015_04
-114.486,52.31,HESPERO AGCM,3023200,AB,4.1,0,NA,25.7,0,-7.7,0,NA,NA,NA,14.8,4,NA,NA,2,NA,NA,NA,417.7,0,2015_04
-112.5,51.183,HUSSAR AGDM,3023402,AB,5.5,0,NA,25.9,0,-8.3,0,NA,NA,NA,4.9,3,NA,NA,2,NA,NA,NA,376.2,0,2015_04
-113.756,52.449,LACOMBE CDA 2,3023722,AB,4.8,0,NA,26.8,0,-8.7,0,NA,NA,NA,11.6,0,NA,NA,3,NA,NA,NA,396.4,0,2015_04
-114.473,52.553,LEEDALE AGDM,3023740,AB,3.5,0,NA,24.6,0,-9.5,0,NA,NA,NA,10.2,1,NA,NA,3,NA,NA,NA,433.9,0,2015_04
-113.656,51.619,LINDEN AGCM,3023850,AB,4.2,1,NA,27.9,0,-8.4,1,NA,NA,NA,6.3,6,NA,NA,2,NA,NA,NA,399,0,2015_04
-112.675,51.66,MORRIN AGDM,3024668,AB,5,0,NA,27,0,-8.5,0,NA,NA,NA,32.1,4,NA,NA,14,NA,NA,NA,391.5,0,2015_04
-114.085,51.759,OLDS AGDM,3024925,AB,4.8,0,NA,25.8,0,-6.8,0,NA,NA,NA,18.3,2,NA,NA,3,NA,NA,NA,395,0,2015_04
-110.35,51.383,OYEN AGDM,3024965,AB,6.1,0,NA,25.5,0,-8.5,0,NA,NA,NA,3,8,NA,NA,1,NA,NA,NA,356.4,0,2015_04
-111.705,51.125,POLLOCKVILLE AGDM,3025243,AB,5.6,0,NA,27.4,0,-9.5,0,NA,NA,NA,3.6,1,NA,NA,1,NA,NA,NA,372.7,0,2015_04
-113.6,52.433,PRENTISS,3025297,AB,5.1,0,NA,25.8,0,-5.8,0,NA,NA,NA,16.1,1,NA,NA,5,NA,NA,NA,386.3,0,2015_04
-113.894,52.182,RED DEER REGIONAL A,3025481,AB,5.2,6,NA,26.3,6,-7.8,6,1.6,6,NA,2.8,6,NA,NA,2,NA,NA,NA,306.4,0,2015_04
-110.091,50.307,SCHULER AGDM,3025768,AB,6.6,0,NA,25.7,0,-8,0,NA,NA,NA,5.6,2,NA,NA,0,NA,NA,NA,341.4,0,2015_04
-110.146,51.425,SIBBALD WESTGARD,3025928,AB,6.2,2,NA,27,2,-10,2,5,2,NA,5,2,NA,0,3,NA,NA,NA,331.3,0,2015_04
-113.206,51.768,THREE HILLS,3026479,AB,4.1,0,NA,27.7,0,-9.8,0,NA,NA,NA,10.9,7,NA,NA,3,NA,NA,NA,417.2,0,2015_04
-114.683,51.778,SUNDRE A,3026KNQ,AB,1.9,12,NA,19.6,12,-10.6,11,NA,NA,NA,7.6,12,NA,NA,0,NA,NA,NA,290.1,0,2015_04
-113.591,51.936,WIMBORNE AGCM,3027582,AB,4.8,0,NA,26.7,0,-7.7,0,NA,NA,NA,8.6,10,NA,NA,3,NA,NA,NA,396.4,0,2015_04
-114.013,50.512,AZURE,3030450,AB,4.7,0,NA,26.2,0,-11.5,0,NA,NA,NA,14.2,6,NA,NA,4,NA,NA,NA,398,0,2015_04
-112.3,49.8,BARNWELL AGDM,3030525,AB,6.7,0,NA,28,0,-6.2,0,NA,NA,NA,11.6,7,NA,NA,4,NA,NA,NA,339.1,0,2015_04
-113.224,50.026,BARONS AGCM,3030529,AB,5.6,1,NA,26.8,0,-10.7,1,NA,NA,NA,9.6,7,NA,NA,1,NA,NA,NA,359,0,2015_04
-112.465,50.893,BASSANO AGCM,3030540,AB,5.7,0,NA,27.6,0,-9.1,0,NA,NA,NA,4.4,2,NA,NA,1,NA,NA,NA,367.7,0,2015_04
-114.152,50.707,BLACK DIAMOND,3030680,AB,4.1,0,NA,25.7,0,-11.6,0,NA,NA,NA,0.9,27,NA,NA,0,NA,NA,NA,418.2,0,2015_04
-113.05,49.567,BLOOD TRIBE AGDM,3030720,AB,5.9,0,NA,26.3,0,-8.6,0,NA,NA,NA,22.1,6,NA,NA,6,NA,NA,NA,363.3,0,2015_04
-111.45,49.734,BOW ISLAND,3030768,AB,7.6,0,NA,27.5,0,-4.2,0,NA,NA,NA,7.5,2,NA,NA,3,NA,NA,NA,311.4,0,2015_04
-111.366,49.868,BOW ISLAND IRRIGATION AGDM,3030772,AB,7.5,0,NA,27.5,0,-5.2,0,NA,NA,NA,11,0,NA,NA,4,NA,NA,NA,315,0,2015_04
-113.817,49.617,BROCKET AGDM,3030830,AB,6.2,0,NA,25.3,0,-6.5,0,NA,NA,NA,9.1,13,NA,NA,3,NA,NA,NA,352.8,0,2015_04
-111.849,50.555,BROOKS,3030QLP,AB,6.3,0,NA,27.2,0,-8.9,0,NA,NA,NA,1.8,0,NA,NA,1,NA,NA,NA,351.8,0,2015_04
-114.013,51.123,CALGARY INTL A,3031092,AB,6.2,0,NA,27.9,0,-8.6,0,5.4,0,NA,11.2,0,NA,NA,5,NA,NA,NA,354.9,0,2015_04
-114,51.109,CALGARY INT'L CS,3031094,AB,5.7,0,NA,26.4,0,-8.5,0,NA,NA,NA,8,0,NA,NA,4,NA,NA,NA,368.9,0,2015_04
-113.286,49.201,CARDSTON,3031322,AB,5.8,0,NA,24.4,0,-7.6,0,NA,NA,NA,17.7,0,NA,NA,3,NA,NA,NA,365.2,0,2015_04
-113.376,49.001,CARWAY,3031402,AB,4.5,0,NA,22.9,0,-8.4,0,NA,NA,NA,11.4,1,NA,NA,4,NA,NA,NA,406,0,2015_04
-113.35,50.282,CHAMPION AGDM,3031480,AB,5,0,NA,27.2,0,-10.3,0,NA,NA,NA,17.5,4,NA,NA,4,NA,NA,NA,390.5,0,2015_04
-113.639,50.004,CLARESHOLM,3031640,AB,5.3,0,NA,26.2,0,-12.5,0,NA,NA,NA,30.5,0,NA,NA,4,NA,NA,NA,382.5,0,2015_04
-114.222,51.076,COP UPPER,3031875,AB,5.7,0,NA,26.8,0,-9.2,0,NA,NA,NA,9.7,1,NA,NA,5,NA,NA,NA,369.1,0,2015_04
-112.433,50.183,ENCHANT AGDM,3032422,AB,6.9,0,NA,28.4,0,-6.3,0,NA,NA,NA,10.6,7,NA,NA,5,NA,NA,NA,332.7,0,2015_04
-111.054,49.553,ETZIKOM AGCM,3032450,AB,6.6,0,NA,25.2,0,-6.2,0,NA,NA,NA,15.9,2,NA,NA,2,NA,NA,NA,343.4,0,2015_04
-112.033,49.8,FINCASTLE AGDM,3032550,AB,8.8,6,NA,28.1,6,-4,0,NA,NA,NA,1.3,18,NA,NA,0,NA,NA,NA,221,0,2015_04
-111.486,49.483,FOREMOST AGDM,3032642,AB,6.5,0,NA,26.5,0,-6.6,0,NA,NA,NA,0.9,12,NA,NA,0,NA,NA,NA,343.7,0,2015_04
-113.379,49.786,FORT MACLEOD AGCM,3032683,AB,5.5,0,NA,25.4,0,-10.8,0,NA,NA,NA,21.6,1,NA,NA,5,NA,NA,NA,375.5,0,2015_04
-112.941,50.934,GLEICHEN AGCM,3032801,AB,5.8,0,NA,27.7,0,-8.9,0,NA,NA,NA,2.2,3,NA,NA,1,NA,NA,NA,367.1,0,2015_04
-111.733,49.874,GRASSY LAKE,3032927,AB,7.8,1,NA,27.7,1,-5.3,1,NA,NA,NA,3.5,6,NA,NA,0,NA,NA,NA,294.8,0,2015_04
-112.733,49.9,IRON SPRINGS AGDM,3033498,AB,6.8,0,NA,27.7,0,-5.5,0,NA,NA,NA,10.2,8,NA,NA,3,NA,NA,NA,336.6,0,2015_04
-110.261,49.989,IRVINE AGCM,3033550,AB,7.3,0,NA,26.1,0,-6,0,NA,NA,NA,6.1,6,NA,NA,2,NA,NA,NA,323.1,0.8,2015_04
-112.799,49.63,LETHBRIDGE,3033875,AB,5.9,2,NA,26.7,2,-8.1,2,NA,NA,NA,0,3,NA,NA,0,NA,NA,NA,337.7,0,2015_04
-112.768,49.695,LETHBRIDGE CDA,3033890,AB,7.4,0,NA,27.5,0,-5,0,NA,NA,NA,17,0,NA,NA,3,NA,NA,NA,316.9,0,2015_04
-112.783,49.7,LETHBRIDGE CDA 2,3033892,AB,NA,NA,NA,NA,NA,NA,NA,9,1,NA,18.8,1,NA,0,2,NA,NA,NA,NA,NA,2015_04
-112.75,49.683,LETHBRIDGE DEMO FARM AGDM,3033897,AB,6.9,0,NA,27.3,0,-6.6,0,NA,NA,NA,15.1,4,NA,NA,4,NA,NA,NA,333.9,0,2015_04
-110.721,50.019,MEDICINE HAT,3034479,AB,7.6,1,NA,26.6,1,-5.3,1,NA,NA,NA,7.9,1,NA,NA,2,NA,NA,NA,302.4,0,2015_04
-110.717,50.025,MEDICINE HAT RCS,3034485,AB,7.6,0,NA,26.8,0,-5.1,0,NA,NA,NA,8.3,0,NA,NA,2,NA,NA,NA,310.6,0,2015_04
-113.349,50.673,MOSSLEIGH AGCM,3034577,AB,4.5,0,NA,27.8,0,-11.1,0,NA,NA,NA,5.6,6,NA,NA,1,NA,NA,NA,405.4,0,2015_04
-113.594,49.132,MOUNTAIN VIEW VILLAGE,3034725,AB,3.1,17,NA,16,17,-12,17,0,17,NA,0,17,NA,NA,0,NA,NA,NA,194.2,0,2015_04
-114.099,51.369,NIER AGDM,3034795,AB,4.3,0,NA,26.1,0,-9.3,0,NA,NA,NA,18,4,NA,NA,4,NA,NA,NA,410.6,0,2015_04
-113.997,49.521,PINCHER CREEK,3035198,AB,5.8,6,NA,23.9,5,-10.2,5,NA,NA,NA,7.9,5,NA,NA,2,NA,NA,NA,293.7,0,2015_04
-114.005,49.522,PINCHER CREEK CLIMATE,3035208,AB,5.2,0,NA,23.5,0,-10.1,0,NA,NA,NA,14.5,0,NA,NA,5,NA,NA,NA,384.1,0,2015_04
-112.983,50.606,QUEENSTOWN,3035340,AB,6,0,0.7,27.5,0,-8,0,3,0,21.0,7.8,0,25,0,3,NA,NA,NA,359.3,0,2015_04
-112.803,50.598,QUEENSTOWN,3035342,AB,NA,NA,NA,NA,NA,NA,NA,NA,NA,NA,10,1,NA,NA,4,NA,NA,NA,NA,NA,2015_04
-112.683,49.483,RAYMOND AGDM,3035422,AB,6.7,0,NA,27.2,0,-7.2,0,NA,NA,NA,11.8,5,NA,NA,3,NA,NA,NA,340.4,0,2015_04
-111.701,50.265,ROLLING HILLS AGCM,3035530,AB,6.5,0,NA,27.8,0,-9.5,0,NA,NA,NA,4.4,4,NA,NA,2,NA,NA,NA,345.9,0,2015_04
-112.05,50.833,ROSEMARY AGDM,3035650,AB,5.8,0,NA,27.5,0,-9.7,0,NA,NA,NA,7.6,11,NA,NA,2,NA,NA,NA,366.2,0,2015_04
-110.917,49.917,SEVEN PERSONS AGDM,3035845,AB,6.8,0,NA,25.7,0,-8.1,0,NA,NA,NA,11.5,2,NA,NA,4,NA,NA,NA,335.7,0,2015_04
-112.982,51.228,STANDARD AGCM,3036086,AB,6.2,0,NA,27.3,0,-7.5,0,NA,NA,NA,12.7,1,NA,NA,2,NA,NA,NA,354.7,0,2015_04
-113.883,50.183,STAVELY AAFC,3036099,AB,5.2,0,NA,24.1,0,-7.5,0,NA,NA,NA,34.5,0,NA,NA,4,NA,NA,NA,383.2,0,2015_04
-113.283,51.033,STRATHMORE AGDM,3036205,AB,5.8,0,NA,26.7,0,-8.2,0,NA,NA,NA,6.6,5,NA,NA,2,NA,NA,NA,366.8,0,2015_04
-112.124,49.792,TABER,3036360,AB,10.2,13,NA,27.5,9,-4,9,0,9,NA,18.4,9,NA,0,2,NA,NA,NA,133.3,0,2015_04
-112.863,50.304,TRAVERS AGCM,3036500,AB,6.3,0,NA,26.9,0,-6.8,0,NA,NA,NA,7.6,5,NA,NA,3,NA,NA,NA,350.2,0,2015_04
-112.133,50.05,VAUXHALL CDA CS,3036682,AB,7.2,0,NA,28.1,0,-4.8,0,NA,NA,NA,13.4,0,NA,NA,2,NA,NA,NA,323.2,0,2015_04
-114.721,51.269,WILDCAT HILLS,3037550,AB,3,0,NA,23.5,0,-13.5,0,8.6,0,NA,20,0,NA,0,6,NA,NA,NA,450.5,0,2015_04
-112.117,49.5,WRENTHAM AGDM,3037675,AB,6.8,0,NA,26.5,0,-6.6,0,NA,NA,NA,2.8,13,NA,NA,1,NA,NA,NA,334.8,0,2015_04
-113.961,50.729,OKOTOKS,303M9JM,AB,6.1,0,1.1,27.5,0,-9.5,0,14.6,0,67.0,23.5,0,62,0,6,NA,NA,NA,358.3,0,2015_04
-112.788,49.871,PICTURE BUTTE WEST,303N1G3,AB,7.5,1,NA,29.5,0,-7,1,8,0,NA,11.2,0,NA,0,2,NA,NA,NA,304,0,2015_04
-112.817,49.05,DEL BONITA AGDM,3042045,AB,4.7,2,NA,24.4,2,-7.2,2,NA,NA,NA,8.3,4,NA,NA,3,NA,NA,NA,373.8,0,2015_04
-110.678,49.364,MANYBERRIES AGCM,3044203,AB,5.7,0,NA,23.9,0,-9.8,0,NA,NA,NA,9.9,3,NA,NA,2,NA,NA,NA,369,0,2015_04
-111.652,49.137,MASINASIN AGDM,3044232,AB,6.9,1,NA,26.5,1,-5.4,1,NA,NA,NA,5.2,4,NA,NA,2,NA,NA,NA,321.2,0,2015_04
-112.05,49.133,MILK RIVER,3044533,AB,5.8,0,NA,26,0,-7.3,0,NA,NA,NA,12.7,0,NA,NA,4,NA,NA,NA,366.6,0,2015_04
-110.467,49.117,ONEFOUR CDA,3044923,AB,6.3,1,NA,23.6,1,-5.4,0,NA,NA,NA,8,1,NA,NA,3,NA,NA,NA,339,0,2015_04
-111.126,49.225,PAKOWKI LAKE AGCM,3045000,AB,6.6,0,NA,26.1,0,-5.9,0,NA,NA,NA,10.4,7,NA,NA,3,NA,NA,NA,342.9,0,2015_04
-115.552,51.193,BANFF CS,3050519,AB,3.3,0,NA,20.7,0,-8,0,NA,NA,NA,15,0,NA,NA,6,NA,NA,NA,441.3,0,2015_04
-114.175,49.468,BEAVER MINES,3050602,AB,4.7,0,NA,22.4,0,-11.1,0,NA,NA,NA,19.3,2,NA,NA,4,NA,NA,NA,398,0,2015_04
-115.067,51.083,BOW VALLEY,3050778,AB,4,0,NA,22.4,0,-12.6,0,NA,NA,NA,20.9,0,NA,NA,4,NA,NA,NA,419.4,0,2015_04
-114.482,49.628,CROWSNEST,3051R4R,AB,3.8,0,NA,22.4,0,-9.8,0,NA,NA,NA,NA,NA,NA,NA,NA,NA,NA,NA,426.4,0,2015_04
-118.03,52.926,JASPER WARDEN,3053536,AB,4.2,0,NA,22.8,0,-9.2,0,NA,NA,NA,32.8,0,NA,NA,5,NA,NA,NA,414,0,2015_04
-115.035,51.028,KANANASKIS,3053600,AB,3.7,0,0.6,22,0,-10,0,22.9,0,51.0,28.6,0,52,0,6,NA,NA,NA,428.3,0,2015_04
-115.12,50.713,KANANASKIS POCATERRA,3053604,AB,-2.3,28,-3.3,14,25,-11,25,3,25,NA,3,25,NA,0,1,NA,NA,NA,40.5,0,2015_04
-116.04,52.492,NORDEGG CS,3054843,AB,2.7,0,NA,21.1,0,-10.6,0,NA,NA,NA,23.2,0,NA,NA,4,NA,NA,NA,457.9,0,2015_04
-114.416,50.368,PEKISKO,3055119,AB,3.6,0,NA,23.2,0,-13.5,0,NA,NA,NA,43.7,1,NA,NA,6,NA,NA,NA,432.4,0,2015_04
-113.809,49.131,WATERTON PARK GATE,3056214,AB,5.4,0,NA,22.4,0,-7.5,0,NA,NA,NA,24.8,0,NA,NA,7,NA,NA,NA,376.9,0,2015_04
-115.19,50.943,NAKISKA RIDGETOP,305MGFF,AB,-3.3,0,NA,10.8,0,-12.9,0,NA,NA,NA,NA,NA,NA,NA,NA,NA,NA,NA,637.5,0,2015_04
-113.382,54.635,ATHABASCA AGCM,3060330,AB,5.5,0,NA,22.5,0,-8.5,0,NA,NA,NA,15.9,0,NA,NA,1,NA,NA,NA,374,0,2015_04
-112.825,54.782,ATMORE AGDM,3060406,AB,3.9,0,NA,23,0,-11.9,0,NA,NA,NA,6,2,NA,NA,1,NA,NA,NA,423.5,0,2015_04
-114.448,54.095,BARRHEAD CS,3060535,AB,5.8,0,NA,24.5,0,-6.1,0,NA,NA,NA,14.4,0,NA,NA,4,NA,NA,NA,366.8,0,2015_04
-117.867,53.35,BRULE BLACK CAT,3060903,AB,1.9,25,-1.5,10,25,-5.5,24,4.8,24,NA,5.6,24,NA,NA,3,NA,NA,NA,80.4,0,2015_04
-114.678,54.131,CAMPSIE AUTO,3061201,AB,5.4,1,NA,24,1,-6,0,NA,NA,NA,21.2,1,NA,NA,4,NA,NA,NA,364,0,2015_04
-113.95,54.317,DAPP AGDM,3061975,AB,5.1,0,NA,22.9,0,-8.1,0,NA,NA,NA,10.5,0,NA,NA,2,NA,NA,NA,387.4,0,2015_04
-116.465,53.579,EDSON,3062239,AB,4.2,1,NA,24,1,-8.3,1,NA,NA,NA,14.9,1,NA,NA,4,NA,NA,NA,400,0,2015_04
-116.453,53.58,EDSON CLIMATE,3062246,AB,4.3,0,NA,23.9,0,-7.4,0,NA,NA,NA,17,0,NA,NA,4,NA,NA,NA,410.9,0,2015_04
-114.983,53.6,ENTWISTLE,3062451,AB,5.7,0,0.7,25.2,0,-6,0,13,0,140.0,36.6,0,125,0,9,NA,NA,NA,369.5,0,2015_04
-115.124,53.573,EVANSBURG AGCM,3062475,AB,5.5,0,NA,25.3,0,-4.4,0,NA,NA,NA,30,1,NA,NA,6,NA,NA,NA,376.5,0,2015_04
-114.769,54.41,FORT ASSINIBOINE AGCM,3062660,AB,5.5,0,NA,23.5,0,-5.9,0,NA,NA,NA,11.7,2,NA,NA,4,NA,NA,NA,376.3,0,2015_04
-111.213,56.651,FORT MCMURRAY CS,3062696,AB,4.2,0,NA,24.4,0,-16.4,0,NA,NA,NA,5.9,0,NA,NA,2,NA,NA,NA,414.6,0,2015_04
-111.223,56.653,FORT MCMURRAY A,3062697,AB,4.1,0,NA,24.2,0,-16.4,0,NA,NA,NA,4.9,1,NA,NA,2,NA,NA,NA,417.9,0,2015_04
-118.447,53.795,HENDRICKSON CREEK,3063135,AB,0.7,1,NA,18,0,-11.7,1,NA,NA,NA,35.6,4,NA,1,4,NA,NA,NA,502.4,0,2015_04
-116.479,55.396,HIGH PRAIRIE AGDM,3063165,AB,5.2,0,NA,24.9,0,-7.7,0,NA,NA,NA,25.7,7,NA,NA,5,NA,NA,NA,383.5,0,2015_04
-113.543,54.821,ISLAND LAKE SOUTH,3063600,AB,5,0,NA,22.8,0,-8.7,0,NA,NA,NA,16.7,0,NA,NA,2,NA,NA,NA,389.2,0,2015_04
-112.024,54.769,LAC LA BICHE CLIMATE,3063686,AB,4.6,0,NA,24.2,0,-13,0,NA,NA,NA,31.3,0,NA,NA,3,NA,NA,NA,401.1,0,2015_04
-111.559,57.041,MILDRED LAKE,3064528,AB,4.8,0,NA,23.6,0,-12.9,0,NA,NA,NA,4.9,0,NA,NA,2,NA,NA,NA,397.2,0,2015_04
-111.7,54.5,RICH LAKE AGDM,3065475,AB,3.8,0,NA,23.7,0,-11,0,NA,NA,NA,24.1,0,NA,NA,4,NA,NA,NA,424.9,0,2015_04
-114.777,55.293,SLAVE LAKE,3065995,AB,4.7,1,NA,22.3,1,-7.3,1,NA,NA,NA,14.1,1,NA,NA,4,NA,NA,NA,386.6,0,2015_04
-114.777,55.293,SLAVE LAKE RCS,3065997,AB,4.5,0,NA,22.1,0,-7.4,0,NA,NA,NA,15.1,1,NA,NA,3,NA,NA,NA,404.2,0,2015_04
-113.52,54.3,TAWATINAW AGCM,3066367,AB,5.2,3,NA,22.9,3,-5.8,2,NA,NA,NA,11.7,12,NA,NA,3,NA,NA,NA,345.5,0,2015_04
-115.784,54.14,WHITECOURT,3067371,AB,5.6,0,NA,23.9,0,-4.7,0,NA,NA,NA,NA,NA,NA,NA,NA,NA,NA,NA,371.1,0,2015_04
-115.787,54.144,WHITECOURT A,3067373,AB,5.3,0,NA,22.5,0,-5.5,0,NA,NA,NA,NA,NA,NA,NA,NA,NA,NA,NA,381,0,2015_04
-118.348,53.386,WILLOW CREEK 1,306GE70,AB,1.7,0,NA,18.9,0,-11.2,0,NA,NA,NA,33.5,1,NA,NA,5,NA,NA,NA,489,0,2015_04
-119.396,55.197,BEAVERLODGE RCS,3070600,AB,5.4,0,NA,24.5,0,-5.2,0,NA,NA,NA,45.1,0,NA,NA,12,NA,NA,NA,378.4,0,2015_04
-117.886,56.118,BROWNVALE AGCM,3070800,AB,5,3,NA,25.5,3,-7,2,NA,NA,NA,15,6,NA,NA,2,NA,NA,NA,351.1,0,2015_04
-117.887,55.808,EAGLESHAM AGCM,3072151,AB,5.8,0,NA,26.6,0,-6.7,0,NA,NA,NA,26.2,2,NA,NA,4,NA,NA,NA,367.5,0,2015_04
-110.439,58.981,EGG ISLAND,3072246,AB,-4.7,17,NA,11.6,16,-25.9,16,NA,NA,NA,NA,NA,NA,NA,NA,NA,NA,NA,295.5,0,2015_04
-118.439,56.081,FAIRVIEW AGDM,3072525,AB,4.6,8,NA,23.8,8,-6.1,7,NA,NA,NA,18.4,11,NA,NA,6,NA,NA,NA,294.3,0,2015_04
-111.117,58.767,FORT CHIPEWYAN,3072655,AB,1.1,0,NA,21.3,0,-22,0,NA,NA,NA,0.8,1,NA,NA,0,NA,NA,NA,507.4,0,2015_04
-111.117,58.767,FORT CHIPEWYAN RCS,3072659,AB,1,0,NA,21.7,0,-22.2,0,NA,NA,NA,15.8,0,NA,NA,4,NA,NA,NA,509.5,0,2015_04
-116.04,58.382,FORT VERMILION,3072723,AB,5.4,0,NA,26.8,0,-13.2,0,NA,NA,NA,0.7,0,NA,NA,0,NA,NA,NA,379.5,0,2015_04
-118.885,55.18,GRANDE PRAIRIE A,3072921,AB,5.7,0,NA,23.8,0,-5.1,0,11,0,NA,33.2,0,NA,NA,5,NA,NA,NA,367.6,0,2015_04
-117.298,57.265,HAWK HILLS AGCM,3073071,AB,5.3,0,NA,25.5,0,-9.6,0,NA,NA,NA,5.1,0,NA,NA,2,NA,NA,NA,381.4,0,2015_04
-117.165,58.622,HIGH LEVEL,3073140,AB,4,0,NA,25.4,0,-17.2,0,NA,NA,NA,2.3,0,NA,NA,1,NA,NA,NA,421.3,0,2015_04
-117.165,58.621,HIGH LEVEL A,3073146,AB,3.9,0,1.8,25.7,0,-18.1,0,0,0,0.0,2.4,0,16,0,1,NA,NA,NA,424,0,2015_04
-117.12,55.913,JEAN COTE AGCM,3073535,AB,5.2,0,NA,23.4,0,-7.7,0,NA,NA,NA,21.5,4,NA,NA,4,NA,NA,NA,384.4,0,2015_04
-116.343,58.172,LA CRETE AGCM,3073730,AB,5.2,0,NA,26.6,0,-13.3,0,NA,NA,NA,8.1,0,NA,NA,1,NA,NA,NA,385.3,0,2015_04
-119.255,55.422,LA GLACE AGCM,3073740,AB,0.6,25,NA,21.4,14,-5.6,15,NA,NA,NA,NA,NA,NA,NA,NA,NA,NA,NA,86.9,0,2015_04
-117.451,56.974,MANNING AGDM,3074190,AB,5.1,0,NA,24.9,0,-9.1,0,NA,NA,NA,NA,NA,NA,NA,NA,NA,NA,NA,386.6,0,2015_04
-119.745,56.314,CLEARDALE AGDM,3074935,AB,4.7,0,NA,20.3,0,-6.3,0,NA,NA,NA,32.4,3,NA,NA,4,NA,NA,NA,398.3,0,2015_04
-117.448,56.227,PEACE RIVER A,3075041,AB,5.2,0,NA,25.5,0,-6.9,0,3.6,0,NA,17,0,NA,NA,3,NA,NA,NA,383.4,0,2015_04
-118.293,55.621,PEORIA AGDM,3075160,AB,5.1,0,NA,23.7,0,-7.3,0,NA,NA,NA,17.5,4,NA,NA,5,NA,NA,NA,385.6,0,2015_04
-115.278,56.552,RED EARTH,3075488,AB,5.2,0,NA,23.8,0,-10.6,0,NA,NA,NA,9.9,1,NA,NA,4,NA,NA,NA,384.4,0,2015_04
-118.668,55.777,RYCROFT AGCM,3075601,AB,5.6,0,NA,25,0,-6.4,0,NA,NA,NA,24.5,4,NA,NA,5,NA,NA,NA,372.3,0,2015_04
-119.345,56.076,SAVANNA AGCM,3075770,AB,4.9,1,NA,22.1,1,-6.5,0,NA,NA,NA,40.6,3,NA,NA,5,NA,NA,NA,378.5,0,2015_04
-117.741,54.425,SIMONETTE,3075937,AB,5.1,8,1.5,24,4,-9,4,17,4,NA,50,4,NA,0,6,NA,NA,NA,284.9,0,2015_04
-119.23,55.695,SPIRIT RIVER AUTO STATION,3076069,AB,4.1,0,NA,21.1,0,-8.2,0,NA,NA,NA,37,4,NA,NA,6,NA,NA,NA,418,0,2015_04
-118.408,55.352,TEEPEE CREEK AGCM,3076366,AB,5.1,0,NA,25.8,0,-7,0,NA,NA,NA,21.8,4,NA,NA,7,NA,NA,NA,386.6,0,2015_04
-117.199,55.098,VALLEYVIEW AGDM,3076680,AB,5.9,0,NA,23.8,0,-6.4,0,NA,NA,NA,15.3,7,NA,NA,3,NA,NA,NA,363.7,0,2015_04
-113.866,58.711,GARDEN RIVER,307KPFP,AB,3.3,0,NA,26.7,0,-19.6,0,NA,NA,NA,0,29,NA,NA,0,NA,NA,NA,440.7,0,2015_04
-110.283,54.417,COLD LAKE A,3081680,AB,4.7,0,0.6,24.5,0,-11.7,0,15,0,108.0,37.8,0,121,0,7,NA,NA,NA,398.3,0,2015_04
-110.868,54.367,DUPRE AGCM,3081690,AB,4.6,0,NA,24.7,0,-9.7,0,NA,NA,NA,22.2,0,NA,NA,4,NA,NA,NA,401.9,0,2015_04
-104.71,50.201,BRATT'S LAKE CLIMATE,4010811,SK,5.3,0,NA,27.1,0,-8.6,0,NA,NA,NA,12.7,0,NA,NA,4,NA,NA,NA,381.9,0,2015_04
-102.571,50.368,BROADVIEW,4010879,SK,4.5,0,0.4,23.3,0,-11.2,0,NA,NA,NA,10.8,0,47,NA,5,NA,NA,NA,404.6,0,2015_04
-105.383,50.55,BUFFALO POUND LAKE,4010984,SK,5.8,2,NA,26.5,1,-7.5,1,0,1,NA,15,1,NA,NA,3,NA,NA,NA,342.9,0,2015_04
-104.267,50.85,CUPAR,4011980,SK,5.4,5,1,26,4,-8,4,5,4,NA,19,4,NA,0,6,NA,NA,NA,315.7,0,2015_04
-104.867,51.183,DUVAL,4012300,SK,5.7,0,0.7,25,0,-8,0,10.6,0,142.0,36.6,0,137,0,8,NA,NA,NA,370,0,2015_04
-102.966,49.21,ESTEVAN A,4012401,SK,6.9,7,NA,24.2,7,-8.2,7,6.2,7,NA,10,7,NA,NA,4,NA,NA,NA,255.1,0,2015_04
-102.967,49.217,ESTEVAN,4012410,SK,5.8,0,NA,24.1,0,-7.8,0,NA,NA,NA,9.7,0,NA,NA,4,NA,NA,NA,366,0,2015_04
-103.65,50.55,INDIAN HEAD CDA,4013480,SK,4.8,0,0.7,25.3,0,-8.2,0,NA,NA,NA,9.5,0,42,NA,4,NA,NA,NA,394.9,0,2015_04
-103.753,51.257,KELLIHER,4013660,SK,4,0,0.4,24.5,0,-10,0,13,0,114.0,26,0,85,0,9,NA,NA,NA,419.3,0,2015_04
-102.733,50.2,KIPLING,4014040,SK,5.3,0,1.4,22.9,0,-9.6,0,13,0,95.0,15.7,0,58,0,6,NA,NA,NA,382.4,0,2015_04
-101.717,50.9,LANGENBURG,4014145,SK,7.6,9,4.1,24,9,-6,9,0,9,NA,9,9,NA,0,3,NA,NA,NA,217.6,0,2015_04
-105.25,51.417,LAST MOUNTAIN CS,4014156,SK,4.9,0,0.5,24.5,0,-9.1,0,NA,NA,NA,29.5,0,113,NA,5,NA,NA,NA,391.7,0,2015_04
-104.633,52,LEROY,4014322,SK,4.8,0,1,24.5,0,-8,0,9.3,0,108.0,35.2,0,157,0,5,NA,NA,NA,394.8,0,2015_04
-103.889,51.152,LIPTON 2,4014481,SK,4.2,11,0.1,26,11,-9,11,10,11,NA,11,11,NA,0,5,NA,NA,NA,262.3,0,2015_04
-103.233,49.233,MACOUN,4014870,SK,NA,NA,NA,NA,NA,NA,NA,8,28,NA,8,28,NA,NA,1,NA,NA,NA,NA,NA,2015_04
-105.538,50.332,MOOSE JAW CS,4015322,SK,5.8,0,NA,27.7,0,-9.3,0,NA,NA,NA,NA,NA,NA,NA,NA,NA,NA,NA,366.3,0,2015_04
-105,52.333,MUENSTER,4015440,SK,4.2,3,0.7,25,2,-13,3,2,2,NA,22.2,2,NA,0,2,NA,NA,NA,372.6,0,2015_04
-102.117,49.317,OXBOW,4015800,SK,5.9,1,NA,24,0,-8,1,4,0,NA,7.5,0,NA,0,4,NA,NA,NA,350.5,0,2015_04
-103.265,51.403,PARKERVIEW,4015870,SK,4,9,0.7,20.5,9,-10,9,7,29,NA,7,29,NA,NA,1,NA,NA,NA,293.6,0,2015_04
-103.983,50.567,QU'APPELLE 1,4016322,SK,5.8,0,1.2,25,0,-8,0,10.4,0,86.0,18.5,0,69,0,5,NA,NA,NA,365.4,0,2015_04
-104.667,50.451,REGINA RCMP SNOW,4016565,SK,NA,NA,NA,NA,NA,NA,NA,2.6,0,NA,2.6,0,NA,0,1,NA,NA,NA,NA,NA,2015_04
-104.833,50.567,REGINA GILMOUR,4016651,SK,NA,NA,NA,NA,NA,NA,NA,2,0,37.0,6.2,0,26,0,2,NA,NA,NA,NA,NA,2015_04
-104.667,50.433,REGINA RCS,4016699,SK,5.6,0,NA,27.1,0,-7.9,0,NA,NA,NA,13.2,0,NA,NA,5,NA,NA,NA,372.6,0,2015_04
-105.4,51.667,WATROUS EAST,4018642,SK,4.9,3,NA,26.3,2,-9.6,1,NA,NA,NA,31.5,4,NA,NA,4,NA,NA,NA,352.8,0,2015_04
-104.183,49.817,YELLOW GRASS,4019040,SK,6.7,0,1.7,27,0,-9.5,0,8,0,90.0,14,0,52,0,4,NA,NA,NA,340.5,0,2015_04
-102.464,51.265,YORKTON,4019073,SK,4.9,0,NA,24.1,0,-9.4,0,NA,NA,NA,13.8,0,NA,NA,5,NA,NA,NA,392.4,0,2015_04
-102.462,51.265,YORKTON,4019075,SK,5,2,NA,24.2,2,-9.2,1,NA,NA,NA,9.9,2,NA,NA,4,NA,NA,NA,364.2,0,2015_04
-102.233,51.2,TONKIN,4019082,SK,5,1,NA,26,1,-9,1,14,1,NA,15,1,NA,0,3,NA,NA,NA,376,0,2015_04
-104.2,51.767,WYNYARD (AUT),40190LN,SK,4.2,0,NA,24.6,0,-9.7,0,NA,NA,NA,29.1,0,NA,NA,6,NA,NA,NA,413.2,0,2015_04
-103.8,49.7,WEYBURN,401HP5R,SK,5.6,0,NA,25.6,0,-7.9,0,NA,NA,NA,5.9,0,NA,NA,2,NA,NA,NA,370.6,0,2015_04
-106.848,51.289,CUTBANK,401JR89,SK,NA,NA,NA,NA,NA,NA,NA,0,26,NA,39.6,26,NA,NA,4,NA,NA,NA,NA,NA,2015_04
-105.946,49.729,ASSINIBOIA AIRPORT,4020286,SK,5.6,0,NA,27.4,0,-9.4,0,NA,NA,NA,26,0,NA,NA,4,NA,NA,NA,371.1,0,2015_04
-107.311,50.832,BEECHY,4020560,SK,6.3,0,0.8,30,0,-11,0,14,0,221.0,22.1,0,126,0,4,NA,NA,NA,350.3,0,2015_04
-106.583,51.133,ELBOW CS,4022359,SK,5.3,1,NA,27.6,1,-8.8,0,NA,NA,NA,54.2,1,NA,NA,5,NA,NA,NA,367.5,0,2015_04
-106.55,51.167,ELBOW 2 NE,4022363,SK,5.9,16,1,27.5,16,-7.5,16,2.5,16,NA,60.5,16,NA,0,5,NA,NA,NA,169.8,0,2015_04
-107.15,50.95,LUCKY LAKE,4024714,SK,6.1,0,NA,28.9,0,-9.4,0,NA,NA,NA,25.9,0,NA,NA,5,NA,NA,NA,356.6,0,2015_04
-109.466,49.903,MAPLE CREEK,4024919,SK,6.9,0,NA,25,0,-7.3,0,NA,NA,NA,8.6,0,NA,NA,2,NA,NA,NA,331.6,0,2015_04
-107.263,51.154,ROCK POINT,4026847,SK,6.3,0,1.2,28,0,-7.5,0,21.4,0,235.0,35.4,0,168,0,6,NA,NA,NA,351.5,0,2015_04
-107.8,50.6,STEWART VALLEY,4027775,SK,6.9,0,1.1,29,0,-8,0,4,0,62.0,18,0,94,0,5,NA,NA,NA,333,0,2015_04
-107.691,50.292,SWIFT CURRENT,4028038,SK,6,4,NA,27.1,3,-8.8,4,NA,NA,NA,8.4,4,NA,NA,3,NA,NA,NA,310.8,0,2015_04
-107.733,50.267,SWIFT CURRENT CDA,4028060,SK,6.1,0,1,26.8,0,-7.5,0,NA,NA,NA,12.4,0,62,NA,3,NA,NA,NA,355.6,0,2015_04
-109.501,50.909,LEADER AIRPORT,402DAF0,SK,6.3,0,NA,26.2,0,-7.9,0,NA,NA,NA,6.2,0,NA,NA,4,NA,NA,NA,350.7,0,2015_04
-109.1,49.133,CLAYDON,4031581,SK,6.2,4,0.9,26.5,4,-10,4,6,4,NA,10.8,4,NA,0,4,NA,NA,NA,305.9,0,2015_04
-105.517,49.117,CORONACH,4031844,SK,5.7,0,0.7,26.5,0,-9.5,0,24,0,273.0,35.1,0,142,0,7,NA,NA,NA,367.8,0,2015_04
-105.483,49.05,CORONACH SPC,40318MN,SK,5.3,1,0.2,26.3,1,-9.5,0,NA,NA,NA,16.7,1,NA,NA,5,NA,NA,NA,367.4,0,2015_04
-109.514,49.641,CYPRESS HILLS PARK,4031999,SK,4.9,0,NA,21.4,0,-8.7,0,NA,NA,NA,52.1,0,NA,NA,10,NA,NA,NA,394.3,0,2015_04
-108.989,49.438,EASTEND CYPRESS (AUT),4032322,SK,5.2,0,NA,24.3,0,-8.5,0,NA,NA,NA,13.9,0,NA,NA,4,NA,NA,NA,385.1,0,2015_04
-107.024,49.099,MANKOTA,4034910,SK,5.2,0,0.1,26.1,0,-7.7,0,NA,NA,NA,NA,NA,NA,NA,NA,NA,NA,NA,383,0,2015_04
-105.979,49.168,ROCKGLEN (AUT),4036844,SK,5,4,NA,21.9,3,-7,2,NA,NA,NA,28.2,4,NA,NA,5,NA,NA,NA,337.5,0,2015_04
-107.586,49.058,VAL MARIE SOUTHEAST,4038412,SK,5.2,0,NA,26.6,0,-10.4,0,NA,NA,NA,23.8,0,NA,NA,5,NA,NA,NA,382.9,0,2015_04
-108.407,51.294,BICKLEIGH,4040587,SK,7.9,6,2.6,27.5,5,-8.5,6,6,0,72.0,14.2,0,61,0,3,NA,NA,NA,243.2,0,2015_04
-109.2,53.45,BUTTE ST PIERRE,4041000,SK,4.9,3,1.2,24.5,3,-8.5,3,2.5,3,NA,14.8,3,NA,0,5,NA,NA,NA,352.4,0,2015_04
-109.181,51.515,KINDERSLEY A,4043901,SK,5.7,0,NA,25.6,0,-8.2,0,7.2,0,NA,11.4,0,NA,NA,4,NA,NA,NA,370.4,0,2015_04
-109.948,52.333,MACKLIN,4044850,SK,6.5,10,NA,25.5,9,-5.5,10,5,7,NA,18.2,7,NA,0,3,NA,NA,NA,229.9,0,2015_04
-108.256,52.772,NORTH BATTLEFORD RCS,4045607,SK,5.1,0,NA,24.4,0,-8.8,0,NA,NA,NA,17,0,NA,NA,6,NA,NA,NA,387.6,0,2015_04
-108.244,52.769,NORTH BATTLEFORD,4045695,SK,5.3,1,NA,24.5,1,-8.2,1,NA,NA,NA,0,1,NA,NA,0,NA,NA,NA,367.5,0,2015_04
-107.917,51.567,ROSETOWN EAST,4046884,SK,6.2,0,NA,28.2,0,-8.6,0,NA,NA,NA,11.6,0,NA,NA,4,NA,NA,NA,354.1,0,2015_04
-108.835,52.36,SCOTT CDA,4047240,SK,5.1,0,1.3,24.4,0,-9.6,0,NA,NA,NA,15.4,1,NA,NA,5,NA,NA,NA,387.8,0,2015_04
-107.767,52.317,SONNINGDALE,4047644,SK,5.3,6,NA,26.5,6,-10,6,19.6,6,NA,21.8,6,NA,NA,3,NA,NA,NA,304.5,0.5,2015_04
-109.405,53.131,WASECA RCS,4048521,SK,5.2,0,NA,24.4,0,-7.5,0,NA,NA,NA,20.8,0,NA,NA,7,NA,NA,NA,384.5,0,2015_04
-104.6,52.817,MELFORT,4055079,SK,3.8,0,NA,24.9,0,-10.2,0,NA,NA,NA,34.4,0,NA,NA,2,NA,NA,NA,425.6,0,2015_04
-107.05,51.483,OUTLOOK PFRA,4055736,SK,6.1,0,0.8,28.3,0,-8.6,0,NA,NA,NA,33.6,0,156,NA,4,NA,NA,NA,357.5,0,2015_04
-105.15,52.417,PILGER,4056121,SK,3.8,0,NA,24.1,0,-11.8,0,NA,NA,NA,37.1,0,NA,NA,2,NA,NA,NA,427.4,0,2015_04
-105.673,53.214,PRINCE ALBERT A,4056241,SK,3.6,0,NA,26.8,0,-11.8,0,22,0,NA,32.4,0,NA,NA,6,NA,NA,NA,431.1,0,2015_04
-106.719,52.174,SASKATOON RCS,4057165,SK,5.6,0,NA,27.8,0,-9.6,0,NA,NA,NA,21.1,0,NA,NA,3,NA,NA,NA,372.4,0,2015_04
-106.6,52.15,SASKATOON SRC,4057180,SK,6.2,0,1,27.6,0,-8.2,0,43.1,0,774.0,41.1,0,189,0,4,NA,NA,NA,355.4,0,2015_04
-109.626,54.335,BEACON HILL,4060452,SK,4.2,14,NA,25,14,-11.5,14,0,14,NA,11,14,NA,0,2,NA,NA,NA,220.9,0,2015_04
-108.421,55.841,BUFFALO NARROWS (AUT),4060983,SK,3,1,NA,23.7,1,-17.3,0,NA,NA,NA,NA,NA,NA,NA,NA,NA,NA,NA,436,0,2015_04
-104.483,58.083,CIGAR LAKE,4061570,SK,-3.3,0,0.3,18,0,-28,0,2,0,19.0,2,0,13,0,1,NA,NA,NA,639.9,0,2015_04
-103.712,58.19,COLLINS BAY,4061629,SK,-2.8,0,NA,17.6,0,-30.4,0,NA,NA,NA,7.5,0,NA,NA,3,NA,NA,NA,624.2,0,2015_04
-103.7,58.183,COLLINS BAY CAMECO,4061632,SK,-3.1,3,NA,16.9,3,-28,3,4.8,3,NA,5.6,3,NA,0,1,NA,NA,NA,568.8,0,2015_04
-102.35,55.533,ISLAND FALLS (AUT),4063605,SK,-0.2,0,NA,21.3,0,-27.5,0,NA,NA,NA,39.7,0,NA,NA,3,NA,NA,NA,547.1,0,2015_04
-109.962,54.908,JIMMY LAKE AWOS,4063623,SK,3.2,0,NA,24,0,-17.7,0,NA,NA,NA,27,0,NA,NA,8,NA,NA,NA,442.9,0,2015_04
-105.6,57.25,KEY LAKE,4063753,SK,-1.6,0,NA,22.8,0,-31.7,0,NA,NA,NA,16,0,NA,NA,3,NA,NA,NA,589.4,0,2015_04
-105.617,57.25,KEY LAKE,4063755,SK,-1,0,1,22.5,0,-31,0,8.6,0,48.0,13,0,55,0,3,NA,NA,NA,569.5,0,2015_04
-105.618,57.256,KEY LAKE,4063757,SK,-0.8,1,NA,22.9,1,-28.4,0,NA,NA,NA,15.1,1,NA,NA,2,NA,NA,NA,544,0,2015_04
-105.27,55.146,LA RONGE RCS,4064149,SK,1.7,0,NA,24.8,0,-20.3,0,NA,NA,NA,32.6,0,NA,NA,9,NA,NA,NA,487.9,0,2015_04
-105.267,55.151,LA RONGE A,4064155,SK,1.6,0,NA,24.5,0,-21.5,0,16.8,0,NA,31.8,0,NA,NA,4,NA,NA,NA,491.3,0,2015_04
-109.138,54.02,LOON LAKE RCS,4064620,SK,4.1,1,NA,24.2,1,-12.9,0,NA,NA,NA,25.1,1,NA,1,7,NA,NA,NA,402.1,0,2015_04
-108.05,54.125,MEADOW LAKE A,4065057,SK,3.5,0,NA,24.2,0,-11.3,0,NA,NA,NA,NA,NA,NA,NA,NA,NA,NA,NA,435.1,0,2015_04
-103.283,56.333,SOUTHEND,4067655,SK,-1.4,0,NA,20.3,0,-30.2,0,NA,NA,NA,26.6,0,NA,NA,5,NA,NA,NA,580.5,0,2015_04
-107.55,53.367,SPIRITWOOD WEST,4067723,SK,4,0,NA,24.4,0,-11.2,0,NA,NA,NA,19.3,0,NA,NA,4,NA,NA,NA,419.6,0,2015_04
-105.841,59.25,STONY RAPIDS,4067799,SK,-1.9,6,NA,19.1,6,-31.2,5,NA,NA,NA,6.5,6,NA,NA,2,NA,NA,NA,478.2,0,2015_04
-106.067,53.917,WASKESIU LAKE,4068559,SK,3,0,NA,26,0,-16.2,0,NA,NA,NA,24,0,NA,NA,5,NA,NA,NA,449.9,0,2015_04
-108.517,54.133,MEADOW LAKE,406N0NM,SK,3.8,0,NA,24.3,0,-10.5,0,NA,NA,NA,11.1,1,NA,NA,3,NA,NA,NA,425.6,0,2015_04
-108.483,59.567,URANIUM CITY (AUT),406QLD0,SK,-2.2,0,NA,20.2,0,-29.8,0,NA,NA,NA,0.8,0,NA,NA,0,NA,NA,NA,604.5,0,2015_04
-104.008,53.333,NIPAWIN,4075525,SK,4,3,NA,25.9,3,-13,3,NA,NA,NA,1.5,4,NA,NA,1,NA,NA,NA,378.8,0,2015_04
-104,53.333,NIPAWIN,407N51G,SK,3.5,0,NA,25.7,0,-13.2,0,NA,NA,NA,38.2,0,NA,NA,3,NA,NA,NA,435,0,2015_04
-102.583,52.883,HUDSON BAY 13W,4083323,SK,3.2,0,NA,27.5,0,-15.5,0,3,0,NA,18.4,0,NA,0,3,NA,NA,NA,444.9,0,2015_04
-102.317,52.817,HUDSON BAY(AUT),4083324,SK,3.7,0,NA,25.9,0,-15.3,0,NA,NA,NA,14.8,0,NA,NA,3,NA,NA,NA,428.9,0,2015_04
-103.833,52.583,MCKAGUE 2,4085052,SK,4.2,1,1.4,24,1,-11,1,4.6,1,NA,28.2,1,NA,0,3,NA,NA,NA,401,0,2015_04
-101.867,52.083,PELLY,4086000,SK,3.4,0,1.6,24,0,-17,0,10.8,0,54.0,21.8,0,64,0,6,NA,NA,NA,438.6,0,2015_04
-101.9,51.733,PELLY 2,4086001,SK,4.8,0,1.5,26,0,-11.5,0,12.4,0,90.0,18.6,0,64,0,3,NA,NA,NA,396.4,0,2015_04
-99.292,49.276,BALDUR,5010140,MB,5.3,0,1.3,24.5,0,-12.5,0,0,0,0.0,9.4,0,35,0,4,NA,NA,NA,381.7,0,2015_04
-99.45,49.3,BELMONT,5010191,MB,NA,NA,NA,NA,NA,NA,NA,4,0,36.0,19.8,0,75,0,5,NA,NA,NA,NA,NA,2015_04
-99.952,49.91,BRANDON A,5010481,MB,5,0,NA,23.2,0,-11.3,0,5.2,0,NA,7,0,NA,NA,4,NA,NA,NA,391.5,0,2015_04
-99.95,49.9,BRANDON RCS,5010490,MB,5.1,0,NA,23.2,0,-10.8,0,NA,NA,NA,5.6,0,NA,NA,2,NA,NA,NA,386.1,0,2015_04
-99.357,49.906,CARBERRY CS,5010547,MB,4.8,0,NA,24.9,0,-13.6,0,NA,NA,NA,6,0,NA,NA,2,NA,NA,NA,395,0,2015_04
-99.074,49.562,CYPRESS RIVER RCS,5010641,MB,5.3,0,NA,25.9,0,-12.9,0,NA,NA,NA,13,0,NA,NA,2,NA,NA,NA,380.4,0,2015_04
-101.203,49.927,ELKHORN 2 EAST,5010QFQ,MB,6.1,2,2,23.5,2,-10.5,2,7.2,2,NA,8.6,2,NA,0,3,NA,NA,NA,334.3,0,2015_04
-98.3,49.983,PORTAGE ROMANCE,5012300,MB,NA,NA,NA,NA,NA,NA,NA,2.2,0,NA,12.6,0,NA,0,2,NA,NA,NA,NA,NA,2015_04
-98.267,49.95,PORTAGE LA PRAIRIE CDA,5012321,MB,NA,NA,NA,NA,NA,NA,NA,0.2,12,NA,13.2,12,NA,0,5,NA,NA,NA,NA,NA,2015_04
-98.284,49.903,PORTAGE SOUTHPORT,5012324,MB,5.8,0,NA,26.7,0,-13.3,0,NA,NA,NA,12.4,0,NA,NA,3,NA,NA,NA,367,0,2015_04
-101.363,51.183,ROBLIN,5012469,MB,4.3,0,NA,23.5,0,-10.6,0,NA,NA,NA,11.1,0,NA,NA,3,NA,NA,NA,409.7,0,2015_04
-99.017,49.45,ST ALPHONSE,5012545,MB,6,0,1.3,25.5,0,-14,0,1.2,0,12.0,12.9,0,46,0,4,NA,NA,NA,360.9,0,2015_04
-100.604,50.455,SHOAL LAKE CS,5012654,MB,4.6,0,NA,22,0,-11.5,0,NA,NA,NA,0,28,NA,NA,0,NA,NA,NA,402.2,0,2015_04
-100.934,49.842,VIRDEN WATER,5012961,MB,6.1,0,NA,23,0,-10,0,4,0,NA,9.5,0,NA,0,6,NA,NA,NA,357.5,0,2015_04
-99.942,50.655,WASAGAMING,5013117,MB,2.7,0,0.9,21.6,0,-15.7,0,NA,NA,NA,12.8,0,51,NA,7,NA,NA,NA,457.6,0,2015_04
-100.986,49.281,MELITA,501A7AR,MB,6.3,0,NA,23.4,0,-6.8,0,NA,NA,NA,6.3,0,NA,NA,3,NA,NA,NA,351.1,0,2015_04
-101.4,51.267,ROBLIN FRIESEN 3 NORTHWEST,501B4G2,MB,NA,NA,NA,NA,NA,NA,NA,16.6,0,NA,22.6,0,NA,0,6,NA,NA,NA,NA,NA,2015_04
-100.179,50.108,RIVERS PETTAPIECE,501BMMA,MB,NA,NA,NA,NA,NA,NA,NA,6.4,0,70.0,9.6,0,41,0,3,NA,NA,NA,NA,NA,2015_04
-100.817,50.75,ROSSBURN 4 NORTH,501KE01,MB,NA,NA,NA,NA,NA,NA,NA,18,1,NA,19.6,1,NA,0,5,NA,NA,NA,NA,NA,2015_04
-98.319,49.4,DEERWOOD RCS,5020725,MB,5.7,0,NA,26.4,0,-13.8,0,NA,NA,NA,14.2,0,NA,NA,2,NA,NA,NA,367.6,0,2015_04
-97.238,49,EMERSON AUTO,5020881,MB,5.8,1,NA,27.8,1,-11.4,0,NA,NA,NA,21.2,2,NA,NA,3,NA,NA,NA,354.3,0,2015_04
-97.56,49.031,GRETNA (AUT),5021220,MB,5.5,1,NA,24.8,1,-11.8,0,NA,NA,NA,15.1,1,NA,NA,2,NA,NA,NA,362.7,0,2015_04
-98.875,49.606,HOLLAND,5021302,MB,NA,NA,NA,NA,NA,NA,NA,1,9,NA,4.4,9,NA,0,3,NA,NA,NA,NA,NA,2015_04
-96.901,49.518,KLEEFELD (MAFRI),5021500,MB,4.9,1,NA,26.3,1,-14,0,NA,NA,NA,22.2,1,NA,1,3,NA,NA,NA,380.9,0,2015_04
-97.807,50.013,MARQUETTE,5021695,MB,5.9,0,1.3,26.5,0,-12,0,3,0,28.0,15.6,0,54,0,7,NA,NA,NA,362.4,0,2015_04
-98.25,49.45,MIAMI THIESSEN,5021737,MB,6.5,0,NA,27.5,0,-10.5,0,9.1,0,NA,23.4,0,NA,0,7,NA,NA,NA,345.1,0.5,2015_04
-98.084,49.188,MORDEN CDA CS,5021849,MB,6,0,NA,26.7,0,-12.2,0,NA,NA,NA,13.7,0,NA,NA,3,NA,NA,NA,360.1,0.1,2015_04
-96.85,49.933,OAKBANK,5022051,MB,NA,NA,NA,NA,NA,NA,NA,6.1,0,43.0,30.7,0,94,0,6,NA,NA,NA,NA,NA,2015_04
-98.905,49.191,PILOT MOUND (AUT),5022125,MB,4.6,0,NA,26.3,0,-13,0,NA,NA,NA,14,0,NA,NA,4,NA,NA,NA,402.6,0,2015_04
-98.367,49.65,ST CLAUDE,5022550,MB,NA,NA,NA,NA,NA,NA,NA,3.8,2,NA,14.9,2,NA,0,4,NA,NA,NA,NA,NA,2015_04
-96.035,49.353,ST LABRE,5022575,MB,NA,NA,NA,NA,NA,NA,NA,5.5,1,NA,14.9,1,NA,0,6,NA,NA,NA,NA,NA,2015_04
-97.95,49.133,SCHANZENFELD,5022623,MB,NA,NA,NA,NA,NA,NA,NA,2.8,0,32.0,16.6,0,60,0,5,NA,NA,NA,NA,NA,2015_04
-95.598,49.024,SPRAGUE,5022759,MB,4.6,1,NA,22.9,1,-13.6,0,NA,NA,NA,10,1,NA,NA,2,NA,NA,NA,389.6,0,2015_04
-97.167,50.117,STONY MOUNTAIN,5022791,MB,6,0,1.6,27,0,-13,0,6.2,0,79.0,24.6,0,94,0,7,NA,NA,NA,360.4,1.3,2015_04
-97.273,49.85,WINNIPEG CHARLESWOOD 2,5023225,MB,NA,NA,NA,NA,NA,NA,NA,3.8,0,NA,25.4,0,NA,0,7,NA,NA,NA,NA,NA,2015_04
-97.129,49.888,WINNIPEG THE FORKS,5023262,MB,6.7,0,NA,26.4,0,-11.8,0,NA,NA,NA,30.7,0,NA,NA,6,NA,NA,NA,340.4,0.3,2015_04
-98.03,49.498,CARMAN U OF M CS,502I001,MB,5.5,0,NA,27.4,0,-11.3,0,NA,NA,NA,17.5,1,NA,NA,3,NA,NA,NA,375.5,0,2015_04
-97.249,49.917,WINNIPEG A CS,502S001,MB,5.4,0,NA,27.4,0,-15.5,0,NA,NA,NA,17.8,0,NA,2,3,NA,NA,NA,378.9,0,2015_04
-97.083,50.933,ARBORG,5030080,MB,4.3,1,1.3,24.5,1,-14.5,0,3.2,1,NA,6.8,1,NA,0,3,NA,NA,NA,398.2,0,2015_04
-97.022,52.36,BERENS RIVER CS,5030203,MB,1.3,0,0.2,22.8,0,-24,0,NA,NA,NA,17.3,0,74,NA,5,NA,NA,NA,502.2,0,2015_04
-97.616,52.819,GEORGE ISLAND (AUT),5030984,MB,-1.2,0,NA,10.8,0,-21.5,0,NA,NA,NA,NA,NA,NA,NA,NA,NA,NA,NA,577.1,0,2015_04
-97.555,51.083,FISHER BRANCH (AUT),50309J6,MB,4.2,0,NA,26.1,0,-16.3,0,NA,NA,NA,6.4,0,NA,NA,3,NA,NA,NA,415.1,0,2015_04
-96.982,50.631,GIMLI HARBOUR CS,5031041,MB,2.9,0,NA,21.8,0,-13.1,0,NA,NA,NA,NA,NA,NA,NA,NA,NA,NA,NA,451.6,0,2015_04
-97.05,50.633,GIMLI CLIMATE,5031042,MB,4.2,0,NA,25.8,0,-13.5,0,NA,NA,NA,13.8,0,NA,NA,4,NA,NA,NA,412.7,0,2015_04
-99.283,53.158,GRAND RAPIDS HYDRO,5031111,MB,0.7,6,-0.4,17,6,-21,6,9,6,NA,19.3,6,NA,0,4,NA,NA,NA,414.6,0,2015_04
-95.977,50.522,GREAT FALLS CLIMATE,5031201,MB,4.5,4,NA,25.1,3,-15.3,2,NA,NA,NA,7.9,10,NA,NA,2,NA,NA,NA,350.8,0,2015_04
-97.568,51.211,HODGSON 3,5031310,MB,3.6,9,NA,24.5,9,-15.5,9,3,9,NA,4.8,9,NA,NA,4,NA,NA,NA,303,0,2015_04
-95.197,49.624,INDIAN BAY,5031320,MB,3.9,0,0.7,22.5,0,-16.5,0,5,0,61.0,20,0,74,0,5,NA,NA,NA,421.8,0,2015_04
-99.268,53.186,GRAND RAPIDS (AUT),5031A10,MB,0.2,0,NA,20.8,0,-24,0,NA,NA,NA,31.5,0,NA,NA,5,NA,NA,NA,534.6,0,2015_04
-95.89,50.148,PINAWA CANWARN,5032161,MB,NA,NA,NA,NA,NA,NA,NA,4.8,1,NA,34.8,1,NA,0,6,NA,NA,NA,NA,NA,2015_04
-95.533,49.85,RENNIE,5032360,MB,5.4,14,NA,25,10,-17.5,10,0,10,NA,11.2,10,NA,0,2,NA,NA,NA,202.1,0,2015_04
-96.567,50.7,VICTORIA BEACH (AUT),5032951,MB,4,0,NA,26.4,0,-14.5,0,NA,NA,NA,NA,NA,NA,NA,NA,NA,NA,NA,420.4,0,2015_04
-96.065,50.177,PINAWA,503B1ER,MB,4.2,1,NA,25,1,-15.1,0,NA,NA,NA,24.4,1,NA,0,6,NA,NA,NA,399,0,2015_04
-98.7,50.05,BEAVER,5040166,MB,NA,NA,NA,NA,NA,NA,NA,2,29,NA,2,29,NA,NA,1,NA,NA,NA,NA,NA,2015_04
-100.057,51.1,DAUPHIN CS,5040681,MB,5.1,0,NA,24.9,0,-12.6,0,NA,NA,NA,4.9,0,NA,NA,1,NA,NA,NA,386.7,0,2015_04
-100.053,51.101,DAUPHIN,5040689,MB,5.1,2,NA,24.6,2,-12.4,0,NA,NA,NA,4.6,1,NA,NA,1,NA,NA,NA,360.8,0,2015_04
-100.467,51.1,GILBERT PLAINS,5040985,MB,4.2,0,1.2,25,0,-14,0,10.1,0,66.0,11.8,0,42,0.1,4,NA,NA,NA,414.5,0,2015_04
-100.65,52.033,COWAN,5040FJ3,MB,4.4,0,1.9,27.5,0,-18,0,16,0,72.0,22,0,64,0,5,NA,NA,NA,407.9,0.3,2015_04
-101.098,52.666,MAFEKING,5041685,MB,5.3,3,2.4,27,2,-15,3,12,2,NA,36,2,NA,0,6,NA,NA,NA,344,0,2015_04
-99.53,50.712,MCCREARY,5043158,MB,5.1,0,1.3,24.6,0,-14.3,0,NA,NA,NA,10.2,5,NA,NA,4,NA,NA,NA,387.5,0,2015_04
-98.037,50.499,OAKPOINT MARINE,504K0NM,MB,3.1,1,NA,22.8,0,-13.5,1,NA,NA,NA,12.2,1,NA,NA,3,NA,NA,NA,430.8,0,2015_04
-101.233,52.115,SWAN RIVER RCS,504K80K,MB,4.6,0,NA,26,0,-12.7,0,NA,NA,NA,10.4,0,NA,NA,3,NA,NA,NA,402.7,0,2015_04
-101.683,54.683,FLIN FLON,5050919,MB,0.6,0,NA,21,0,-21.9,0,NA,NA,NA,0,29,NA,NA,0,NA,NA,NA,522,0,2015_04
-101.883,54.767,FLIN FLON,5050920,MB,1.6,0,-0.2,21.5,0,-19.5,0,9,0,73.0,44.6,0,220,0,9,NA,NA,NA,491.5,0,2015_04
-101.683,54.683,FLIN FLON A,5050960,MB,0.7,0,-0.1,21,0,-22.5,0,26.2,0,140.0,56.2,0,200,0,8,NA,NA,NA,517.6,0,2015_04
-101.091,53.971,THE PAS A,5052881,MB,1.1,0,NA,20.9,0,-21.9,0,11.6,0,NA,24.6,0,NA,NA,6,NA,NA,NA,507.1,0,2015_04
-101.1,53.967,THE PAS CLIMATE,5052890,MB,1.2,0,NA,20.7,0,-22.2,0,NA,NA,NA,16.5,0,NA,NA,5,NA,NA,NA,505,0,2015_04
-94.066,58.739,CHURCHILL,5060595,MB,-9.5,0,NA,9.8,0,-27.4,0,NA,NA,NA,3.2,0,NA,NA,1,NA,NA,NA,823.9,0,2015_04
-94.067,58.733,CHURCHILL CLIMATE,5060608,MB,-9.5,1,NA,9.7,1,-27.6,0,NA,NA,NA,5.5,1,NA,NA,2,NA,NA,NA,797.7,0,2015_04
-98.033,54.533,CROSS LAKE JENPEG,5060623,MB,-0.4,0,-0.1,15.8,0,-25.1,0,17,0,137.0,17,0,88,0,2,NA,NA,NA,551.8,0,2015_04
-94.711,56.358,GILLAM A,5061022,MB,-4.3,0,NA,18.8,0,-28,0,27.8,0,NA,22,1,NA,NA,8,NA,NA,NA,668.3,0,2015_04
-94.654,53.857,ISLAND LAKE A,5061375,MB,-1.8,16,NA,17.8,16,-24.9,16,10,16,NA,7.4,17,NA,NA,1,NA,NA,NA,277.6,0,2015_04
-96.51,56.038,KELSEY DAM CS,5061422,MB,-2.8,1,NA,18.9,1,-28.7,0,NA,NA,NA,22.9,1,NA,NA,7,NA,NA,NA,603.6,0,2015_04
-101.076,56.864,LYNN LAKE,5061645,MB,-2.3,0,NA,18.9,0,-28.1,0,NA,NA,NA,18.7,1,NA,NA,4,NA,NA,NA,608.6,0,2015_04
-101.067,56.85,LYNN LAKE RCS,5061649,MB,-2.7,0,NA,18.8,0,-28.2,0,NA,NA,NA,29.5,0,NA,NA,6,NA,NA,NA,620.4,0,2015_04
-97.844,53.958,NORWAY HOUSE,5062040,MB,0,0,NA,19.6,0,-27.3,0,NA,NA,NA,35.1,0,NA,NA,7,NA,NA,NA,540.1,0,2015_04
-98.512,58.706,TADOULE LAKE,5062835,MB,-7.3,4,NA,13.7,4,-29.5,4,NA,NA,NA,7.7,6,NA,NA,2,NA,NA,NA,658.9,0,2015_04
-98.502,58.716,TADOULE LAKE CS,5062840,MB,-7.4,0,NA,13.7,0,-29.6,0,NA,NA,NA,26,1,NA,NA,11,NA,NA,NA,762.1,0,2015_04
-97.863,55.805,THOMPSON A,5062921,MB,-2.5,0,NA,18.4,0,-32.8,0,24.8,0,NA,24,0,NA,NA,5,NA,NA,NA,615.6,0,2015_04
-82.432,52.928,ATTAWAPISKAT A,6010400,ON,-3.5,2,NA,12.8,1,-28.7,1,NA,NA,NA,30.1,0,NA,NA,6,NA,NA,NA,600.7,0,2015_04
-89.897,53.818,BIG TROUT LAKE A,6010735,ON,-1.5,3,NA,15.3,3,-26.5,3,NA,NA,NA,19.9,3,NA,NA,4,NA,NA,NA,527.2,0,2015_04
-89.892,53.816,BIG TROUT LAKE,6010740,ON,-3.3,0,NA,15.3,0,-28.4,0,NA,NA,NA,41.1,0,NA,3,6,NA,NA,NA,639.9,0,2015_04
-93.221,50.631,EAR FALLS (AUT),6012199,ON,2.6,0,NA,21.5,0,-18.3,0,NA,NA,NA,12.8,0,NA,NA,3,NA,NA,NA,462.5,0,2015_04
-87.676,56.019,FORT SEVERN A,6012501,ON,-6.8,1,NA,11.4,1,-28.2,0,NA,NA,NA,17.7,1,NA,NA,4,NA,NA,NA,717.9,0,2015_04
-87.936,52.196,LANSDOWNE HOUSE (AUT),6014353,ON,-2.1,0,NA,17.8,0,-24.1,0,NA,NA,NA,50,0,NA,5,8,NA,NA,NA,604.4,0,2015_04
-91.763,53.441,MUSKRAT DAM,6015026,ON,-0.4,6,NA,17.6,6,-27.3,5,NA,NA,NA,11.2,9,NA,NA,3,NA,NA,NA,440.4,0,2015_04
-85.433,54.983,PEAWANUCK (AUT),6016295,ON,-6.1,0,NA,11.5,0,-30.4,0,NA,NA,NA,49.2,0,NA,2,6,NA,NA,NA,722.2,0,2015_04
-90.218,51.449,PICKLE LAKE (AUT),6016525,ON,-0.5,1,NA,19.4,1,-21.6,1,NA,NA,NA,50,1,NA,NA,6,NA,NA,NA,535.5,0,2015_04
-90.214,51.446,PICKLE LAKE A,6016529,ON,-2.5,10,NA,16,10,-21.8,10,NA,NA,NA,NA,NA,NA,NA,NA,NA,NA,NA,410.9,0,2015_04
-93.793,51.067,RED LAKE A,6016970,ON,2.5,0,NA,21.2,0,-20.4,0,NA,NA,NA,NA,NA,NA,NA,NA,NA,NA,NA,464.8,0,2015_04
-93.344,53.064,SANDY LAKE A,6017401,ON,-0.3,1,NA,20.5,0,-27.9,1,NA,NA,NA,20.6,0,NA,NA,6,NA,NA,NA,531.1,0,2015_04
-93.967,48.633,BARWICK,6020559,ON,5.3,5,0.9,22.5,5,-11,5,5.9,5,NA,19.7,5,NA,0,6,NA,NA,NA,317.3,0,2015_04
-91.628,48.761,ATIKOKAN (AUT),6020LPQ,ON,2.7,0,NA,22.1,0,-16.1,0,NA,NA,NA,28.8,3,NA,NA,5,NA,NA,NA,459,0,2015_04
-93.439,48.651,FORT FRANCES RCS,6022474,ON,4.1,1,NA,22.3,1,-14.3,0,NA,NA,NA,12.7,2,NA,NA,3,NA,NA,NA,404.4,0,2015_04
-92.623,48.76,MINE CENTRE SOUTHWEST,6025205,ON,3.6,0,NA,22,0,-15,0,12.4,0,NA,25.4,0,NA,0,6,NA,NA,NA,431.6,0,2015_04
-92.744,49.828,DRYDEN REGIONAL,6032125,ON,3.8,2,NA,21.5,1,-17,1,NA,NA,NA,16,2,NA,NA,4,NA,NA,NA,396.6,0,2015_04
-94.378,49.791,KENORA RCS,6034073,ON,4.4,0,NA,21.1,0,-14.4,0,NA,NA,NA,15.7,0,NA,NA,4,NA,NA,NA,407.5,0,2015_04
-94.363,49.788,KENORA A,6034076,ON,4.4,0,NA,20.9,0,-14.2,0,14.4,0,NA,19.5,0,NA,NA,5,NA,NA,NA,408,0,2015_04
-91.908,50.114,SIOUX LOOKOUT A,6037776,ON,1.5,0,NA,20.8,0,-22.4,0,20.3,0,NA,36.9,0,NA,NA,7,NA,NA,NA,494.9,0,2015_04
-88.905,50.294,ARMSTRONG (AUT),6040325,ON,-1.2,1,NA,18.9,1,-28.5,0,NA,NA,NA,52.6,1,NA,NA,6,NA,NA,NA,557.5,0,2015_04
-88.345,49.154,CAMERON FALLS (AUT),6041110,ON,0.7,1,NA,17.3,1,-19.8,0,NA,NA,NA,42.8,1,NA,NA,7,NA,NA,NA,500.9,0,2015_04
-85.833,47.333,CARIBOU ISLAND (AUT),6041222,ON,0.7,0,NA,7.6,0,-11.5,0,NA,NA,NA,NA,NA,NA,NA,NA,NA,NA,NA,520.5,0,2015_04
-86.939,49.779,GERALDTON A,6042717,ON,-3,15,NA,14.9,15,-26.4,15,12.8,15,NA,13.8,15,NA,NA,4,NA,NA,NA,314.4,0,2015_04
-86.287,48.608,PUKASKWA (AUT),6046768,ON,0.8,1,NA,16.5,1,-21,0,NA,NA,NA,49.4,2,NA,NA,6,NA,NA,NA,498.1,0,2015_04
-89.322,48.372,THUNDER BAY,6048260,ON,2.8,0,NA,21.7,0,-14.4,0,NA,NA,NA,43.4,1,NA,NA,6,NA,NA,NA,456.2,0,2015_04
-89.278,48.414,THUNDER BAY BURWOOD,6048266,ON,3.1,6,NA,20.5,6,-14,6,0,6,NA,36,6,NA,0,4,NA,NA,NA,356.5,0,2015_04
-89.327,48.369,THUNDER BAY CS,6048268,ON,2.6,2,NA,21.3,2,-14.7,0,NA,NA,NA,39.6,2,NA,NA,6,NA,NA,NA,432.1,0,2015_04
-90.467,49.033,UPSALA (AUT),6049095,ON,1.3,0,NA,19.2,0,-20.6,0,NA,NA,NA,57.1,1,NA,NA,7,NA,NA,NA,502,0,2015_04
-89.119,48.369,WELCOME ISLAND (AUT),6049443,ON,2.3,0,NA,14.4,0,-11.3,0,NA,NA,NA,NA,NA,NA,NA,NA,NA,NA,NA,472.4,0,2015_04
-88.306,49.69,LITTLE FLATLAND ISLAND (AUT),6049470,ON,-1.5,0,NA,13.6,0,-21,0,NA,NA,NA,NA,NA,NA,0,NA,NA,NA,NA,584.6,0,2015_04
-89.317,48.367,THUNDER BAY A FIREHALL,604S003,ON,NA,NA,NA,NA,NA,NA,NA,3.6,16,NA,17.4,16,NA,NA,3,NA,NA,NA,NA,NA,2015_04
-84.814,47.723,LAKE SUPERIOR PROVINCIAL PARK,6054425,ON,0.2,0,NA,14.2,0,-20.8,0,NA,NA,NA,85.2,2,NA,32,8,NA,NA,NA,534,0,2015_04
-84.51,46.485,SAULT STE MARIE A,6057591,ON,2.2,0,NA,17.2,0,-11.9,0,7.1,0,NA,43.9,2,NA,NA,7,NA,NA,NA,474.4,0,2015_04
-84.786,47.967,WAWA A,6059407,ON,0.6,1,NA,15,1,-20.1,0,NA,NA,NA,NA,NA,NA,NA,NA,NA,NA,NA,504.2,0,2015_04
-81.483,45.967,KILLARNEY (AUT),605DJ25,ON,3.7,0,NA,20.6,0,-7,0,NA,NA,NA,NA,NA,NA,NA,NA,NA,NA,NA,429,0,2015_04
-83.347,47.82,CHAPLEAU A,6061362,ON,1,0,NA,16.8,0,-20.2,0,NA,NA,NA,NA,NA,NA,1,NA,NA,NA,NA,508.9,0,2015_04
-82.025,46.193,MASSEY,6065006,ON,4.2,0,-0.3,22,0,-10.5,0,0.8,0,10.0,75.4,0,125,0,8,NA,NA,NA,414.6,0,2015_04
-80.303,46.215,MONETVILLE 2,6065252,ON,5.4,4,NA,21.5,4,-13,4,7.8,4,NA,87.4,4,NA,0,9,NA,NA,NA,326.6,0,2015_04
-80.796,46.632,SUDBURY CLIMATE,6068145,ON,3.2,1,NA,18.3,1,-13,0,NA,NA,NA,69,1,NA,NA,6,NA,NA,NA,428.9,0,2015_04
-80.798,46.626,SUDBURY A,6068153,ON,3.3,0,NA,18.7,0,-12.3,0,22.1,1,NA,80.3,0,NA,NA,8,NA,NA,NA,440.4,0,2015_04
-82.124,49.383,BONNER LAKE,6070QK6,ON,0.2,0,NA,18,0,-24.5,0,18.2,0,NA,67.4,0,NA,0,8,NA,NA,NA,533.7,0,2015_04
-79.849,47.695,EARLTON A,6072223,ON,1.7,0,NA,19.6,0,-19.1,0,NA,NA,NA,56.7,0,NA,NA,7,NA,NA,NA,487.6,0,2015_04
-79.849,47.695,EARLTON CLIMATE,6072230,ON,1.8,0,NA,19.6,0,-18.9,0,NA,NA,NA,65,0,NA,NA,7,NA,NA,NA,486.7,0,2015_04
-82.468,49.412,KAPUSKASING A,6073976,ON,0.4,0,NA,18.2,0,-21.9,0,6.2,0,NA,80.8,0,NA,0,8,NA,NA,NA,526.9,0,2015_04
-82.444,49.406,KAPUSKASING CDA ON,6073980,ON,-0.9,11,NA,16.3,11,-23.2,10,NA,NA,NA,27.8,11,NA,NA,4,NA,NA,NA,358.4,0,2015_04
-80,48.15,KIRKLAND LAKE CS,6074211,ON,0.9,1,NA,18.4,1,-22.5,0,NA,NA,NA,65,1,NA,NA,10,NA,NA,NA,497.2,0,2015_04
-80.608,51.291,MOOSONEE,6075420,ON,-2.8,3,NA,16.5,3,-27,3,NA,NA,NA,29.2,3,NA,NA,4,NA,NA,NA,560.6,0,2015_04
-80.65,51.267,MOOSONEE UA,6075425,ON,-2.5,5,-0.7,18,5,-27,5,6.3,5,NA,14.7,5,NA,0,5,NA,NA,NA,511.3,0,2015_04
-80.618,51.292,MOOSONEE RCS,6075435,ON,-1.9,0,NA,17.8,0,-27,0,NA,NA,NA,64.1,0,NA,NA,13,NA,NA,NA,596.6,0,2015_04
-84.164,49.747,NAGAGAMI (AUT),6075543,ON,-0.2,0,NA,18.5,0,-24.2,0,NA,NA,NA,58.6,0,NA,NA,11,NA,NA,NA,545.8,0,2015_04
-85.901,51.659,OGOKI POST A,6075786,ON,-1.1,2,NA,15.9,2,-21.8,0,NA,NA,NA,24.7,2,NA,NA,9,NA,NA,NA,536.1,0,2015_04
-81.39,48.557,TIMMINS CLIMATE,6078282,ON,0.5,1,NA,18.1,1,-23.8,0,NA,NA,NA,35.4,1,NA,13,6,NA,NA,NA,506.3,0,2015_04
-81.377,48.571,TIMMINS A,6078286,ON,0.9,0,NA,18.7,0,-22.8,0,0,28,NA,NA,NA,NA,NA,NA,NA,NA,NA,513.4,0,2015_04
-78.267,45.533,ALGONQUIN PARK EAST GATE,6080192,ON,3.5,1,NA,20.8,1,-17,0,NA,NA,NA,55.7,2,NA,NA,12,NA,NA,NA,421,0,2015_04
-79.424,46.364,NORTH BAY A,6085680,ON,3.4,0,NA,19.1,0,-16.5,0,NA,NA,NA,74.2,0,NA,NA,8,NA,NA,NA,438.8,0,2015_04
-82.567,45.883,GORE BAY CLIMATE,6092920,ON,4.1,1,NA,17.7,1,-7.4,0,NA,NA,NA,46.8,1,NA,NA,6,NA,NA,NA,404.4,0,2015_04
-82.95,45.633,GREAT DUCK ISLAND (AUT),6093005,ON,3.4,0,NA,13.3,0,-6,0,NA,NA,NA,NA,NA,NA,NA,NA,NA,NA,NA,439.5,0,2015_04
-81.982,45.69,SANDFIELD,6097426,ON,4.4,0,NA,19,0,-8,0,1,0,NA,79.7,0,NA,0,7,NA,NA,NA,408.2,0,2015_04
-76.113,45.186,APPLETON,6100285,ON,6.5,3,NA,22,3,-8.5,3,2.4,3,NA,51,3,NA,0,8,NA,NA,NA,311.8,0,2015_04
-75.748,44.635,BROCKVILLE CLIMATE,6100970,ON,6.5,0,NA,24.1,0,-7.1,0,NA,NA,NA,69.1,2,NA,NA,9,NA,NA,NA,344,0,2015_04
-75.667,44.6,BROCKVILLE PCC,6100971,ON,6.9,1,0.3,24,1,-5,1,6.7,1,NA,82.8,1,NA,0,10,NA,NA,NA,320.8,0,2015_04
-77.367,46.05,CHALK RIVER AECL,6101335,ON,6.4,9,0.9,23,9,-9.5,9,4.8,9,NA,49.4,9,NA,0,6,NA,NA,NA,244.6,0,2015_04
-74.749,45.016,CORNWALL,6101874,ON,6.9,0,-0.2,25.5,0,-8,0,4,0,39.0,58.7,0,72,0,9,NA,NA,NA,333.9,0,2015_04
-76.253,45.032,DRUMMOND CENTRE,6102J13,ON,6.3,0,0.3,22.5,0,-10,0,6.4,0,58.0,63.8,0,99,0,11,NA,NA,NA,351.7,0,2015_04
-76.69,44.428,HARTINGTON IHD,6103367,ON,6.9,0,0.6,22,0,-7,0,5,0,68.0,78.6,0,100,0,8,NA,NA,NA,333,0,2015_04
-75.633,45,KEMPTVILLE CS,6104027,ON,6.1,1,NA,24,1,-8.3,0,NA,NA,NA,54.7,1,NA,NA,10,NA,NA,NA,345.8,0,2015_04
-76.599,44.223,KINGSTON CLIMATE,6104142,ON,5.5,0,NA,19,0,-6.9,0,NA,NA,NA,64.8,0,NA,NA,8,NA,NA,NA,374.8,0,2015_04
-76.784,45.054,OMPAH-SEITZ,6105762,ON,5.6,0,NA,22,0,-9,0,13.5,0,NA,67.1,0,NA,0,13,NA,NA,NA,370.7,0,2015_04
-75.717,45.383,OTTAWA CDA,6105976,ON,6.5,0,0.1,22.3,0,-7.3,0,4,0,56.0,61.5,0,87,0,8,NA,NA,NA,344.5,0,2015_04
-75.717,45.383,OTTAWA CDA RCS,6105978,ON,6.1,1,NA,22.3,1,-7.5,0,NA,NA,NA,64.3,1,NA,NA,9,NA,NA,NA,345.2,0,2015_04
-75.667,45.317,OTTAWA INTL A,6106001,ON,6.2,0,NA,23.7,0,-7.4,0,8,0,NA,64.2,0,NA,NA,10,NA,NA,NA,352.6,0,2015_04
-77.252,45.86,PEMBROKE CLIMATE,6106367,ON,5.1,1,NA,22.9,1,-9.6,0,NA,NA,NA,39.8,1,NA,NA,8,NA,NA,NA,373.4,0,2015_04
-77.317,45.95,PETAWAWA AWOS 2,6106396,ON,5,1,NA,22.9,1,-9,1,NA,NA,NA,43.5,1,NA,NA,7,NA,NA,NA,376.1,0,2015_04
-75.064,45.287,ST. ALBERT,6107276,ON,5.8,0,-0.1,23.5,0,-9,0,10,0,90.0,73,0,88,0,9,NA,NA,NA,367.4,0,2015_04
-77.25,45.883,PETAWAWA HOFFMAN,610FC98,ON,5.7,0,NA,23,0,-9.5,0,4.2,0,NA,48.2,0,NA,0,11,NA,NA,NA,369.4,0,2015_04
-80.777,44.67,BALACLAVA,6110470,ON,NA,NA,NA,NA,NA,NA,NA,0,0,NA,51.6,0,NA,0,7,NA,NA,NA,NA,NA,2015_04
-79.319,44.267,BALDWIN,6110480,ON,6.5,0,NA,22,0,-7.5,0,0,1,NA,46.2,0,NA,0,9,NA,NA,NA,345.8,0,2015_04
-79.736,44.385,BARRIE LANDFILL,6110556,ON,7.8,11,NA,25.5,6,-11,6,5,6,NA,76.4,6,NA,0,12,NA,NA,NA,193,0,2015_04
-79.403,45.14,BEATRICE CLIMATE,6110607,ON,3.8,1,NA,21,1,-12.3,0,NA,NA,NA,89.1,1,NA,NA,9,NA,NA,NA,411.6,0,2015_04
-79.539,44.631,COLDWATER WARMINSTER,6111769,ON,6.2,0,NA,20,0,-7.5,0,2.4,0,NA,69.2,0,NA,0,9,NA,NA,NA,355.1,0,2015_04
-80.217,44.5,COLLINGWOOD,6111792,ON,5.8,0,NA,23.7,0,-6,0,NA,NA,NA,36.2,0,NA,NA,9,NA,NA,NA,366.8,0,2015_04
-79.217,44.547,LAGOON CITY,6114295,ON,5.1,1,NA,18.3,1,-6.6,1,NA,NA,NA,NA,NA,NA,NA,NA,NA,NA,NA,374.5,0,2015_04
-80.712,44.269,MARKDALE,6114979,ON,4.6,5,NA,20.5,5,-10.5,5,13.4,5,NA,62.5,5,NA,0,9,NA,NA,NA,333.8,0,2015_04
-79.875,44.758,MIDLAND WATER POLLUTION CONTROL PLANT,6115127,ON,5.9,19,0.1,22,19,-2,19,0,19,NA,19.3,19,NA,NA,5,NA,NA,NA,133,0,2015_04
-79.303,44.975,MUSKOKA,6115529,ON,4.5,0,NA,21.3,0,-11,0,NA,NA,NA,82.9,0,NA,NA,8,NA,NA,NA,404.5,0,2015_04
-79.521,46.1,NIPISSING,6115669,ON,NA,NA,NA,NA,NA,NA,NA,3,4,NA,44,4,NA,0,6,NA,NA,NA,NA,NA,2015_04
-80.044,45.344,PARRY SOUND CCG,6116257,ON,4.5,0,NA,18.8,0,-8,0,NA,NA,NA,35.9,14,NA,NA,2,NA,NA,NA,404.8,0,2015_04
-79.27,45.354,RAVENSCLIFFE,6116901,ON,4.7,0,NA,22.5,0,-12.5,0,5,0,NA,94.6,0,NA,0,10,NA,NA,NA,400,0,2015_04
-79.633,44.399,SHANTY BAY,6117684,ON,6.2,0,0.4,20,0,-7,0,8.1,0,71.0,61.1,0,94,0,9,NA,NA,NA,354.9,0,2015_04
-79.55,44.483,BARRIE-ORO,6117700,ON,5.6,1,NA,20.6,1,-7.9,0,NA,NA,NA,70.2,1,NA,NA,8,NA,NA,NA,359.8,0,2015_04
-79.488,45.425,SPRUCEDALE,6117981,ON,NA,NA,NA,NA,NA,NA,NA,9,1,NA,187.4,1,NA,0,11,NA,NA,NA,NA,NA,2015_04
-80.468,44.551,THORNBURY 3,6118240,ON,NA,NA,NA,NA,NA,NA,NA,0,0,NA,53.4,0,NA,0,10,NA,NA,NA,NA,NA,2015_04
-79.161,44.263,UDORA,6119055,ON,6.5,0,0.7,21.5,0,-7.5,0,0,0,0.0,48.6,0,72,0,9,NA,NA,NA,346.3,0,2015_04
-81.109,44.744,WIARTON A,6119499,ON,4.8,0,NA,20.4,0,-7.8,0,0.4,0,NA,51.7,0,NA,NA,8,NA,NA,NA,395.1,0,2015_04
-80.367,45.033,WESTERN ISLAND (AUT),6119M51,ON,2.9,20,NA,13.5,20,-1.9,20,NA,NA,NA,NA,NA,NA,NA,NA,NA,NA,NA,150.6,0,2015_04
-79.912,44.272,BORDEN AWOS,611B002,ON,5,0,NA,23.8,0,-9.6,0,NA,NA,NA,32.5,2,NA,NA,8,NA,NA,NA,389.5,0,2015_04
