Long,Lat,Stn_Name,Clim_ID,Prov_or_Ter,Tm,DwTm,D,Tx,DwTx,Tn,DwTn,S,DwS,S%N,P,DwP,P%N,S_G,Pd,BS,DwBS,BS%,HDD,CDD,YYYY_MM
-123.742,48.935,CHEMAINUS,1011500,BC,7.1,0,NA,14.5,0,-0.5,0,8.9,0,NA,195.7,0,NA,0,17,NA,NA,NA,337,0,2014_03
-124.133,48.824,COWICHAN LAKE FORESTRY,1012040,BC,5.8,0,-0.1,14.5,0,-3.5,0,2,0,19,321.3,0,143,0,22,NA,NA,NA,379.2,0,2014_03
-124.052,48.829,LAKE COWICHAN,1012055,BC,6.2,15,0,15,11,-2.5,11,0.8,11,NA,260.6,11,NA,NA,16,NA,NA,NA,189.4,0,2014_03
-123.226,48.425,DISCOVERY ISLAND,1012475,BC,NA,NA,NA,12.4,0,NA,NA,NA,NA,NA,NA,NA,NA,NA,NA,NA,NA,NA,NA,NA,2014_03
-123.728,48.735,DUNCAN KELVIN CREEK,1012573,BC,6,2,-0.3,14.5,2,-2,2,5,2,NA,164.8,2,NA,0,15,NA,NA,NA,348.1,0,2014_03
-123.439,48.432,ESQUIMALT HARBOUR,1012710,BC,7.6,1,NA,14,1,1,0,NA,NA,NA,NA,NA,NA,NA,NA,NA,NA,NA,312.8,0,2014_03
-123.573,48.985,GALIANO NORTH,10130MN,BC,7.3,3,NA,13.5,3,0,3,4.5,3,NA,128.5,3,NA,0,15,NA,NA,NA,299.1,0,2014_03
-123.53,48.575,MALAHAT,1014820,BC,5.4,0,NA,12.1,0,-2.3,0,NA,NA,NA,168.4,0,NA,NA,19,NA,NA,NA,389.3,0,2014_03
-123.561,48.374,METCHOSIN,1015105,BC,NA,NA,NA,NA,NA,NA,NA,0,1,NA,174.8,1,NA,NA,16,NA,NA,NA,NA,NA,2014_03
-123.718,48.824,NORTH COWICHAN,1015628,BC,NA,NA,NA,NA,NA,NA,NA,0,14,NA,91,14,NA,0,10,NA,NA,NA,NA,NA,2014_03
-123.719,48.824,NORTH COWICHAN,1015630,BC,6.5,0,NA,14.9,0,-3.8,0,NA,NA,NA,150,0,NA,NA,19,NA,NA,NA,357.5,0,2014_03
-123.287,48.764,NORTH PENDER ISLAND,1015638,BC,7.3,1,NA,15,1,-0.5,1,1.5,1,NA,123.3,1,NA,0,15,NA,NA,NA,320.1,0,2014_03
-123.531,48.298,RACE ROCKS,1016640,BC,7.8,0,NA,12.7,0,1,0,NA,NA,NA,NA,NA,NA,NA,NA,NA,NA,NA,317.4,0,2014_03
-123.419,48.622,SAANICHTON CDA,1016940,BC,7,2,0,14,1,-0.5,2,0,1,NA,105.8,1,NA,0,16,NA,NA,NA,317.6,0,2014_03
-123.546,48.888,SALTSPRING ST MARY'S L,1016995,BC,6.9,1,0,13,1,-1,1,6,1,NA,131.8,1,NA,0,16,NA,NA,NA,332,0,2014_03
-123.427,48.598,SAANICHTON MT NEWTON,1016RM0,BC,NA,NA,NA,NA,NA,NA,NA,0,21,NA,113.6,21,NA,NA,10,NA,NA,NA,NA,NA,2014_03
-123.128,48.775,SATURNA CAPMON,1017098,BC,6.5,1,-0.1,13.4,1,-2.1,0,4.8,0,71,143.8,0,221,0,17,NA,NA,NA,345.2,0,2014_03
-123.128,48.775,SATURNA CAPMON CS,1017099,BC,6.1,1,NA,13.2,1,-2.2,0,NA,NA,NA,133.8,3,NA,NA,17,NA,NA,NA,355.6,0,2014_03
-123.045,48.784,SATURNA ISLAND CS,1017101,BC,7.5,1,NA,13.3,1,-0.1,0,NA,NA,NA,123.2,1,NA,NA,16,NA,NA,NA,313.7,0,2014_03
-123.626,48.647,SHAWNIGAN LAKE,1017230,BC,6.1,0,0,14,0,-3,0,8,0,119,178.4,0,150,0,17,NA,NA,NA,368.1,0,2014_03
-123.921,48.377,SHERINGHAM POINT,1017254,BC,7.6,0,NA,13.3,0,2.5,0,NA,NA,NA,233.2,0,NA,NA,18,NA,NA,NA,322.5,0,2014_03
-123.305,48.457,VICTORIA UNIVERSITY CS,1018598,BC,7.4,0,NA,14.6,0,-0.3,0,NA,NA,NA,72.6,15,NA,NA,10,NA,NA,NA,329.7,0,2014_03
-123.443,48.476,VICTORIA FRANCIS PARK,1018605,BC,NA,NA,NA,NA,NA,NA,NA,0,0,0,154.4,0,190,0,19,NA,NA,NA,NA,NA,2014_03
-123.325,48.413,VICTORIA GONZALES CS,1018611,BC,7.6,0,NA,13.1,0,0.9,0,NA,NA,NA,75.8,12,NA,NA,9,NA,NA,NA,322.4,0,2014_03
-123.501,48.538,VICTORIA HIGHLANDS NORTH,1018618,BC,5.7,17,NA,13.7,15,-2.2,15,0,14,NA,111.2,14,NA,0,12,NA,NA,NA,172,0,2014_03
-123.426,48.647,VICTORIA INTL A,1018621,BC,6.6,0,NA,13.8,0,-1.4,0,3.4,0,NA,129.1,0,NA,NA,16,NA,NA,NA,352.4,0,2014_03
-123.539,48.34,WILLIAM HEAD,1018935,BC,8,1,0.4,15,1,1,1,0,1,NA,186.2,1,NA,0,16,NA,NA,NA,301.4,0,2014_03
-124.16,49.35,BALLENAS ISLAND,1020590,BC,6.9,1,NA,10.8,1,1.2,0,NA,NA,NA,74.6,9,NA,NA,13,NA,NA,NA,332.8,0,2014_03
-125.095,49.803,BLACK CREEK SE,1020881,BC,NA,NA,NA,NA,NA,NA,NA,0,30,NA,0,30,NA,0,0,NA,NA,NA,NA,NA,2014_03
-125.273,49.952,CAMPBELL RIVER A,1021261,BC,4.4,1,-0.8,13.6,1,-5.2,1,16.2,1,NA,163.8,1,NA,0,20,NA,NA,NA,408.8,0,2014_03
-125.208,49.945,CAMPBELL RIVER SURFSIDE,1021266,BC,NA,NA,NA,NA,NA,NA,NA,3,0,40,155.4,0,122,0,19,NA,NA,NA,NA,NA,2014_03
-125.195,49.998,CAPE MUDGE,1021330,BC,6.1,0,-0.2,13.5,0,-1,0,4,0,63,160.2,0,117,0,18,NA,NA,NA,367.4,0,2014_03
-124.683,49.472,CHROME ISLAND,1021500,BC,6.9,1,NA,15,1,0.5,1,1,1,NA,168.6,1,NA,0,19,NA,NA,NA,332.5,0,2014_03
-124.9,49.717,COMOX A,1021830,BC,5.9,0,-0.2,13.9,0,-1.4,0,0,0,0,149.2,0,141,0,13,NA,NA,NA,375.8,0,2014_03
-124.999,49.763,COURTENAY GRANTHAM,1021988,BC,5.3,7,NA,13,7,-1.5,7,0,7,NA,153.4,7,NA,0,14,NA,NA,NA,304.3,0,2014_03
-125.033,49.686,COURTENAY PUNTLEDGE,1021989,BC,5.6,4,NA,15,4,-3,3,0,4,NA,177.6,4,NA,0,15,NA,NA,NA,335.2,0,2014_03
-123.811,49.209,ENTRANCE ISLAND,1022689,BC,7.1,0,NA,12.6,0,0.9,0,NA,NA,NA,68,8,NA,NA,9,NA,NA,NA,336.6,0,2014_03
-125.993,50.454,FANNY ISLAND,1022795,BC,6.2,1,NA,13.7,1,0.2,1,NA,NA,NA,195.8,1,NA,NA,15,NA,NA,NA,354.7,0,2014_03
-123.734,49.154,GABRIOLA ISLAND,1023042,BC,6.3,0,0.2,14,0,-2,0,10,0,313,144.8,0,157,0,18,NA,NA,NA,362,0,2014_03
-125.203,50.099,HERIOT BAY SE,1023462,BC,6.1,6,NA,13,6,-2,6,0,6,NA,186.6,6,NA,0,18,NA,NA,NA,296.9,0,2014_03
-124.512,49.353,LITTLE QUALICUM HATCHERY,1024638,BC,5.5,0,0,14,0,-3,0,0,0,0,154.1,0,156,0,20,NA,NA,NA,386.9,0,2014_03
-124.794,49.471,MUD BAY,1025240,BC,6.1,1,0.2,13,1,-1,0,0,0,0,220.4,0,138,0,20,NA,NA,NA,356.5,0,2014_03
-125.606,49.576,MYRA CREEK,1025254,BC,3.8,1,NA,14,0,-2,1,8,0,NA,340.8,0,NA,0,19,NA,NA,NA,425.4,0,2014_03
-123.87,49.054,NANAIMO A,1025370,BC,6,0,-0.3,14.1,0,-4.3,0,10.8,0,174,152.2,0,135,0,17,NA,NA,NA,372.2,0,2014_03
-123.988,49.199,NANAIMO CITY YARD,10253G0,BC,NA,NA,NA,NA,NA,NA,NA,0,0,0,160.3,0,140,0,20,NA,NA,NA,NA,NA,2014_03
-127.367,50.681,PORT HARDY A,1026271,BC,5.3,0,NA,12.7,0,-4.2,0,0.4,0,NA,186,0,NA,NA,24,NA,NA,NA,394.2,0,2014_03
-124.394,49.337,QUALICUM BEACH AIRPORT,1026562,BC,5.8,0,NA,13.6,0,-2,0,NA,NA,NA,99.8,0,NA,NA,11,NA,NA,NA,378.7,0,2014_03
-124.617,49.394,QUALICUM R FISH RESEARCH,1026565,BC,5.5,9,-0.4,12,9,-2,9,0,9,NA,138.6,9,NA,NA,15,NA,NA,NA,274,0,2014_03
-125.304,50.016,QUINSAM RIVER HATCHERY,1026639,BC,5.9,6,0.2,15.5,6,-3.5,1,7.5,1,NA,200.5,1,NA,0,21,NA,NA,NA,301.4,0,2014_03
-124.435,49.487,SISTERS ISLAND,1027403,BC,7.3,0,NA,12.3,0,1.5,0,NA,NA,NA,NA,NA,NA,NA,NA,NA,NA,NA,330.2,0,2014_03
-123.809,49.209,ENTRANCE ISLAND,102BFHH,BC,7.1,0,NA,12,0,1.5,0,0,0,NA,129,0,NA,0,19,NA,NA,NA,337.5,0,2014_03
-124.982,49.337,ALBERNI ROBERTSON CREEK,1030230,BC,5.8,0,0.2,14.5,0,-1,0,1,0,12,310.7,0,139,0,22,NA,NA,NA,376.9,0,2014_03
-125.216,48.786,CAPE BEALE LIGHT,1031316,BC,7.5,2,0.6,12.5,2,2,2,0,2,NA,265.2,2,NA,0,18,NA,NA,NA,303.5,0,2014_03
-128.427,50.782,CAPE SCOTT,1031353,BC,6.4,0,0.2,14,0,0,0,0,0,0,291.8,0,122,0,25,NA,NA,NA,359.9,0,2014_03
-124.751,48.612,CARMANAH POINT,1031402,BC,NA,NA,NA,NA,NA,NA,NA,0,0,0,323.8,0,113,0,22,NA,NA,NA,NA,NA,2014_03
-126.418,49.8,CONUMA RIVER HATCHERY,1031844,BC,NA,NA,NA,NA,NA,NA,NA,0,0,0,431.5,0,131,0,24,NA,NA,NA,NA,NA,2014_03
-126.543,49.383,ESTEVAN POINT,1032730,BC,7.1,0,0.3,13,0,0,0,0,0,0,360.8,0,119,0,25,NA,NA,NA,337.4,0,2014_03
-126.543,49.383,ESTEVAN POINT CS,1032731,BC,7.1,0,NA,12.6,0,0,0,NA,NA,NA,NA,NA,NA,NA,NA,NA,NA,NA,338.6,0,2014_03
-126.055,49.779,GOLD RIVER TOWNSITE,1033232,BC,5.9,10,0.3,15,10,-1,10,0,10,NA,286.4,10,NA,0,15,NA,NA,NA,254.9,0,2014_03
-125.923,49.111,LENNARD ISLAND,1034600,BC,7.4,0,NA,15,0,1.5,0,0,0,0,368.1,0,116,0,21,NA,NA,NA,329.2,0,2014_03
-124.655,48.859,NITINAT RIVER HATCHERY,1035612,BC,6.8,0,0.4,17.5,0,-1.5,0,0,0,0,526.8,0,136,0,21,NA,NA,NA,348.7,0,2014_03
-126.617,49.6,NOOTKA LIGHTSTATION,1035614,BC,7.2,0,0.1,18.5,0,1,0,1,0,57,374.8,0,119,0,26,NA,NA,NA,335.3,0,2014_03
-125.097,48.723,PACHENA POINT,1035940,BC,7.4,0,0.5,13,0,0,0,0,0,0,338.2,0,115,0,21,NA,NA,NA,329.9,0,2014_03
-124.752,49.202,PORT ALBERNI COX LAKE,1036208,BC,6.3,2,0.5,14,2,-1,2,8,2,NA,280.6,2,NA,0,19,NA,NA,NA,339.3,0,2014_03
-127.455,50.386,PORT ALICE,1036240,BC,7,0,0.6,16.5,0,-0.5,0,0,0,0,427.6,0,133,0,26,NA,NA,NA,341.5,0,2014_03
-127.653,50.534,QUATSINO,1036570,BC,6.6,17,0.2,13.5,17,-2,17,0,17,NA,145.1,17,NA,0,12,NA,NA,NA,160.2,0,2014_03
-128.033,50.441,QUATSINO LIGHTSTATION,1036572,BC,7.2,0,0.3,15,0,0,0,4,0,276,254.6,0,107,0,25,NA,NA,NA,333.4,0,2014_03
-124.927,49.317,PORT ALBERNI (AUT),1036B06,BC,5.3,2,NA,13.8,2,-3.7,2,NA,NA,NA,269.4,2,NA,NA,16,NA,NA,NA,367.4,0,2014_03
-128.908,50.821,SARTINE ISLAND (AUT),1037090,BC,6,0,NA,10.6,0,-1.4,0,NA,NA,NA,166.2,1,NA,NA,18,NA,NA,NA,370.9,0,2014_03
-127.94,50.112,SOLANDER ISLAND (AUT),1037553,BC,6.5,0,NA,12.9,0,1,0,NA,NA,NA,102.8,2,NA,NA,18,NA,NA,NA,357.4,0,2014_03
-126.654,49.932,TAHSIS VILLAGE NORTH,1037899,BC,6.6,12,NA,16.5,12,-1,12,0,12,NA,197.2,12,NA,0,16,NA,NA,NA,216.4,0,2014_03
-125.773,49.082,TOFINO A,1038205,BC,7.1,4,0.7,17.8,4,-1,4,0,4,NA,342.8,4,NA,0,18,NA,NA,NA,293.4,0,2014_03
-125.527,48.945,UCLUELET KENNEDY CAMP,1038332,BC,7.2,0,0.6,16.5,0,-1.5,0,0,0,0,404,0,125,0,19,NA,NA,NA,333.7,0,2014_03
-126.779,50.053,ZEBALLOS MURAUDE CREEK,1039035,BC,6.3,7,NA,18,7,0,7,0,7,NA,374.6,7,NA,0,21,NA,NA,NA,282,0,2014_03
-123.42,49.365,BOWEN ISLAND BOWEN BAY,104090R,BC,NA,NA,NA,NA,NA,NA,NA,0,11,NA,202.9,11,NA,0,18,NA,NA,NA,NA,NA,2014_03
-123.541,49.386,GIBSONS GOWER POINT,1043152,BC,7,0,-0.1,12.5,0,0.5,0,1.2,0,36,191.8,0,158,0,21,NA,NA,NA,342,0,2014_03
-123.913,49.468,MERRY ISLAND LIGHTSTATION,1045100,BC,7.6,0,0.3,12,0,2.5,0,0,0,0,129,0,143,0,18,NA,NA,NA,323.7,0,2014_03
-123.299,49.488,HOWE SOUND - PAM ROCKS,10459NN,BC,7.2,0,NA,14.2,0,-1,0,NA,NA,NA,145.2,11,NA,NA,13,NA,NA,NA,334.3,0,2014_03
-124.032,49.634,PENDER HARBOUR,1046115,BC,NA,NA,NA,NA,NA,NA,NA,0,0,NA,144.8,0,NA,0,20,NA,NA,NA,NA,NA,2014_03
-123.496,49.526,PORT MELLON,1046332,BC,6.3,0,NA,15.1,0,-0.8,0,NA,NA,NA,364.5,5,NA,NA,21,NA,NA,NA,362,0,2014_03
-124.5,49.834,POWELL RIVER A,1046391,BC,5.9,0,0,13.6,0,-3.2,0,1.4,0,21,123.6,0,112,0,21,NA,NA,NA,375.8,0,2014_03
-124.497,49.835,POWELL RIVER,1046392,BC,5.6,0,NA,12.9,0,-2.8,0,NA,NA,NA,142.9,4,NA,0,17,NA,NA,NA,383.7,0,2014_03
-123.715,49.458,SECHELT AUT,1047172,BC,6.2,0,NA,13.1,0,-2,0,NA,NA,NA,150.2,1,NA,NA,19,NA,NA,NA,364.9,0,2014_03
-123.161,49.783,SQUAMISH AIRPORT,10476F0,BC,5.6,1,NA,17,1,-3.2,0,NA,NA,NA,323,4,NA,NA,17,NA,NA,NA,373.3,0,2014_03
-122.955,50.129,WHISTLER,1048898,BC,1.5,0,-0.9,13.6,0,-8.2,0,88.4,0,186,232.6,0,238,50,16,NA,NA,NA,511.1,0,2014_03
-131.016,51.936,CAPE ST JAMES,1051351,BC,5.3,0,NA,11.1,0,-3.5,0,NA,NA,NA,163.3,0,NA,NA,22,NA,NA,NA,393.4,0,2014_03
-132.772,53.316,KINDAKUN ROCKS (AUT),1054222,BC,5.4,0,NA,12.6,0,-3.8,0,NA,NA,NA,102.4,1,NA,NA,16,NA,NA,NA,391.2,0,2014_03
-133.058,54.255,LANGARA,1054500,BC,3.7,0,-1,11,0,-5.5,0,0,0,0,173.8,0,116,0,21,NA,NA,NA,441.8,0,2014_03
-133.058,54.255,LANGARA ISLAND RCS,1054503,BC,3.9,0,NA,10.9,0,-5.5,0,NA,NA,NA,164.1,1,NA,NA,20,NA,NA,NA,437.1,0,2014_03
-132.167,54,MASSET A,1054925,BC,3.7,0,NA,11,0,-10,0,2.6,0,NA,186.2,0,NA,0,22,NA,NA,NA,442.4,0,2014_03
-131.661,54.159,ROSE SPIT (AUT),1056869,BC,3.6,0,NA,10.6,0,-6.5,0,NA,NA,NA,304.7,1,NA,NA,23,NA,NA,NA,445.6,0,2014_03
-131.813,53.254,SANDSPIT A,1057050,BC,4.1,0,-0.8,12,0,-5,0,39.6,0,760,219.2,0,188,0,23,NA,NA,NA,430.5,0,2014_03
-131.813,53.249,SANDSPIT AIRPORT AUTO,1057051,BC,4.4,2,NA,12.1,2,-5.2,2,NA,NA,NA,NA,NA,NA,NA,NA,NA,NA,NA,393.5,0,2014_03
-131.814,53.254,SANDSPIT,1057052,BC,4,6,NA,11.7,6,-4.5,5,NA,NA,NA,89.6,6,NA,NA,15,NA,NA,NA,351,0,2014_03
-132.299,53.764,SEWALL MASSET INLET,105PA91,BC,3.4,3,NA,13,3,-10,3,0,3,NA,162.6,3,NA,0,20,NA,NA,NA,409.8,0,2014_03
-127.864,51.604,ADDENBROKE ISLAND,1060080,BC,5.6,0,-0.5,12,0,-2,0,2,0,34,367.8,0,140,0,25,NA,NA,NA,384.4,0,2014_03
-128.157,52.185,BELLA BELLA,1060815,BC,3.8,0,NA,14.4,0,-8,0,NA,NA,NA,74.8,1,NA,NA,6,NA,NA,NA,439.5,0,2014_03
-126.596,52.388,BELLA COOLA A,1060841,BC,2.8,0,-2.2,15,0,-10.5,0,7.2,0,126,94.1,0,123,0,14,NA,NA,NA,471.3,0,2014_03
-128.524,52.643,BOAT BLUFF,1060901,BC,4.8,0,-0.5,14.5,0,-6,0,13.8,0,100,404.4,0,94,0,25,NA,NA,NA,409.9,0,2014_03
-130.638,53.493,BONILLA ISLAND,1060902,BC,4.4,2,-1.4,10.5,2,-6,2,0.2,2,NA,130.6,2,NA,0,19,NA,NA,NA,393.6,0,2014_03
-130.639,53.493,BONILLA ISLAND (AUT),1060R0K,BC,4.6,0,NA,11.6,0,-5.3,0,NA,NA,NA,74.4,2,NA,NA,16,NA,NA,NA,416.8,0,2014_03
-127.471,52.187,CATHEDRAL POINT (AUT),1061458,BC,5.1,6,NA,10.8,0,1.1,6,NA,NA,NA,4,28,NA,NA,1,NA,NA,NA,323,0,2014_03
-131.602,53.03,CUMSHEWA ISLAND,1062251,BC,4.9,0,NA,11.7,0,-4.7,0,NA,NA,NA,NA,NA,NA,NA,NA,NA,NA,NA,405.7,0,2014_03
-128.112,52.185,DRYAD POINT,1062544,BC,5.1,0,-0.9,12,0,-4.5,0,6.4,0,175,203.6,0,97,0,27,NA,NA,NA,400.6,0,2014_03
-127.835,51.247,EGG ISLAND,1062646,BC,6.2,0,0,14.5,0,-1,0,7.2,0,282,257.8,0,117,0,26,NA,NA,NA,367.2,0,2014_03
-130.708,54.569,GREEN ISLAND,1063298,BC,3.9,0,-1.3,11,0,-6,0,0.4,0,9,138.6,0,73,0,16,NA,NA,NA,438.5,0,2014_03
-130.698,54.58,GREY ISLET (AUT),1063303,BC,3.8,0,NA,10.3,0,-5.9,0,NA,NA,NA,122.8,0,NA,NA,16,NA,NA,NA,441.2,0,2014_03
-127.632,50.94,HERBERT ISLAND (AUT),1063461,BC,6.7,2,NA,11.4,2,0.5,2,NA,NA,NA,92,2,NA,NA,16,NA,NA,NA,327.8,0,2014_03
-130.361,54.172,HOLLAND ROCK,1063496,BC,4.2,2,NA,10.4,2,-6.1,1,NA,NA,NA,NA,NA,NA,NA,NA,NA,NA,NA,401.1,0,2014_03
-128.407,52.27,IVORY ISLAND,1063690,BC,5.1,0,-0.6,13.5,0,-5,0,3.6,0,45,240.8,0,105,0,24,NA,NA,NA,399.5,0,2014_03
-127.943,53.563,KEMANO,1064020,BC,0.6,0,-2.6,14.5,0,-15,0,7,0,46,214.9,0,156,0,15,NA,NA,NA,538.3,0,2014_03
-128.634,54.054,KITIMAT TOWNSITE,1064320,BC,1.2,1,-2,15,1,-16,1,56,1,NA,191.8,1,NA,0,16,NA,NA,NA,504.9,0,2014_03
-128.705,54.01,KITIMAT 2,1064321,BC,0.6,14,-3.2,11,14,-23,5,48.9,5,NA,216.6,5,NA,NA,16,NA,NA,NA,295.1,0,2014_03
-130.609,54.296,LUCY ISLAND LIGHTSTATION,1064728,BC,4.5,0,NA,11.1,0,-5.3,0,NA,NA,NA,NA,NA,NA,NA,NA,NA,NA,NA,419.5,0,2014_03
-130.445,54.286,PRINCE RUPERT,1066482,BC,3.8,7,NA,12.2,2,-9.4,7,NA,NA,NA,83.2,11,NA,NA,11,NA,NA,NA,340.4,0,2014_03
-130.29,54.32,PRINCE RUPERT MONT CIRC,1066488,BC,NA,NA,NA,NA,NA,NA,NA,0.5,12,NA,243.8,12,NA,0,12,NA,NA,NA,NA,NA,2014_03
-129.985,55.936,STEWART A,1067742,BC,0.3,0,-1.6,10.5,0,-18,0,60.8,0,157,129.7,0,107,63,12,NA,NA,NA,549.8,0,2014_03
-128.625,54.502,TERRACE PCC,1068131,BC,1.5,0,-1.9,14,0,-15.5,0,37.8,0,399,109.8,0,154,0,11,NA,NA,NA,510.2,0,2014_03
-128.578,54.469,TERRACE A,1068134,BC,0.2,0,NA,12.2,0,-15,0,65.8,0,NA,142.9,0,NA,NA,13,NA,NA,NA,550.3,0,2014_03
-130.88,54.295,TRIPLE ISLAND,1068250,BC,4.6,0,NA,10,0,-5,0,0,0,NA,56.8,0,NA,0,15,NA,NA,NA,413.9,0,2014_03
-128.682,54.044,KITIMAT HATCHERY,106D289,BC,1.8,12,NA,14,12,-16.5,12,58,12,NA,173.5,12,NA,0,13,NA,NA,NA,307.4,0,2014_03
-126.668,54.396,HOUSTON,1073615,BC,-2.4,0,NA,10,0,-26,0,0,0,NA,0,0,NA,0,0,NA,NA,NA,631.6,0,2014_03
-129.03,55.238,NASS CAMP,1075384,BC,-0.4,0,-2,14.5,0,-23,0,31.8,0,194,53.2,0,106,9,11,NA,NA,NA,569.2,0,2014_03
-127.183,54.825,SMITHERS,1077499,BC,-3,1,NA,8.8,1,-27,1,NA,NA,NA,11.4,1,NA,NA,2,NA,NA,NA,629.8,0,2014_03
-127.183,54.825,SMITHERS A,1077500,BC,-3.1,1,-3.2,9.1,1,-27.8,1,9.6,1,NA,8.4,1,NA,0,2,NA,NA,NA,633.4,0,2014_03
-127.189,54.824,SMITHERS AIRPORT AUTO,1077501,BC,-3.2,0,NA,9,0,-28.6,0,NA,NA,NA,12.9,0,NA,7,3,NA,NA,NA,657.7,0,2014_03
-127.171,55.289,SUSKWA VALLEY,107G879,BC,-3.2,0,-3.6,8,0,-23,0,13.9,0,64,19.8,0,52,40,7,NA,NA,NA,658.3,0,2014_03
-125.997,53.772,OOTSA L SKINS L SPILLWAY,1085835,BC,-5.9,0,-3.6,7,0,-30,0,20.8,0,112,22.2,0,106,0,9,NA,NA,NA,739.5,0,2014_03
-125.997,53.772,OOTSA LAKESKINS LAKE CLIMATE,1085836,BC,-5.4,0,NA,6.6,0,-30.1,0,NA,NA,NA,23.2,0,NA,5,6,NA,NA,NA,725.8,0,2014_03
-122.734,50.306,PEMBERTON AIRPORT CS,1086082,BC,3.9,0,NA,15.7,0,-4.7,0,NA,NA,NA,108.7,0,NA,NA,15,NA,NA,NA,436.6,0,2014_03
-124.136,52.114,PUNTZI MOUNTAIN (AUT),1086558,BC,-5.2,0,NA,8.7,0,-34.2,0,NA,NA,NA,46,0,NA,10,20,NA,NA,NA,717.8,0,2014_03
-124.403,51.675,TATLAYOKO LAKE RCS,1088015,BC,-1.9,0,NA,10.4,0,-25.3,0,NA,NA,NA,33.8,0,NA,0,11,NA,NA,NA,618.1,0,2014_03
-121.515,53.069,BARKERVILLE,1090660,BC,-6.2,0,-3.5,6.5,0,-31.5,0,108,0,187,116.2,0,175,158,19,NA,NA,NA,750.5,0,2014_03
-125.959,54.383,BURNS LAKE DECKER LAKE,1091174,BC,-5.7,0,NA,9.4,0,-34.6,0,NA,NA,NA,11.8,0,NA,42,4,NA,NA,NA,733.4,0,2014_03
-120.7,53.6,CRESCENT SPUR,1092120,BC,-2.1,0,NA,13.5,0,-27.5,0,47,0,NA,73.2,0,NA,43,15,NA,NA,NA,622.3,0,2014_03
-124.286,54.455,FORT ST JAMES,1092970,BC,-6.5,14,-4.6,7,14,-32,14,4,14,NA,4,14,NA,37,2,NA,NA,NA,415.8,0,2014_03
-124.286,54.455,FORT ST JAMES AUTO,1092975,BC,-5.3,0,NA,8,0,-32.8,0,NA,NA,NA,11.4,0,NA,37,4,NA,NA,NA,722.1,0,2014_03
-122.699,53.531,HIXON,1093474,BC,-3.3,0,-4,10,0,-27.5,0,16.2,0,91,22.6,0,69,0,9,NA,NA,NA,658.9,0,2014_03
-121.364,52.363,HORSEFLY LAKE GRUHS LAKE,1093600,BC,-4.4,12,-4.7,11,12,-29,12,31.2,12,NA,43.8,12,NA,68,5,NA,NA,NA,424.9,0,2014_03
-122.374,52.38,MCLEESE LAKE FRASERVIEW,1095015,BC,-1.7,0,-3.9,13,0,-21,0,23.5,0,432,24.5,0,166,0,7,NA,NA,NA,609.3,0,2014_03
-122.286,52.531,MCLEESE LAKE GRANITE MT,1095018,BC,-5.6,2,NA,9,1,-24,1,44,6,NA,45.5,2,NA,82,9,NA,NA,NA,685.5,0,2014_03
-122.678,53.884,PRINCE GEORGE,1096439,BC,-4.4,0,NA,9.1,0,-28.4,0,NA,NA,NA,4.9,0,NA,NA,1,NA,NA,NA,693.3,0,2014_03
-122.672,53.889,PRINCE GEORGE AIRPORT AUTO,1096453,BC,-4.4,0,NA,9.2,0,-28.7,0,NA,NA,NA,8.5,0,NA,37,2,NA,NA,NA,695.3,0,2014_03
-122.768,53.88,PRINCE GEORGE STP,1096468,BC,-2,2,-2.8,12.5,2,-25,2,22.1,2,NA,24.2,2,NA,15,5,NA,NA,NA,580.5,0,2014_03
-122.51,53.026,QUESNEL,1096629,BC,-3.7,3,NA,10.5,3,-27.8,2,NA,NA,NA,18.2,3,NA,NA,5,NA,NA,NA,607.8,0,2014_03
-122.506,53.027,QUESNEL AIRPORT AUTO,1096631,BC,-3.6,0,NA,11.8,0,-28.3,0,NA,NA,NA,9.5,1,NA,29,3,NA,NA,NA,670.4,0,2014_03
-121.686,52.184,SPOKIN LAKE 4E,1097646,BC,-5,0,-3.8,8.5,0,-32,0,31.4,0,136,36.6,0,117,59,11,NA,NA,NA,714.2,0,2014_03
-122.054,52.183,WILLIAMS LAKE A,1098941,BC,-4,0,NA,9.8,0,-23.8,0,22.5,0,NA,18.5,0,NA,23,7,NA,NA,NA,681.4,0,2014_03
-124.017,54.033,VANDERHOOF,1098D90,BC,-3.1,6,-2.8,10.5,6,-26.5,6,2.4,6,NA,4.8,6,NA,0,4,NA,NA,NA,526.3,0,2014_03
-122.489,52.541,CASTLE ROCK 6 NORTH,109A4NG,BC,-1.9,7,NA,13.5,7,-23.5,7,22,1,NA,23,1,NA,NA,6,NA,NA,NA,478,0,2014_03
-121.404,51.705,108 MILE HOUSE ABEL LAKE,109E7R6,BC,-2.1,0,NA,11.5,0,-21.5,0,19,0,NA,21,0,NA,29,6,NA,NA,NA,624.4,0,2014_03
-122.36,49.025,ABBOTSFORD A,1100031,BC,6.9,0,NA,16.1,0,-2.8,0,6.2,0,NA,283.1,0,NA,NA,19,NA,NA,NA,343,0,2014_03
-121.76,49.243,AGASSIZ RCS,1100119,BC,6.8,0,-0.7,15.8,0,-3,0,NA,NA,NA,321.4,1,NA,NA,21,NA,NA,NA,346.9,0,2014_03
-121.76,49.243,AGASSIZ CDA,1100120,BC,6.8,4,-0.7,16,2,-3.5,2,25,0,432,306.1,0,198,0,20,NA,NA,NA,302.6,0,2014_03
-122.955,50.129,WHISTLER - NESTERS,1100875,BC,1.7,0,NA,10.4,0,-7.9,0,NA,NA,NA,153.8,0,NA,32,16,NA,NA,NA,505,0,2014_03
-122.936,50.102,BLACKCOMB BASE SLIDING CENTER,1100881,BC,0.6,0,NA,8.5,0,-11.6,0,NA,NA,NA,149.3,2,NA,93,15,NA,NA,NA,540.7,0,2014_03
-122.918,49.278,BURNABY SIMON FRASER U,1101158,BC,5.2,12,-1,15,12,-0.7,12,0.5,12,NA,242.2,12,NA,NA,15,NA,NA,NA,242.7,0,2014_03
-123.111,50.144,CALLAGHAN VALLEY,1101300,BC,0.8,0,NA,9.5,0,-11.8,0,NA,NA,NA,323,2,NA,141,15,NA,NA,NA,534.2,0,2014_03
-121.925,49.172,CHILLIWACK,1101530,BC,6.8,0,-0.6,16.5,0,-3,0,27,0,245,279.5,0,181,0,20,NA,NA,NA,348.5,0,2014_03
-122.866,49.269,COQUITLAM COMO LAKE AVE,1101889,BC,NA,NA,NA,NA,NA,NA,NA,3,0,73,279.6,0,165,0,22,NA,NA,NA,NA,NA,2014_03
-121.7,49.083,CHILLIWACK R HATCHERY,1101N65,BC,5.3,0,-0.6,16.5,0,-3,0,23,0,255,299.6,0,226,0,21,NA,NA,NA,392.5,0,2014_03
-123.002,49.126,DELTA BURNS BOG,1102415,BC,6.6,0,NA,16.1,0,-1.6,0,NA,NA,NA,104.4,9,NA,NA,13,NA,NA,NA,353.8,0,2014_03
-123.093,49.011,DELTA TSAWWASSEN BEACH,1102425,BC,7.9,0,0.2,14.5,0,-0.5,0,3.2,0,206,151.8,0,193,0,20,NA,NA,NA,311.7,0,2014_03
-122.551,49.144,FORT LANGLEY TELEGRAPH TRAIL,1102912,BC,6.9,0,NA,16.5,0,-2,0,5,0,NA,282.6,0,NA,0,21,NA,NA,NA,344.7,0,2014_03
-122.573,49.264,HANEY UBC RF ADMIN,1103332,BC,6.5,9,-0.1,16.5,3,-2,9,3,0,74,319.9,0,164,0,18,NA,NA,NA,253.6,0,2014_03
-121.58,49.357,LAIDLAW,1104488,BC,5.8,0,-1.3,16,0,-4,0,29,0,375,397.5,0,198,0,23,NA,NA,NA,377.2,0,2014_03
-122.507,49.211,MAPLE RIDGE KANAKA CREEK,1104R02,BC,6.2,0,-0.3,17.5,0,-2.5,0,12,0,186,310,0,178,0,22,NA,NA,NA,366.4,0,2014_03
-122.271,49.153,MISSION WEST ABBEY,1105192,BC,6,1,-0.9,15.5,1,-3,1,6,1,NA,295.4,1,NA,0,21,NA,NA,NA,359.4,0,2014_03
-123.078,49.182,RICHMOND OPERATIONS CENTRE,1105210,BC,NA,NA,NA,NA,NA,NA,NA,NA,NA,NA,166.5,0,NA,NA,18,NA,NA,NA,NA,NA,2014_03
-123.078,49.381,N VANC GROUSE MTN RESORT,1105658,BC,1.1,6,0.1,8,6,-5,6,35,6,NA,201.9,6,NA,NA,13,NA,NA,NA,423.2,0,2014_03
-123.115,49.315,N VANCOUVER WHARVES,1105669,BC,NA,NA,NA,NA,NA,NA,NA,0,3,NA,233.3,3,NA,0,20,NA,NA,NA,NA,NA,2014_03
-122.69,49.208,PITT MEADOWS CS,1106178,BC,6.6,0,NA,17,0,-1.7,0,NA,NA,NA,287.7,0,NA,NA,19,NA,NA,NA,352.4,0,2014_03
-123.265,49.33,POINT ATKINSON,1106200,BC,7.5,0,NA,15.1,0,0.5,0,NA,NA,NA,172.2,1,NA,NA,23,NA,NA,NA,325.5,0,2014_03
-123.087,49.179,RICHMOND DALLYN 2,1106764,BC,NA,NA,NA,NA,NA,NA,NA,2.6,0,NA,184.2,0,NA,0,21,NA,NA,NA,NA,NA,2014_03
-123.093,49.171,RICHMOND NATURE PARK,1106PF7,BC,7.4,1,0.1,15.5,1,-2,1,1,1,NA,184.2,1,NA,0,20,NA,NA,NA,318.4,0,2014_03
-123.303,49.106,SANDHEADS CS,1107010,BC,7.3,0,NA,13.9,0,-0.7,0,NA,NA,NA,NA,NA,NA,NA,NA,NA,NA,NA,333.2,0,2014_03
-122.11,49.113,SUMAS CANAL,1107785,BC,7.9,16,NA,16.5,10,-3,11,25,10,NA,285.8,10,NA,0,14,NA,NA,NA,152,0,2014_03
-123.187,49.183,VANCOUVER SEA ISLAND CCG,1108380,BC,7,0,NA,13.1,0,-1.6,0,NA,NA,NA,144.5,0,NA,NA,17,NA,NA,NA,340.4,0,2014_03
-123.184,49.195,VANCOUVER INTL A,1108395,BC,6.9,0,NA,12.6,0,-2,0,0.4,0,NA,160,0,NA,0,19,NA,NA,NA,344.4,0,2014_03
-123.122,49.295,VANCOUVER HARBOUR CS,1108446,BC,7.4,1,NA,13.7,1,0.8,0,NA,NA,NA,208.7,1,NA,NA,20,NA,NA,NA,317.8,0,2014_03
-123.193,49.347,WEST VANCOUVER AUT,1108824,BC,6.9,0,NA,14.9,0,-0.3,0,NA,NA,NA,257.9,0,NA,NA,20,NA,NA,NA,344.3,0,2014_03
-122.947,50.068,WHISTLER ROUNDHOUSE,1108906,BC,-4.4,0,NA,2,0,-17.5,0,269.2,0,NA,269.2,0,NA,293,23,NA,NA,NA,694.1,0,2014_03
-122.784,49.018,WHITE ROCK CAMPBELL SCIENTIFIC,1108910,BC,8,0,NA,18.4,0,-1.1,0,NA,NA,NA,144.8,14,NA,NA,13,NA,NA,NA,310.7,0,2014_03
-122.967,49.438,N VAN SEYMOUR HATCHERY,110N666,BC,5.2,3,-0.3,14.5,3,-1,3,1,3,NA,421.9,3,NA,0,19,NA,NA,NA,357.8,0,2014_03
-121.498,49.368,HOPE A,1113542,BC,6.1,1,NA,16.2,1,-3.8,0,NA,NA,NA,314.7,1,NA,NA,20,NA,NA,NA,356.7,0,2014_03
-121.493,49.37,HOPE AIRPORT,1113543,BC,5.8,0,NA,16.3,0,-4.4,0,NA,NA,NA,271.4,4,NA,NA,17,NA,NA,NA,378.3,0,2014_03
-121.233,49.267,HOPE SLIDE,1113581,BC,1.8,0,-0.7,11,0,-8,0,86,0,215,247.2,0,252,11,22,NA,NA,NA,502.3,0,2014_03
-121.934,50.684,LILLOOET,1114619,BC,4.1,1,NA,15,1,-9.5,0,NA,NA,NA,29.4,1,NA,NA,9,NA,NA,NA,418.4,0,2014_03
-121.582,50.224,LYTTON A,1114738,BC,4.6,0,NA,16.4,0,-7,0,NA,NA,NA,30.5,2,NA,NA,8,NA,NA,NA,415.7,0,2014_03
-121.608,50.257,LYTTON 2,1114745,BC,NA,NA,NA,NA,NA,NA,NA,9.8,23,NA,23.3,23,NA,NA,5,NA,NA,NA,NA,NA,2014_03
-121.582,50.224,LYTTON RCS,1114746,BC,4.6,0,NA,17.1,0,-7.1,0,NA,NA,NA,23.8,11,NA,NA,7,NA,NA,NA,414.1,0,2014_03
-120.069,49.364,HEDLEY N,1123370,BC,4.3,0,NA,15.5,0,-7.5,0,7.2,0,NA,22.4,0,NA,0,8,NA,NA,NA,424.4,0,2014_03
-120.022,49.369,HEDLEY NP MINE,1123390,BC,-1.1,0,0,9.5,0,-16.5,0,67.1,0,193,67.1,0,188,72,12,NA,NA,NA,591.5,0,2014_03
-120.333,49.673,JELLICOE,1123721,BC,1.3,0,NA,13.5,0,-17,0,32,0,NA,50.8,0,NA,19,12,NA,NA,NA,518.8,0,2014_03
-119.378,49.957,KELOWNA,1123939,BC,3.6,0,NA,14.7,0,-7.4,0,NA,NA,NA,23,0,NA,NA,9,NA,NA,NA,446.4,0,2014_03
-119.573,49.842,KELOWNA QUAILS GATE,1123993,BC,7.5,28,NA,13,27,1,28,0,27,NA,2.4,27,NA,0,2,NA,NA,NA,31.5,0,2014_03
-119.4,49.941,KELOWNA UBCO,1123996,BC,4.1,0,NA,15.1,0,-7,0,NA,NA,NA,16.9,0,NA,NA,6,NA,NA,NA,430.4,0,2014_03
-119.4,49.95,KELOWNA MWS0,11239R0,BC,4.1,1,NA,15,1,-7.2,1,8.4,1,NA,26.2,1,NA,0,10,NA,NA,NA,418.4,0,2014_03
-120.778,50.113,MERRITT,1125073,BC,2.7,0,NA,15.4,0,-13.7,0,NA,NA,NA,NA,NA,NA,NA,NA,NA,NA,NA,474.9,0,2014_03
-120.801,50.114,MERRITT STP,1125079,BC,3.2,0,-0.9,15,0,-12,0,9,0,206,22.8,0,141,0,8,NA,NA,NA,458.7,0,2014_03
-119.444,50.056,OKANAGAN CENTRE,1125700,BC,4.6,1,-0.2,15.5,1,-6.5,1,10,1,NA,35.2,1,NA,0,9,NA,NA,NA,401.7,0,2014_03
-119.544,49.179,OLIVER STP,1125766,BC,6.8,12,0.6,17,12,-5,12,0,12,NA,8.8,12,NA,0,3,NA,NA,NA,213.6,0,2014_03
-119.441,49.028,OSOYOOS CS,1125852,BC,5.9,0,-0.3,16.1,0,-5.6,0,NA,NA,NA,9.1,0,NA,NA,3,NA,NA,NA,376.1,0,2014_03
-119.717,49.783,PEACHLAND,1126070,BC,5.4,1,0,15.5,1,-5.5,1,6,1,NA,25.4,1,NA,0,6,NA,NA,NA,379.2,0,2014_03
-119.602,49.463,PENTICTON A,1126146,BC,4.7,0,NA,17.3,0,-5.8,0,1.1,0,NA,11.8,0,NA,NA,3,NA,NA,NA,412.8,0,2014_03
-120.513,49.468,PRINCETON A,1126510,BC,2,0,-0.8,13,0,-11.5,0,15.8,0,155,26,0,158,0,4,NA,NA,NA,495.1,0,2014_03
-119.309,50.264,VERNON BELLA VISTA,1128553,BC,3.8,0,-0.7,14.5,0,-6.5,0,10,0,202,31.9,0,142,0,9,NA,NA,NA,440.7,0,2014_03
-119.194,50.223,VERNON AUTO,1128582,BC,3.3,0,NA,14,0,-7.5,0,NA,NA,NA,23,3,NA,NA,8,NA,NA,NA,456.6,0,2014_03
-119.27,50.344,VERNON NORTH,1128583,BC,3,0,-1.3,14,0,-8,0,23.6,0,202,42.2,0,147,0,9,NA,NA,NA,466.3,0,2014_03
-119.056,50.359,VERNON SILVER STAR LODGE,1128584,BC,-5,5,NA,2,5,-18.5,5,125,5,NA,125,5,NA,218,16,NA,NA,NA,598.8,0,2014_03
-119.415,50.037,WINFIELD,1128958,BC,4.6,3,0,13,3,-7.5,3,9.8,3,NA,25.6,3,NA,0,8,NA,NA,NA,374.5,0,2014_03
-120.51,49.465,PRINCETON CS,112FN0M,BC,1.5,1,NA,13.1,1,-13.3,0,NA,NA,NA,25.5,1,NA,NA,6,NA,NA,NA,494.8,0,2014_03
-119.649,49.563,SUMMERLAND CS,112G8L1,BC,4.6,0,-0.2,16.5,0,-6.7,0,NA,NA,NA,8.6,0,NA,NA,2,NA,NA,NA,414.9,0,2014_03
-118.773,49,MIDWAY,1135126,BC,3.7,0,-0.3,17,0,-8,0,6.5,0,80,35.3,0,115,0,10,NA,NA,NA,441.9,0,2014_03
-118.228,49.017,BILLINGS,1140876,BC,2.1,13,-2.1,13,13,-9,13,9,13,NA,53.2,13,NA,0,10,NA,NA,NA,285.4,0,2014_03
-117.633,49.296,CASTLEGAR A,1141455,BC,3.4,0,-0.9,14.4,0,-10.1,0,20.6,0,157,87.3,0,139,0,14,NA,NA,NA,451.9,0,2014_03
-117.774,49.343,CASTLEGAR BCHPA DAM,1141457,BC,2.9,0,-1.6,13.5,0,-15,0,8,0,184,54,0,120,0,15,NA,NA,NA,466.6,0,2014_03
-116.518,49.097,CRESTON,1142160,BC,3.4,0,-1,13,0,-14,0,43,0,571,137.2,0,278,0,16,NA,NA,NA,453.7,0,2014_03
-116.971,50.239,DUNCAN LAKE DAM,1142574,BC,1.4,0,-1.3,11.5,0,-13,0,36,0,351,105.4,0,190,0,16,NA,NA,NA,514.3,0,2014_03
-118.068,49.872,FAUQUIER,1142820,BC,2.1,0,-1.2,12,0,-12,0,43,0,515,80,0,141,0,16,NA,NA,NA,492.3,0,2014_03
-116.915,49.914,KASLO,1143900,BC,2.1,0,-1.2,11.5,0,-14,0,33,0,269,107.8,0,148,0,14,NA,NA,NA,491.5,0,2014_03
-116.458,49.032,LISTER,1144635,BC,3,0,-0.9,14,0,-14.5,0,31,0,278,124.6,0,294,0,16,NA,NA,NA,466.1,0,2014_03
-117.817,50.269,NAKUSP CS,1145297,BC,2.5,0,NA,12.7,0,-9.1,0,NA,NA,NA,111.7,1,NA,6,14,NA,NA,NA,480.9,0,2014_03
-117.206,49.586,NELSON NE,1145442,BC,3.3,0,NA,14,0,-11,0,35.6,0,NA,140.2,0,NA,0,17,NA,NA,NA,456.2,0,2014_03
-117.37,49.996,NEW DENVER,1145460,BC,2.7,0,-0.8,12.5,0,-10,0,19,0,242,79.5,0,127,0,14,NA,NA,NA,473.5,0,2014_03
-117.305,49.491,NELSON CS,1145M29,BC,3.5,0,NA,14,0,-9.8,0,NA,NA,NA,95.2,0,NA,NA,13,NA,NA,NA,448.7,0,2014_03
-117.739,49.112,WARFIELD RCS,1148705,BC,3.3,0,NA,13.9,0,-10.3,0,NA,NA,NA,93.8,0,NA,0,11,NA,NA,NA,455,0,2014_03
-116.501,49.082,CRESTON CAMPBELL SCIENTIFIC,114B1F0,BC,3.1,1,NA,12.4,1,-14.5,0,NA,NA,NA,93.2,1,NA,NA,13,NA,NA,NA,447,0,2014_03
-117.399,49.512,NELSON RIXEN CREEK,114EMDM,BC,1.8,0,NA,12,0,-12,0,44.2,0,NA,134.2,0,NA,0,18,NA,NA,NA,503.6,0,2014_03
-115.221,49.226,BAYNES LAKE KOOTENAY RIVER,1150690,BC,4.6,0,2.7,22.5,0,-17,0,0,0,0,54.6,0,190,0,5,NA,NA,NA,414.9,0,2014_03
-115.782,49.612,CRANBROOK A - HWOS CLIMATE,1152101,BC,3.6,29,NA,10.7,29,-4.4,29,NA,NA,NA,NA,NA,NA,NA,NA,NA,NA,NA,28.9,0,2014_03
-115.782,49.612,CRANBROOK A,1152105,BC,0.7,0,NA,12.4,0,-25.2,0,16.2,0,NA,45.4,0,NA,NA,11,NA,NA,NA,535.2,0,2014_03
-115.789,49.618,CRANBROOK AIRPORT AUTO,1152106,BC,0.8,0,NA,11.7,0,-22.7,0,NA,NA,NA,34.2,0,NA,0,11,NA,NA,NA,532.6,0,2014_03
-115.072,49.489,FERNIE,1152850,BC,-1.7,7,-2.5,10,7,-26,7,34,7,NA,146.6,7,NA,NA,12,NA,NA,NA,473.3,0,2014_03
-114.855,50.149,FORDING RIVER COMINCO,1152899,BC,-6.3,18,-2.8,6,13,-36,14,44.5,13,NA,44.5,13,NA,46,10,NA,NA,NA,315.9,0,2014_03
-115.461,49.524,FT STEELE DANDY CRK,1153034,BC,-0.6,15,NA,13,8,-19.5,8,18,8,NA,47.2,8,NA,0,9,NA,NA,NA,296.9,0,2014_03
-115.962,49.631,KIMBERLEY PCC,1154203,BC,1.7,9,0.5,16,9,-17,9,5.8,9,NA,5.8,9,NA,0,1,NA,NA,NA,357.7,0,2014_03
-116.061,50.631,KOOTENAY NP WEST GATE,1154410,BC,0.5,3,-1.2,11,2,-20,3,16.6,0,215,42.9,0,216,NA,12,NA,NA,NA,490.2,0,2014_03
-114.883,49.745,SPARWOOD,1157630,BC,-2.1,0,-2.2,9.6,0,-26.2,0,32.9,0,104,76.6,0,173,10,16,NA,NA,NA,621.7,0,2014_03
-114.884,49.745,SPARWOOD CS,1157631,BC,-2.4,0,NA,9.3,0,-26.2,0,NA,NA,NA,0,1,NA,7,0,NA,NA,NA,632.8,0,2014_03
-115.46,49.473,WARDNER KTNY HATCHERY,1158692,BC,1.5,6,-1.2,13,5,-18,6,23,3,NA,56.2,3,NA,NA,11,NA,NA,NA,412.4,0,2014_03
-115.631,49.824,WASA,1158730,BC,1.6,0,-0.4,12,0,-21.5,0,17.6,0,156,44,0,160,0,10,NA,NA,NA,507.4,0,2014_03
-121.281,50.708,ASHCROFT,1160515,BC,4,0,NA,16.7,0,-11.2,0,NA,NA,NA,NA,NA,NA,NA,NA,NA,NA,NA,433.3,0,2014_03
-119.29,52.129,BLUE RIVER A,1160899,BC,-1.6,0,-2.1,9,0,-18.1,0,86.4,0,226,103.6,0,160,109,16,NA,NA,NA,607.9,0,2014_03
-119.29,52.129,BLUE RIVER CS,1160H99,BC,-2,0,NA,8.5,0,-18.6,0,NA,NA,NA,NA,NA,NA,NA,NA,NA,NA,NA,619.7,0,2014_03
-121.083,51.708,BUFFALO LAKE,1161104,BC,-3.5,0,-2.7,10.5,0,-31.5,0,25.4,0,121,27.8,0,109,0,7,NA,NA,NA,667.8,0,2014_03
-121.505,51.145,CLINTON (AUT),1161661,BC,-2.4,8,NA,10.4,8,-22.2,8,NA,NA,NA,23,8,NA,NA,9,NA,NA,NA,468.7,0,2014_03
-121.685,51.266,CLINTON A,1161662,BC,-4.2,2,NA,10.4,2,-28.3,1,NA,NA,NA,8.1,2,NA,NA,5,NA,NA,NA,644.2,0,2014_03
-120.728,51.03,CRISS CREEK,1162177,BC,-2.8,0,-1.4,9.5,0,-28,0,41.6,0,178,41.6,0,156,47,10,NA,NA,NA,644.2,0,2014_03
-120.183,51.297,DARFIELD,1162265,BC,0.8,0,-2.7,15,0,-15,0,22,0,415,28,0,112,0,5,NA,NA,NA,532.2,0,2014_03
-120.449,50.703,KAMLOOPS A,1163781,BC,3,0,NA,15.3,0,-10.9,0,16.2,0,NA,17.7,0,NA,NA,6,NA,NA,NA,465.7,0,2014_03
-120.442,50.702,KAMLOOPS AUT,1163842,BC,3.3,0,NA,15,0,-10.3,0,NA,NA,NA,14.5,6,NA,NA,5,NA,NA,NA,456.3,0,2014_03
-121.217,51.681,100 MILE HOUSE 6NE,1165793,BC,-2.4,0,NA,13,0,-26.5,0,38,0,NA,44.8,0,NA,32,8,NA,NA,NA,633.1,0,2014_03
-120.8,50.935,RED LAKE,1166658,BC,-1.1,0,-1,9,0,-21,0,53.5,0,197,54.5,0,173,31,10,NA,NA,NA,593.3,0,2014_03
-119.234,50.686,SALMON ARM A,1166R45,BC,1.4,1,-1.6,14.5,1,-9,1,22.6,1,NA,74.3,1,NA,NA,14,NA,NA,NA,497.4,0,2014_03
-119.35,50.545,SILVER CREEK,1167337,BC,2.1,0,-1.1,14,0,-9,0,23.6,0,194,48.8,0,145,0,13,NA,NA,NA,494,0,2014_03
-119.778,51.576,VAVENBY,1168520,BC,0.1,2,-2.6,11.5,1,-18,1,11.8,1,NA,28.8,1,NA,0,8,NA,NA,NA,519.6,0,2014_03
-120.2,50.6,KAMLOOPS PRATT ROAD,116C8P0,BC,1.4,0,NA,11,0,-13,0,16.6,0,NA,25.2,0,NA,0,8,NA,NA,NA,515.9,0,2014_03
-119.291,50.703,SALMON ARM CS,116FRMN,BC,2,1,-2.2,14.9,1,-8.8,0,NA,NA,NA,47.8,1,NA,NA,13,NA,NA,NA,481.1,0,2014_03
-119.918,50.902,SUN PEAKS UPPER,116QK0M,BC,-6.1,1,NA,1,0,-20,1,81,0,NA,81,0,NA,222,9,NA,NA,NA,723.9,0,2014_03
-117.516,51.301,GLACIER NP ROGERS PASS,1173191,BC,-3.5,0,-1.3,5.5,0,-21,0,210,0,237,221.9,0,203,201,22,NA,NA,NA,665.6,0,2014_03
-116.982,51.299,GOLDEN A,1173210,BC,-0.9,0,-1.7,8.5,0,-21,0,44.8,0,371,58.2,0,238,29,15,NA,NA,NA,586.6,0,2014_03
-118.425,51.63,GOLDSTREAM RIVER,1173242,BC,-1.1,0,-1.7,9,0,-20,0,93,0,235,134,0,185,112,19,NA,NA,NA,593.5,0,2014_03
-118.585,52.053,MICA DAM,1175122,BC,-1.5,2,-2,7,1,-14,1,95,1,NA,164.4,1,NA,160,20,NA,NA,NA,566.2,0,2014_03
-118.183,50.967,REVELSTOKE A,1176745,BC,0.9,4,NA,8.6,3,-10.9,3,NA,NA,NA,89.8,4,NA,NA,17,NA,NA,NA,460.7,0,2014_03
-118.224,51.012,REVELSTOKE COLUMBIA PARK,1176754,BC,NA,NA,NA,NA,NA,NA,NA,15,30,NA,15,30,NA,NA,1,NA,NA,NA,NA,NA,2014_03
-118.176,50.958,REVELSTOKE AIRPORT AUTO,1176755,BC,0.5,0,NA,9.1,0,-11.5,0,NA,NA,NA,119,0,NA,64,18,NA,NA,NA,543.7,0,2014_03
-116.345,51.443,YOHO PARK,11790J1,BC,-5.1,0,NA,10.4,0,-30.2,0,NA,NA,NA,140.6,0,NA,170,24,NA,NA,NA,714.9,0,2014_03
-117.701,51.236,GLACIER NP MT FIDELITY,117CA90,BC,-5.2,0,-1,2.5,0,-23.5,0,315,0,188,316,0,183,368,26,NA,NA,NA,720.7,0,2014_03
-116.337,51.356,YOHO NP OHARA LAKE,117R00H,BC,-7.1,10,NA,4,10,-37,10,92.6,10,NA,92.6,10,NA,NA,14,NA,NA,NA,526.9,0,2014_03
-121.017,56.298,CHARLIE LAKE,11814FR,BC,-10.5,0,NA,8.5,0,-37.5,0,28,0,NA,28,0,NA,69,6,NA,NA,NA,884.1,0,2014_03
-121.627,55.687,CHETWYND A,1181508,BC,-7.3,0,-4.4,11.8,0,-40.1,0,29,0,102,14.2,0,65,3,6,NA,NA,NA,784.1,0,2014_03
-120.183,55.742,DAWSON CREEK A,1182289,BC,-10.6,4,NA,7,4,-39.4,3,NA,NA,NA,7.1,2,NA,NA,1,NA,NA,NA,772.4,0,2014_03
-120.74,56.238,FORT ST. JOHN A,1183001,BC,-9,0,NA,7.2,0,-33.1,0,27.6,0,NA,32.5,0,NA,13,6,NA,NA,NA,838.3,0,2014_03
-123.133,55.299,MACKENZIE,1184791,BC,-6.9,2,NA,8.4,2,-34.8,2,NA,NA,NA,32.5,2,NA,NA,5,NA,NA,NA,721.7,0,2014_03
-123.138,55.305,MACKENZIE AIRPORT AUTO,1184793,BC,-6.4,0,NA,9.2,0,-34.8,0,NA,NA,NA,21.6,4,NA,78,3,NA,NA,NA,757.8,0,2014_03
-122.718,57.25,SIKANNI CHIEF,1187335,BC,-8.7,8,NA,9,8,-31.6,8,17.2,8,NA,17.2,8,NA,5,4,NA,NA,NA,613.4,0,2014_03
-120.688,56.167,TAYLOR FLATS,1188020,BC,NA,NA,NA,NA,NA,NA,NA,19,0,95,24,0,111,0,7,NA,NA,NA,NA,NA,2014_03
-130.031,58.422,DEASE LAKE A,1192341,BC,-9.5,4,NA,6.3,4,-34.1,4,NA,NA,NA,26.7,5,NA,NA,4,NA,NA,NA,742.7,0,2014_03
-122.597,58.836,FORT NELSON A,1192946,BC,-10.7,0,NA,10.6,0,-34.6,0,6.4,0,NA,4.2,0,NA,40,2,NA,NA,NA,890,0,2014_03
-122.573,58.841,FORT NELSON UA,1192950,BC,-9.7,2,NA,9.5,2,-34,2,2,2,NA,2,2,NA,45,1,NA,NA,NA,804.4,0,2014_03
-125.767,58.93,MUNCHO LAKE,1195250,BC,-10.8,1,-3.9,7.2,1,-37.5,1,22,1,NA,28,1,NA,35,7,NA,NA,NA,862.9,0,2014_03
-130.025,58.426,DEASE LAKE (AUT),119BLM0,BC,-10.7,0,NA,5.9,0,-35.2,0,NA,NA,NA,14.9,1,NA,NA,4,NA,NA,NA,890.9,0,2014_03
-133.7,59.567,ATLIN,1200560,BC,-9.1,0,-3.6,5,0,-28.5,0,19.3,0,114,19.3,0,111,13,5,NA,NA,NA,839.6,0,2014_03
-136.367,59.45,PLEASANT CAMP,1206197,BC,-7,2,-4.7,7,2,-28,2,78,2,NA,82,2,NA,0,7,NA,NA,NA,725,0,2014_03
-139.04,61.371,BURWASH A,2100181,YT,-12.2,6,NA,3.5,6,-33.7,6,NA,NA,NA,0,6,NA,NA,0,NA,NA,NA,755,0,2014_03
-139.05,61.367,BURWASH A,2100182,YT,-11.2,1,-0.4,7,1,-34,1,1,1,NA,1,1,NA,NA,0,NA,NA,NA,874.8,0,2014_03
-139.017,61.367,BURWASH AIRPORT AUTO BC,2100184,YT,-11.7,0,NA,4,0,-34.3,0,NA,NA,NA,NA,NA,NA,1,NA,NA,NA,NA,921.3,0,2014_03
-136.192,62.115,CARMACKS CS,2100301,YT,-11.4,0,NA,7.5,0,-37.1,0,NA,NA,NA,12.5,0,NA,51,3,NA,NA,NA,910.4,0,2014_03
-139.128,64.043,DAWSON A,2100402,YT,-14.6,1,-2.5,6.6,1,-35.9,1,0,1,NA,0,1,NA,NA,0,NA,NA,NA,977.2,0,2014_03
-133.373,62.207,FARO A,2100517,YT,-12.8,1,-4.2,5.6,1,-33.8,1,4.8,1,NA,4.6,1,NA,NA,2,NA,NA,NA,922.7,0,2014_03
-133.376,62.208,FARO (AUT),2100518,YT,-12.6,0,NA,5.9,0,-33.8,0,NA,NA,NA,NA,NA,NA,NA,NA,NA,NA,NA,949.7,0,2014_03
-137.58,60.773,HAINES JUNCTION,2100630,YT,-9.1,0,NA,7.7,0,-33.9,0,NA,NA,NA,NA,NA,NA,4,NA,NA,NA,NA,840.1,0,2014_03
-138.913,69.568,HERSCHEL ISLAND,2100636,YT,-17.6,0,NA,-6.4,0,-28.7,0,NA,NA,NA,NA,NA,NA,NA,NA,NA,NA,NA,1102.8,0,2014_03
-140.15,69.164,IVVAVIK NAT. PARK,2100660,YT,-16.9,0,NA,-1.4,0,-37.5,0,NA,NA,NA,5.5,2,NA,10,0,NA,NA,NA,1081.3,0,2014_03
-140.197,69.612,KOMAKUK BEACH,2100682,YT,-20.4,0,NA,-5.7,0,-35.6,0,NA,NA,NA,NA,NA,NA,NA,NA,NA,NA,NA,1189,0,2014_03
-130.037,63.244,MACMILLAN PASS,2100693,YT,-18.3,0,NA,-1.8,0,-32.8,0,NA,NA,NA,NA,NA,NA,65,NA,NA,NA,NA,1126.8,0,2014_03
-140.848,68.801,MARGARET LAKE,2100697,YT,-17.8,0,NA,-3.6,0,-36.9,0,NA,NA,NA,NA,NA,NA,NA,NA,NA,NA,NA,1109.5,0,2014_03
-135.868,63.616,MAYO A,2100701,YT,-12.5,0,NA,6.9,0,-34.6,0,0.2,0,NA,0,0,NA,37,0,NA,NA,NA,946.8,0,2014_03
-135.183,60.876,MAYO ROAD,2100709,YT,-11.9,0,-4.4,6,0,-37,0,1.2,0,10,1.2,0,10,0,1,NA,NA,NA,925.9,0,2014_03
-137.523,63.594,MCQUESTEN,2100719,YT,-13,0,-2.2,8.5,0,-36.5,0,0,0,0,0,0,0,46,0,NA,NA,NA,960.4,0,2014_03
-139.839,67.571,OLD CROW A,2100800,YT,-20.2,1,1,-3,1,-37,1,1.2,1,NA,0.4,1,NA,NA,0,NA,NA,NA,1146,0,2014_03
-139.839,67.571,OLD CROW RCS,2100805,YT,-19.9,0,NA,-3.2,0,-38.3,0,NA,NA,NA,NA,NA,NA,NA,NA,NA,NA,NA,1174.7,0,2014_03
-137.311,62.83,PELLY RANCH,2100880,YT,-11.4,0,-0.8,20,0,-37,0,0,0,0,0,0,0,38,0,NA,NA,NA,912.4,0,2014_03
-136.218,66.981,ROCK RIVER,2100935,YT,-13.7,0,NA,-0.1,0,-31.2,0,NA,NA,NA,0,1,NA,0,0,NA,NA,NA,983.3,0,2014_03
-137.217,68.95,SHINGLE POINT A,2100950,YT,-18.2,0,NA,-3.4,0,-35.5,0,NA,NA,NA,NA,NA,NA,NA,NA,NA,NA,NA,1123.7,0,2014_03
-129.132,61.182,HOUR LAKE,2100FCG,YT,-14.5,0,NA,4,0,-41,0,15,0,NA,15,0,NA,89,3,NA,NA,NA,1008.3,0,2014_03
-139.127,64.061,DAWSON,2100LRP,YT,-14.5,1,NA,6.6,1,-36.1,0,NA,NA,NA,1.2,1,NA,48,0,NA,NA,NA,976.2,0,2014_03
-135.573,60.946,TAKHINI RIVER RANCH,2101095,YT,-10.5,0,-2.6,16,0,-38,0,3,0,40,3,0,40,0,1,NA,NA,NA,882,0,2014_03
-132.736,60.174,TESLIN A,2101100,YT,-10.4,1,-3.9,6,1,-34.7,1,8.6,1,NA,5,1,NA,NA,2,NA,NA,NA,851.4,0,2014_03
-132.733,60.167,TESLIN (AUT),2101102,YT,-10.9,0,NA,5,0,-34.7,0,NA,NA,NA,5.2,0,NA,60,2,NA,NA,NA,896.5,0,2014_03
-128.822,60.117,WATSON LAKE A,2101200,YT,-13.6,0,-4,5.4,0,-40.6,0,5.3,0,27,5.3,0,35,72,2,NA,NA,NA,980.5,0,2014_03
-128.832,60.116,WATSON LAKE (AUT),2101204,YT,-14.5,0,NA,4.3,0,-43.2,0,NA,NA,NA,5.3,0,NA,70,1,NA,NA,NA,1008.9,0,2014_03
-135.067,60.709,WHITEHORSE A,2101303,YT,-9.6,0,NA,4.3,0,-30.9,0,NA,NA,NA,NA,NA,NA,NA,NA,NA,NA,NA,855.1,0,2014_03
-135.098,60.733,WHITEHORSE AUTO,2101310,YT,-9,0,NA,4.3,0,-30.4,0,NA,NA,NA,2.1,0,NA,36,1,NA,NA,NA,836.5,0,2014_03
-124.717,70.167,CAPE PARRY A,2200675,NT,-22.2,0,NA,-12.6,0,-33.7,0,NA,NA,NA,NA,NA,NA,NA,NA,NA,NA,NA,1246,0,2014_03
-126.123,67.021,COLVILLE LAKE,2200824,NT,-20.7,0,NA,-6.7,0,-35.4,0,NA,NA,NA,NA,NA,NA,NA,NA,NA,NA,NA,1200.6,0,2014_03
-123.433,65.209,DELINE CS,2201022,NT,-19.7,0,NA,-3.6,0,-34.7,0,NA,NA,NA,NA,NA,NA,2,NA,NA,NA,NA,1167.5,0,2014_03
-124.468,61.257,DEADMEN VALLEY,22010H0,NT,-13.7,0,NA,8.8,0,-38.8,0,NA,NA,NA,NA,NA,NA,26,NA,NA,NA,NA,984,0,2014_03
-123.436,65.211,DELINE A,22010KA,NT,-19.4,1,NA,-4,1,-34.5,1,2.4,1,NA,2.4,1,NA,38,1,NA,NA,NA,1123,0,2014_03
-128.651,66.241,FORT GOOD HOPE A,2201400,NT,-18.6,0,NA,-2.1,0,-35,0,12,0,NA,12,0,NA,43,4,NA,NA,NA,1134.2,0,2014_03
-128.644,66.242,FORT GOOD HOPE CS,2201450,NT,-17.7,0,NA,-1.4,0,-34.2,0,NA,NA,NA,NA,NA,NA,47,NA,NA,NA,NA,1105.8,0,2014_03
-123.467,60.235,FORT LIARD A,2201575,NT,-10.6,14,-1.1,10.3,13,-34.7,13,2,13,NA,2,13,NA,16,1,NA,NA,NA,485.7,0,2014_03
-123.467,60.233,FORT LIARD,2201579,NT,-10.6,0,NA,10.3,0,-33.9,0,NA,NA,NA,NA,NA,NA,NA,NA,NA,NA,NA,887.7,0,2014_03
-125.568,64.909,TULITA A,2201700,NT,-16.3,21,NA,-2,21,-30.5,21,0.2,21,NA,0.2,21,NA,13,0,NA,NA,NA,343.1,0,2014_03
-117.602,61.317,FORT PROVIDENCE,2201799,NT,-16.5,0,NA,8.3,0,-39.6,0,NA,NA,NA,NA,NA,NA,NA,NA,NA,NA,NA,1070.7,0,2014_03
-109.168,62.711,FORT RELIANCE (AUT),2201903,NT,-23.1,0,NA,-2.6,0,-38.7,0,NA,NA,NA,27.9,0,NA,54,1,NA,NA,NA,1275.6,0,2014_03
-113.69,61.181,FORT RESOLUTION A,2202000,NT,-19.2,14,NA,1.5,14,-41.5,14,1.2,14,NA,1.2,14,NA,41,1,NA,NA,NA,632.7,0,2014_03
-121.237,61.76,FORT SIMPSON A,2202101,NT,-14.5,0,-1.5,3.4,0,-34.2,0,9.6,0,51,4,0,26,55,2,NA,NA,NA,1007.8,0,2014_03
-121.237,61.76,FORT SIMPSON CLIMATE,2202102,NT,-15.1,0,NA,2.6,0,-35.4,0,NA,NA,NA,2.9,0,NA,47,1,NA,NA,NA,1027.1,0,2014_03
-111.962,60.02,FORT SMITH A,2202200,NT,-17.4,0,-5.6,0.3,0,-40.2,0,17,0,97,13,0,99,37,3,NA,NA,NA,1096.3,0,2014_03
-111.929,60.026,FORT SMITH CLIMATE,2202202,NT,-16.8,0,NA,0.6,0,-39,0,NA,NA,NA,13.1,0,NA,NA,4,NA,NA,NA,1079.6,0,2014_03
-105.133,63.6,HANBURY RIVER,2202351,NT,-26.5,0,NA,-10.7,0,-39.5,0,NA,NA,NA,4.2,0,NA,8,1,NA,NA,NA,1379.3,0,2014_03
-115.783,60.84,HAY RIVER A,2202400,NT,-18,0,-4.2,4.5,0,-38.9,0,3,0,18,1.6,0,11,34,0,NA,NA,NA,1115.4,0,2014_03
-115.777,60.839,HAY RIVER CLIMATE,2202402,NT,-17.9,0,NA,4.6,0,-38.8,0,NA,NA,NA,18.2,0,NA,27,7,NA,NA,NA,1111.6,0,2014_03
-113.726,61.92,INNER WHALEBACKS,2202560,NT,-20.1,0,NA,-0.7,0,-36.3,0,NA,NA,NA,13.1,4,NA,NA,5,NA,NA,NA,1181.3,0,2014_03
-133.517,68.317,INUVIK CLIMATE,2202578,NT,-17.7,0,NA,-2.7,0,-34.6,0,NA,NA,NA,0.6,13,NA,49,0,NA,NA,NA,1105.8,0,2014_03
-117.245,63.134,WHATI,2202678,NT,-20.3,0,NA,-5.9,0,-39.6,0,NA,NA,NA,NA,NA,NA,NA,NA,NA,NA,NA,1188,0,2014_03
-126.799,65.281,NORMAN WELLS A,2202801,NT,-18.7,0,NA,-2.3,0,-38.5,0,9.4,0,NA,5.6,0,NA,12,3,NA,NA,NA,1138.5,0,2014_03
-126.753,65.288,NORMAN WELLS CLIMATE,2202810,NT,-18,0,NA,-1.3,0,-36.7,0,NA,NA,NA,6,0,NA,36,1,NA,NA,NA,1114.9,0,2014_03
-124.075,69.361,PAULATUK A,2203057,NT,-20.3,10,NA,-8.9,10,-36,10,13,10,NA,13,10,NA,30,6,NA,NA,NA,804.8,0,2014_03
-124.083,69.358,PAULATUK,2203058,NT,-21.3,0,NA,-9.1,0,-37.4,0,NA,NA,NA,5.5,1,NA,NA,0,NA,NA,NA,1219.6,0,2014_03
-135.444,69.633,PELLY ISLAND,2203095,NT,-19.9,2,NA,-10,1,-31.6,2,NA,NA,NA,0,2,NA,NA,0,NA,NA,NA,1100.1,0,2014_03
-127.209,61.963,RABBIT KETTLE,2203342,NT,-15.1,0,NA,5.2,0,-41.6,0,NA,NA,NA,NA,NA,NA,NA,NA,NA,NA,NA,1026.6,0,2014_03
-117.309,64.117,GAMETI AIRPORT,2203361,NT,-22,0,NA,-6.3,0,-42.8,0,8.8,0,NA,8.8,0,NA,32,3,NA,NA,NA,1241.3,0,2014_03
-133.026,69.433,TUKTOYAKTUK A,2203912,NT,-21.7,1,3.4,-10.7,1,-37.4,1,5.2,1,NA,5.2,1,NA,NA,2,NA,NA,NA,1191.9,0,2014_03
-133.017,69.433,TUKTOYAKTUK,2203914,NT,-21.4,0,NA,-10.3,0,-37.8,0,NA,NA,NA,NA,NA,NA,NA,NA,NA,NA,NA,1220.4,0,2014_03
-123.437,63.209,WRIGLEY A,2204000,NT,-15.4,17,NA,1.5,17,-32.2,17,0,17,NA,0,17,NA,32,0,NA,NA,NA,467.4,0,2014_03
-114.44,62.463,YELLOWKNIFE A,2204101,NT,-20.4,0,NA,-1.9,0,-42.1,0,9.4,0,NA,5.8,0,NA,25,2,NA,NA,NA,1191.5,0,2014_03
-114.383,62.45,YELLOWKNIFE-HENDERSON,2204110,NT,-20.4,0,NA,-1,0,-41,0,8,0,NA,8,0,NA,44,3,NA,NA,NA,1190.5,0,2014_03
-123.742,61.242,YOHIN,2204300,NT,-11.1,0,NA,11.5,0,-35.9,0,NA,NA,NA,NA,NA,NA,19,NA,NA,NA,NA,902.8,0,2014_03
-130.911,69.604,LIVERPOOL BAY,220B68C,NT,-21.6,0,NA,-11.1,0,-35,0,NA,NA,NA,NA,NA,NA,NA,NA,NA,NA,NA,1226.4,0,2014_03
-130.228,67.179,LITTLE CHICAGO,220B6Q3,NT,-19.8,0,NA,-3.3,0,-36.9,0,NA,NA,NA,NA,NA,NA,NA,NA,NA,NA,NA,1171,0,2014_03
-110.682,62.419,LUTSELK'E A,220L001,NT,-22.2,4,NA,-4,4,-41,4,6,4,NA,6,4,NA,41,5,NA,NA,NA,1086.6,0,2014_03
-110.69,62.416,LUTSELK'E CS,220L002,NT,-22.1,0,NA,-3.6,0,-39.1,0,NA,NA,NA,NA,NA,NA,33,NA,NA,NA,NA,1241.8,0,2014_03
-110.615,64.699,EKATI A,220N001,NT,-25.8,0,NA,-12,0,-41,0,16.8,0,NA,16.8,0,NA,78,4,NA,NA,NA,1356.5,0,2014_03
-122.851,61.125,LINDBURG LANDING,220N003,NT,-12.8,3,NA,9.9,3,-37.4,1,NA,NA,NA,3.3,3,NA,46,1,NA,NA,NA,861.7,0,2014_03
-113.863,63.603,LOWER CARP LAKE,220N004,NT,-21.4,0,NA,-5.5,0,-37.1,0,NA,NA,NA,NA,NA,NA,32,NA,NA,NA,NA,1222.9,0,2014_03
-133.502,68.746,TRAIL VALLEY,220N005,NT,-19.6,0,NA,-6,0,-37.8,0,NA,NA,NA,3.3,1,NA,NA,0,NA,NA,NA,1164.7,0,2014_03
-94.072,61.094,ARVIAT A,2300427,NU,-26.4,1,NA,-14.3,1,-36.7,1,NA,NA,NA,32.3,1,NA,NA,2,NA,NA,NA,1333.4,0,2014_03
-96,64.317,BAKER LAKE CLIMATE,2300501,NU,-27.8,0,NA,-17.2,0,-36.5,0,NA,NA,NA,21.8,23,NA,NA,6,NA,NA,NA,1421,0,2014_03
-96.078,64.299,BAKER LAKE A,2300503,NU,-27.5,0,NA,-16.8,0,-36,0,1.6,0,NA,3,2,NA,NA,1,NA,NA,NA,1410.9,0,2014_03
-108.015,66.838,BATHURST INLET,2300551,NU,-23.6,0,NA,-10.6,0,-38.5,0,NA,NA,NA,9.1,2,NA,5,1,NA,NA,NA,1289.3,0,2014_03
-115.144,67.817,KUGLUKTUK A,2300902,NU,-25,0,0.3,-12.3,0,-41.2,0,26.8,0,138,7,0,71,50,3,NA,NA,NA,1331.6,0,2014_03
-115.135,67.817,KUGLUKTUK CLIMATE,2300904,NU,-25,0,NA,-12.7,0,-39.4,0,NA,NA,NA,4.7,0,NA,34,1,NA,NA,NA,1332.4,0,2014_03
-94.067,61.1,ARVIAT A,2300MKF,NU,-25.8,1,-2.9,-12,1,-36,1,0,1,NA,0,1,NA,NA,0,NA,NA,NA,1312.6,0,2014_03
-83.359,64.193,CORAL HARBOUR A,2301000,NU,-27.2,1,-2,-10.4,1,-37.1,1,6.2,1,NA,6.2,1,NA,20,2,NA,NA,NA,1354.9,0,2014_03
-100.884,61.132,ENNADAI LAKE (AUT),2301102,NU,-25,0,NA,-9.9,0,-36.8,0,NA,NA,NA,1.4,0,NA,NA,0,NA,NA,NA,1333,0,2014_03
-94.067,61.1,ARVIAT CLIMATE,2301153,NU,-26.2,0,NA,-11.8,0,-36.3,0,NA,NA,NA,11.3,0,NA,9,4,NA,NA,NA,1369.6,0,2014_03
-95.85,68.636,GJOA HAVEN A,2302337,NU,-29.8,0,NA,-19.4,0,-39.9,0,NA,NA,NA,2.6,1,NA,NA,1,NA,NA,NA,1482.2,0,2014_03
-95.85,68.636,GJOA HAVEN CLIMATE,2302340,NU,-29.3,0,NA,-19.5,0,-39.8,0,NA,NA,NA,1.6,0,NA,48,1,NA,NA,NA,1467.8,0,2014_03
-100.087,68.318,HAT ISLAND,2302370,NU,-28.4,0,NA,-16.9,0,-39.5,0,NA,NA,NA,NA,NA,NA,NA,NA,NA,NA,NA,1438,0,2014_03
-89.726,68.437,CAM FOUR,2303093,NU,-28.7,0,NA,-15.8,0,-38.3,0,NA,NA,NA,NA,NA,NA,NA,NA,NA,NA,NA,1447.8,0,2014_03
-89.796,68.538,KUGAARUK CLIMATE,2303094,NU,-29.5,0,NA,-15.6,0,-42.3,0,NA,NA,NA,1.2,0,NA,1,0,NA,NA,NA,1473.1,0,2014_03
-92.115,62.811,RANKIN INLET A,2303405,NU,-27,0,NA,-15.1,0,-36.2,0,6.2,0,NA,6.2,0,NA,53,2,NA,NA,NA,1394.6,0,2014_03
-102.429,65.1,ROBERTSON LAKE (AUT),2303610,NU,-29.1,13,NA,-12.4,13,-40.8,12,NA,NA,NA,0.2,15,NA,NA,0,NA,NA,NA,848.5,0,2014_03
-93.433,68.817,SHEPHERD BAY A,2303685,NU,-31.9,0,NA,-19,0,-44.2,0,NA,NA,NA,NA,NA,NA,NA,NA,NA,NA,NA,1547.8,0,2014_03
-92.598,62.24,WHALE COVE A,2303986,NU,-26.8,3,-3.1,-15,3,-36,3,2.2,3,NA,2.2,3,NA,NA,2,NA,NA,NA,1253.6,0,2014_03
-119.219,69.276,CROKER RIVER,230J01Q,NU,-22.1,1,NA,-10.4,1,-34.5,1,NA,NA,NA,NA,NA,NA,NA,NA,NA,NA,NA,1202,0,2014_03
-111.246,65.755,LUPIN CS,230N002,NU,-22.8,17,NA,-11.9,17,-40.1,7,NA,NA,NA,42.3,23,NA,48,6,NA,NA,NA,571.1,0,2014_03
-62.333,82.5,ALERT CLIMATE,2400305,NU,-28.7,0,NA,-15.9,0,-42.9,0,NA,NA,NA,10.4,0,NA,25,2,NA,NA,NA,1446.9,0,2014_03
-62.333,82.5,ALERT UA,2400306,NU,NA,NA,NA,NA,NA,NA,NA,25.8,1,NA,18.9,1,NA,25,8,NA,NA,NA,NA,NA,2014_03
-85.012,72.993,ARCTIC BAY CS,2400404,NU,-29.7,1,NA,-9,1,-40.8,0,NA,NA,NA,2.9,19,NA,3,0,NA,NA,NA,1430.9,0,2014_03
-64.146,63.34,BREVOORT ISLAND,2400565,NU,-20.4,0,NA,-11.5,0,-27.5,0,NA,NA,NA,NA,NA,NA,NA,NA,NA,NA,NA,1191.5,0,2014_03
-63.789,67.536,FOX FIVE,2400570,NU,-22.8,1,NA,-10.9,1,-30.3,1,NA,NA,NA,NA,NA,NA,NA,NA,NA,NA,NA,1223.7,0,2014_03
-64.031,67.546,QIKIQTARJUAQ A,2400572,NU,-24.3,0,NA,-10.4,0,-37.9,0,12.8,0,NA,12.8,0,NA,45,6,NA,NA,NA,1311.3,0,2014_03
-64.033,67.547,QIKIQTARJUAQ CLIMATE,2400573,NU,-24.7,1,NA,-10.9,1,-37.9,0,NA,NA,NA,27.1,1,NA,58,14,NA,NA,NA,1280,0,2014_03
-64.032,67.547,QIKIQTARJUAQ A,2400577,NU,-24.7,2,NA,-10.7,2,-37.9,2,NA,NA,NA,1.2,2,NA,NA,0,NA,NA,NA,1237.8,0,2014_03
-105.138,69.108,CAMBRIDGE BAY A,2400600,NU,-28.5,0,0.8,-16.4,0,-41.4,0,2,0,24,1.8,0,25,23,0,NA,NA,NA,1441.6,0,2014_03
-105.138,69.108,CAMBRIDGE BAY GSN,2400602,NU,-28.2,0,NA,-16.5,0,-41.1,0,NA,NA,NA,13.8,0,NA,4,7,NA,NA,NA,1433.5,0,2014_03
-76.525,64.23,CAPE DORSET A,2400635,NU,-21.1,18,0.1,-8.2,18,-28.5,18,13.2,18,NA,13.2,18,NA,27,3,NA,NA,NA,508.3,0,2014_03
-76.53,64.231,KINNGAIT,2400636,NU,-22.4,0,NA,-8.9,0,-30.6,0,NA,NA,NA,4.3,1,NA,NA,0,NA,NA,NA,1253.7,0,2014_03
-76.525,64.23,CAPE DORSET A,2400637,NU,-22.4,0,NA,-8.7,0,-30.3,0,NA,NA,NA,0,0,NA,NA,0,NA,NA,NA,1251.5,0,2014_03
-61.383,66.65,CAPE DYER,2400650,NU,-22.1,0,NA,-10.3,0,-29.2,0,NA,NA,NA,NA,NA,NA,NA,NA,NA,NA,NA,1244.4,0,2014_03
-66.815,68.473,CAPE HOOPER,2400660,NU,-23.3,0,NA,-12.9,0,-28.9,0,NA,NA,NA,NA,NA,NA,NA,NA,NA,NA,NA,1280.4,0,2014_03
-107.823,69.036,CAPE PEEL WEST,2400697,NU,-27.9,0,NA,-16.3,0,-42,0,NA,NA,NA,NA,NA,NA,NA,NA,NA,NA,NA,1421.8,0,2014_03
-68.517,70.483,CLYDE RIVER CLIMATE,2400802,NU,-25.3,0,NA,-12.9,0,-35.8,0,NA,NA,NA,3,0,NA,48,1,NA,NA,NA,1342.6,0,2014_03
-68.517,70.486,CLYDE RIVER A,2400804,NU,-25.4,2,NA,-12.8,2,-35.4,2,NA,NA,NA,1,2,NA,NA,0,NA,NA,NA,1257.5,0,2014_03
-63.578,64.958,CAPE MERCY,2400F63,NU,-21.8,0,NA,-13.5,0,-27.7,0,NA,NA,NA,NA,NA,NA,NA,NA,NA,NA,NA,1234.5,0,2014_03
-71.167,68.65,DEWAR LAKES,2401030,NU,-25.7,3,NA,-17,3,-34.3,2,NA,NA,NA,NA,NA,NA,NA,NA,NA,NA,NA,1223.1,0,2014_03
-85.933,79.983,EUREKA A,2401200,NU,-36.5,0,0.3,-19.4,0,-47,0,9,0,319,4.4,0,203,29,2,NA,NA,NA,1688.4,0,2014_03
-81.243,68.776,HALL BEACH A,2402350,NU,-28.8,0,-0.1,-10.2,0,-39.8,0,10.7,0,117,10.7,0,150,28,4,NA,NA,NA,1451.2,0,2014_03
-82.902,76.423,GRISE FIORD CLIMATE,2402351,NU,-30,0,NA,-10.5,0,-39,0,NA,NA,NA,3.4,0,NA,2,1,NA,NA,NA,1487,0,2014_03
-81.244,68.776,SANIRAJAK,2402353,NU,-28.9,1,NA,-10.6,1,-40,0,NA,NA,NA,6.5,1,NA,30,2,NA,NA,NA,1406.5,0,2014_03
-81.243,68.776,HALL BEACH A,2402354,NU,-28.9,0,NA,-10.2,0,-39.8,0,NA,NA,NA,0.3,1,NA,NA,0,NA,NA,NA,1453.6,0,2014_03
-81.817,69.367,IGLOOLIK A,2402543,NU,-28.7,1,-0.7,-14.5,1,-39.5,1,5,1,NA,5,1,NA,NA,2,NA,NA,NA,1400.4,0,2014_03
-68.55,63.75,IQALUIT AWOS,2402591,NU,-25.3,2,NA,-14.6,2,-37.3,2,NA,NA,NA,20.5,6,NA,NA,5,NA,NA,NA,1254.9,0,2014_03
-68.544,63.747,IQALUIT CLIMATE,2402592,NU,-24.8,0,NA,-7.9,0,-37.4,0,NA,NA,NA,115.6,7,NA,11,17,NA,NA,NA,1328.1,0,2014_03
-68.55,63.75,IQALUIT UA,2402594,NU,NA,NA,NA,NA,NA,NA,NA,2,17,NA,2,17,NA,NA,1,NA,NA,NA,NA,NA,2014_03
-103.554,78.792,ISACHSEN (AUT),2402604,NU,-28.4,25,NA,-19.1,24,-34.8,25,NA,NA,NA,0,27,NA,33,0,NA,NA,NA,278.5,0,2014_03
-65.711,66.143,PANGNIRTUNG,2403049,NU,-24.2,0,NA,-4.9,0,-31.3,0,NA,NA,NA,6.7,0,NA,5,1,NA,NA,NA,1309,0,2014_03
-65.714,66.145,PANGNIRTUNG A,2403053,NU,-24.2,11,NA,-4.9,11,-33.3,11,5,11,NA,5,11,NA,14,2,NA,NA,NA,844,0,2014_03
-77.969,72.689,POND INLET A,2403201,NU,NA,NA,NA,NA,NA,NA,NA,0,5,NA,0,5,NA,NA,0,NA,NA,NA,NA,NA,2014_03
-77.958,72.693,POND INLET CLIMATE,2403204,NU,-30.2,0,NA,-7.3,0,-37.4,0,NA,NA,NA,1.8,0,NA,14,0,NA,NA,NA,1493.9,0,2014_03
-77.969,72.689,POND INLET A,2403206,NU,-29.8,0,NA,-7.6,0,-36.4,0,NA,NA,NA,0,2,NA,NA,0,NA,NA,NA,1481.4,0,2014_03
-105.715,75.377,REA POINT,2403450,NU,-29.1,12,NA,-17.9,8,-40.8,8,NA,NA,NA,NA,NA,NA,NA,NA,NA,NA,NA,894.2,0,2014_03
-86.225,66.521,REPULSE BAY A,2403490,NU,-27.9,1,-1.5,-17.7,1,-36.1,1,4.4,1,NA,4.4,1,NA,NA,3,NA,NA,NA,1377.1,0,2014_03
-94.969,74.717,RESOLUTE CARS,2403500,NU,-29.2,0,1,-20.1,0,-39.2,0,1.1,0,14,1.1,0,15,6,0,NA,NA,NA,1463.5,0,2014_03
-94.983,74.716,RESOLUTE CS,2403505,NU,-29.1,0,NA,-19.9,0,-39.1,0,NA,NA,NA,0.9,0,NA,3,0,NA,NA,NA,1460.8,0,2014_03
-64.633,61.6,RESOLUTION ISLAND,2403602,NU,-19,9,NA,-10.5,9,-26.7,9,NA,NA,NA,NA,NA,NA,NA,NA,NA,NA,NA,814.7,0,2014_03
-79.033,69.083,ROWLEY ISLAND,2403625,NU,-24.6,0,NA,-11.3,0,-31.6,0,NA,NA,NA,NA,NA,NA,NA,NA,NA,NA,NA,1321,0,2014_03
-93.583,69.55,TALOYOAK A,2403854,NU,-30.4,3,-0.9,-18.5,3,-41.7,3,1.4,4,NA,1.4,4,NA,16,0,NA,NA,NA,1355.7,0,2014_03
-119.989,74.139,NANGMAGVIK LAKE,2500440,NT,-26.9,8,NA,-14.9,6,-41.5,7,NA,NA,NA,0.9,30,NA,30,0,NA,NA,NA,1031.9,0,2014_03
-117.8,70.761,HOLMAN CS,2502505,NT,-24.9,0,NA,-13.7,0,-37.4,0,NA,NA,NA,5.6,0,NA,17,1,NA,NA,NA,1328.6,0,2014_03
-125.254,71.993,SACHS HARBOUR CLIMATE,2503648,NT,-24,1,NA,-12.5,1,-36.5,0,NA,NA,NA,6,1,NA,4,1,NA,NA,NA,1259.2,0,2014_03
-119.538,73.231,THOMSEN RIVER,2503886,NT,-28.2,0,NA,-15.4,0,-39.8,0,NA,NA,NA,NA,NA,NA,NA,NA,NA,NA,NA,1432,0,2014_03
-112.967,54.283,ABEE AGDM,3010010,AB,-9.8,0,NA,8.5,0,-41.6,0,NA,NA,NA,2.4,7,NA,NA,1,NA,NA,NA,860.9,0,2014_03
-111.181,53.113,ALBERT HALL AGCM,3010060,AB,-8.5,0,NA,8.4,0,-39.3,0,NA,NA,NA,5.9,1,NA,NA,3,NA,NA,NA,822.9,0,2014_03
-111.779,52.315,ALLIANCE AGCM,3010162,AB,-8.5,0,NA,7.5,0,-38.9,0,NA,NA,NA,10.8,2,NA,NA,5,NA,NA,NA,820.1,0,2014_03
-112.233,54.017,ANDREW,3010234,AB,-8.9,3,-3.9,7,3,-37,3,5,3,NA,5,3,NA,NA,1,NA,NA,NA,752,0,2014_03
-112.279,53.917,ANDREW AGDM,3010237,AB,-9,0,NA,6.9,0,-38.8,0,NA,NA,NA,1.8,1,NA,NA,0,NA,NA,NA,836.1,0,2014_03
-111.465,52.582,BELLSHILL AGCM,3010650,AB,-8.2,0,NA,7.9,0,-35.4,0,NA,NA,NA,5,7,NA,NA,1,NA,NA,NA,812,0,2014_03
-110.101,52.124,BODO AGDM,3010730,AB,-8.1,0,NA,8.6,0,-36.5,0,NA,NA,NA,6.7,1,NA,NA,2,NA,NA,NA,809.1,0,2014_03
-114.483,53.167,BRETON,3010815,AB,-6.9,0,NA,13,0,-37.5,0,43.5,0,NA,0,0,NA,100,0,NA,NA,NA,773.3,0,2014_03
-114.441,53.089,BRETON PLOTS,3010816,AB,-7.3,0,NA,14.5,0,-37.5,0,NA,NA,NA,36.9,2,NA,NA,10,NA,NA,NA,784.3,0,2014_03
-113.889,53.997,BUSBY,3010978,AB,-6.8,4,NA,13,2,-35.5,2,9.6,1,NA,9.6,1,NA,0,4,NA,NA,NA,670.1,0,2014_03
-113.922,53.931,BUSBY AGCM,3010979,AB,-8.4,0,NA,11.3,0,-35.7,0,NA,NA,NA,14.8,1,NA,NA,7,NA,NA,NA,818.5,0,2014_03
-110.51,52.334,CADOGAN AGCM,3010992,AB,-8.1,0,NA,10.4,0,-36.7,0,NA,NA,NA,6.8,5,NA,NA,3,NA,NA,NA,809.9,0,2014_03
-112.817,53.05,CAMROSE,3011240,AB,-8.4,0,-4.3,11.2,0,-38.4,0,NA,NA,NA,7,0,31,5,2,NA,NA,NA,817.9,0,2014_03
-114.654,53.234,CARNWOOD,3011350,AB,-7.7,0,NA,15,0,-40.5,0,37,0,NA,37,0,NA,0,6,NA,NA,NA,797.9,0,2014_03
-110.713,51.937,CONSORT AGDM,3011815,AB,-8.8,0,NA,6.2,0,-39.6,0,NA,NA,NA,7.9,8,NA,NA,3,NA,NA,NA,832.3,0,2014_03
-111.449,52.074,CORONATION CLIMATE,3011887,AB,-9.5,5,NA,6.7,5,-39.8,5,NA,NA,NA,7.4,5,NA,6,2,NA,NA,NA,714.1,0,2014_03
-113.903,52.733,CRESTOMERE AGCM,3011892,AB,-8.6,0,NA,11.3,0,-38.9,0,NA,NA,NA,21.9,3,NA,NA,7,NA,NA,NA,824.5,0,2014_03
-113.95,52.75,DAKOTA WEST,3011953,AB,-6.6,3,-3.2,13,3,-36,3,37.4,3,NA,37.4,3,NA,50,6,NA,NA,NA,687.9,0,2014_03
-113.176,52.183,DELBURNE AGCM,3012050,AB,-5.5,11,NA,11.1,11,-18.9,11,NA,NA,NA,14.6,12,NA,NA,5,NA,NA,NA,469.9,0,2014_03
-110.588,53.659,DEWBERRY AGCM,3012073,AB,-8.8,0,NA,8.2,0,-36.8,0,NA,NA,NA,3.8,8,NA,NA,1,NA,NA,NA,831.8,0,2014_03
-112.351,52.517,DONALDA SOUTH,3012095,AB,-8.7,0,NA,8,0,-43,0,16,0,NA,16,0,NA,17,5,NA,NA,NA,829.1,0,2014_03
-110.433,52.778,EDGERTON AGCM,3012192,AB,-8.3,0,NA,9.3,0,-36.5,0,NA,NA,NA,4.6,4,NA,NA,2,NA,NA,NA,814.5,0,2014_03
-113.519,53.572,EDMONTON CITY CENTRE AWOS,3012202,AB,-6.6,2,NA,12.7,2,-30.4,2,NA,NA,NA,7,2,NA,NA,3,NA,NA,NA,712.8,0,2014_03
-113.606,53.307,EDMONTON INTERNATIONAL CS,3012206,AB,-9.1,0,NA,9.3,0,-39.1,0,NA,NA,NA,12.2,0,NA,1,5,NA,NA,NA,841.5,0,2014_03
-113.517,53.573,EDMONTON BLATCHFORD,3012209,AB,-6.7,0,NA,12,0,-29.9,0,NA,NA,NA,NA,NA,NA,NA,NA,NA,NA,NA,764.3,0,2014_03
-113.467,53.667,EDMONTON NAMAO AWOS A,3012212,AB,-8.2,3,NA,11.3,3,-34.6,3,NA,NA,NA,6,3,NA,NA,2,NA,NA,NA,734.9,0,2014_03
-113.579,53.31,EDMONTON INTL A,3012216,AB,-9.3,0,NA,8.8,0,-39,0,25.6,0,NA,22.7,0,NA,13,7,NA,NA,NA,846.8,0,2014_03
-113.856,53.668,EDMONTON VILLENEUVE A,3012229,AB,-7.4,0,NA,12.9,0,-36.6,0,NA,NA,NA,3.9,0,NA,NA,2,NA,NA,NA,787.2,0,2014_03
-114.108,53.548,EDMONTON STONY PLAIN,301222F,AB,-7,0,-4.3,14.5,0,-34.8,0,32.2,0,161,20.6,0,113,15,5,NA,NA,NA,775.7,0,2014_03
-113.75,53.417,EDMONTON WOODBEND,3012230,AB,-7.8,0,-4.4,13.5,0,-38,0,22.7,0,110,22.7,0,102,20,7,NA,NA,NA,798.4,0,2014_03
-112.868,53.683,ELK ISLAND NAT PARK,3012275,AB,-7,3,-1.9,14.9,3,-37.7,2,NA,NA,NA,5.8,3,NA,20,3,NA,NA,NA,699.5,0,2014_03
-111,52.967,FABYAN,3012515,AB,-8.5,0,-3.1,9,0,-38,0,6,0,38,6,0,34,0,4,NA,NA,NA,821.6,0,2014_03
-112.858,52.744,FERINTOSH AGCM,3012590,AB,-8,2,NA,9.3,2,-27.9,2,NA,NA,NA,10.5,9,NA,NA,4,NA,NA,NA,753.4,0,2014_03
-112.12,52.467,FORESTBURG PLANT SITE,3012652,AB,-7.2,0,-5.3,9.5,0,-40,0,18.5,0,136,18.5,0,118,0,6,NA,NA,NA,779.7,0,2014_03
-112.123,52.548,FORESTBURG AGCM,3012653,AB,-6.7,4,NA,7.7,4,-25.2,4,NA,NA,NA,5.6,8,NA,NA,2,NA,NA,NA,668.1,0,2014_03
-113.183,53.717,FORT SASKATCHEWAN,3012710,AB,-8,16,-4.3,10.5,16,-35,15,3,15,NA,3,15,NA,0,2,NA,NA,NA,390,0,2014_03
-110.621,53.071,GILT EDGE NORTH AGCM,3012790,AB,-7.9,0,NA,9.5,0,-37.6,0,NA,NA,NA,5,6,NA,NA,2,NA,NA,NA,804.2,0,2014_03
-114.539,53.833,GLENEVIS AGCM,3012818,AB,-7.4,1,NA,10.4,1,-34.2,0,NA,NA,NA,NA,NA,NA,NA,NA,NA,NA,NA,763.1,0,2014_03
-112.164,52.116,HALKIRK AGCM,3012999,AB,-7.7,4,NA,7.1,4,-38.4,2,NA,NA,NA,15.5,9,NA,NA,8,NA,NA,NA,693.1,0,2014_03
-111.212,51.78,HEMARUKA AGCM,3013140,AB,-9.7,0,NA,8.7,0,-40,0,NA,NA,NA,8.3,5,NA,NA,3,NA,NA,NA,860.2,0,2014_03
-112.246,53.185,HOLDEN AGDM,3013340,AB,-9.2,0,NA,7.3,0,-39.1,0,NA,NA,NA,NA,NA,NA,NA,NA,NA,NA,NA,842.3,0,2014_03
-110.784,52.578,HUGHENDEN AGCM,3013362,AB,-7.6,1,NA,8.3,1,-35.2,0,NA,NA,NA,6.7,4,NA,NA,2,NA,NA,NA,767.1,0,2014_03
-111.872,52.848,KILLAM AGDM,3013640,AB,-8.2,1,NA,8.6,1,-38.2,1,NA,NA,NA,20,8,NA,NA,8,NA,NA,NA,786.7,0,2014_03
-111.113,52.29,KESSLER AGCM,3013644,AB,-8.5,0,NA,8.9,0,-39.6,0,NA,NA,NA,7,11,NA,NA,2,NA,NA,NA,821.2,0,2014_03
-110.416,53.353,KITSCOTY AGCM,3013660,AB,-6.6,4,NA,7.1,3,-25.3,4,NA,NA,NA,2.2,14,NA,NA,1,NA,NA,NA,664.8,0,2014_03
-113.474,54.003,LEGAL AGCM,3013790,AB,-7.7,1,NA,8.9,1,-34.5,1,NA,NA,NA,3,9,NA,NA,0,NA,NA,NA,771.1,0,2014_03
-110.579,53.943,LINDBERGH AGDM,3013921,AB,-9.9,0,NA,7.6,0,-40,0,NA,NA,NA,30,3,NA,NA,9,NA,NA,NA,864.4,0,2014_03
-110.073,53.309,LLOYDMINSTER,3013959,AB,-9.5,2,NA,7.3,1,-36,1,NA,NA,NA,2.6,1,NA,NA,1,NA,NA,NA,796.2,0,2014_03
-110.073,53.309,LLOYDMINSTER A,3013961,AB,-8.7,1,-3,7.3,1,-36,1,8,1,NA,6.2,1,NA,0,3,NA,NA,NA,799.5,0,2014_03
-112.267,53.083,HOLDEN SOUTH,3013C44,AB,NA,NA,NA,NA,NA,NA,NA,12,0,71,12,0,67,10,6,NA,NA,NA,NA,NA,2014_03
-111.255,53.456,MANNVILLE AGCM,3014195,AB,-8.2,0,NA,8.9,0,-36.4,0,NA,NA,NA,3.6,1,NA,NA,2,NA,NA,NA,813.3,0,2014_03
-110.55,52.017,MONITOR,3014600,AB,NA,NA,NA,NA,NA,NA,NA,17.6,0,123,17.6,0,104,0,6,NA,NA,NA,NA,NA,2014_03
-112.3,53.567,MUNDARE AGDM,3014665,AB,-8.2,0,NA,8.8,0,-35.8,0,NA,NA,NA,6.8,5,NA,NA,2,NA,NA,NA,813.7,0,2014_03
-111.114,53.72,MYRNAM AGCM,3014690,AB,-6.6,4,NA,9,4,-33,4,NA,NA,NA,0.4,4,NA,NA,0,NA,NA,NA,664.4,0,2014_03
-113.165,53.262,NEW SEREPTA AGCM,3014795,AB,-8.7,0,NA,11.4,0,-36.7,0,NA,NA,NA,11.1,2,NA,NA,4,NA,NA,NA,826.2,0,2014_03
-113.35,53.65,OLIVER AGDM,3014921,AB,-7.9,0,NA,12.8,0,-38.3,0,NA,NA,NA,NA,NA,NA,NA,NA,NA,NA,NA,802.3,0,2014_03
-112.879,53.995,RADWAY AGCM,3015346,AB,-8.2,0,NA,9.2,0,-40.5,0,NA,NA,NA,NA,NA,NA,NA,NA,NA,NA,NA,812.9,0,2014_03
-111.726,53.425,RANFURLY AUTO,3015401,AB,-8.5,0,NA,6.8,0,-35.8,0,NA,NA,NA,13,0,NA,3,6,NA,NA,NA,822.4,0,2014_03
-111.733,53.417,RANFURLY 2NW,3015405,AB,-7.3,1,-2.5,9,1,-35,1,14,1,NA,14,1,NA,0,6,NA,NA,NA,759.5,0,2014_03
-110.343,52.587,RIBSTONE SOUTH AGCM,3015480,AB,-8,1,NA,9.4,1,-37.9,1,NA,NA,NA,6,7,NA,NA,2,NA,NA,NA,778.7,0,2014_03
-110.102,53.019,RIVERCOURSE AGCM,3015501,AB,-8.9,0,NA,7.8,0,-37.7,0,NA,NA,NA,3.3,5,NA,NA,1,NA,NA,NA,833.9,0,2014_03
-114.912,52.421,ROCKY MTN HOUSE (AUT),3015523,AB,-9.5,2,NA,11.7,2,-38.8,2,NA,NA,NA,28.4,2,NA,54,6,NA,NA,NA,796.7,0,2014_03
-112.428,52.78,ROSALIND AGCM,3015600,AB,-6.8,4,NA,8,4,-38.6,3,NA,NA,NA,9.8,16,NA,NA,4,NA,NA,NA,670.6,0,2014_03
-111.453,54.282,ST. LINA AGCM,3015673,AB,-6.6,3,NA,11.1,3,-31.8,3,NA,NA,NA,1.4,15,NA,NA,1,NA,NA,NA,689.9,0,2014_03
-111.272,54.011,ST. PAUL AGCM,3015676,AB,-10.3,0,NA,6.7,0,-42.4,0,NA,NA,NA,NA,NA,NA,NA,NA,NA,NA,NA,877.6,0,2014_03
-110.755,51.59,SEDALIA AGCM,3015797,AB,-9.5,1,NA,6.6,1,-39.3,1,NA,NA,NA,11,6,NA,NA,3,NA,NA,NA,825.9,0,2014_03
-111.7,52.783,SEDGEWICK TOWN,3015808,AB,-2.6,13,2.6,7,11,-18,11,0,11,NA,0,11,NA,0,0,NA,NA,NA,370,0,2014_03
-112.539,53.333,SHONTS AGCM,3015900,AB,-8.5,0,NA,9.5,0,-38.4,0,NA,NA,NA,8,8,NA,NA,3,NA,NA,NA,822.5,0,2014_03
-112.499,54.278,SMOKY LAKE AGDM,3016022,AB,-9.5,0,NA,9.5,0,-42,0,NA,NA,NA,1.1,5,NA,NA,1,NA,NA,NA,853.4,0,2014_03
-111.683,51.816,SPONDIN AGCM,3016070,AB,-9.7,0,NA,10.5,0,-39.9,0,NA,NA,NA,8.5,7,NA,NA,3,NA,NA,NA,857.5,0,2014_03
-112.596,52.347,STETTLER AGDM,3016124,AB,-8.5,0,NA,9.3,0,-35.3,0,NA,NA,NA,21.5,3,NA,NA,9,NA,NA,NA,820.1,0,2014_03
-113.895,53.217,THORSBY AGCM,3016441,AB,-8.4,0,NA,12.7,0,-37.3,0,NA,NA,NA,20.6,6,NA,NA,6,NA,NA,NA,819.7,0,2014_03
-114.718,53.439,TOMAHAWK AGDM,3016505,AB,-6.7,4,NA,14.4,4,-34.1,4,NA,NA,NA,35,11,NA,NA,12,NA,NA,NA,666.3,0,2014_03
-110.081,53.664,TULLIBY LAKE AGCM,3016593,AB,-9.7,0,NA,8,0,-37.7,0,NA,NA,NA,4.2,3,NA,NA,1,NA,NA,NA,858.5,0,2014_03
-113.033,53.5,UNCAS,3016650,AB,NA,NA,NA,NA,NA,NA,NA,22.2,0,NA,22.4,0,NA,22,6,NA,NA,NA,NA,NA,2014_03
-111.678,53.625,TWO HILLS AGDM,3016655,AB,-8.3,0,NA,6.8,0,-35,0,NA,NA,NA,4.2,11,NA,NA,1,NA,NA,NA,816.7,0,2014_03
-110.882,53.344,VERMILION AGDM,3016802,AB,-8.7,0,NA,8.6,0,-37.5,0,NA,NA,NA,5.8,4,NA,NA,1,NA,NA,NA,827.7,0,2014_03
-111.732,53.182,VIKING AGCM,3016841,AB,-6.2,4,NA,8.1,4,-35.6,2,NA,NA,NA,5.7,8,NA,NA,1,NA,NA,NA,654.2,0,2014_03
-111.767,53.283,VIKING NORTH 3,3016845,AB,-9,2,NA,9,1,-39,1,7.7,1,NA,7.7,1,NA,18,5,NA,NA,NA,782.1,0,2014_03
-111.921,54.13,VILNA AGCM,3016852,AB,-8.8,0,NA,8.9,0,-41.2,0,NA,NA,NA,3.1,5,NA,NA,1,NA,NA,NA,830.4,0,2014_03
-115.126,53.144,VIOLET GROVE CS,3016860,AB,-6.8,0,NA,15.7,0,-33.8,0,NA,NA,NA,29.3,0,NA,50,8,NA,NA,NA,769.8,0,2014_03
-112.098,53.505,VEGREVILLE,3016GF0,AB,-8.7,0,-3.6,8.6,0,-41,0,NA,NA,NA,NA,NA,NA,NA,NA,NA,NA,NA,829,0,2014_03
-113.444,52.98,WETASKIWIN AGCM,3017282,AB,-7.9,2,NA,11.7,2,-37.9,0,NA,NA,NA,10.6,16,NA,NA,3,NA,NA,NA,750.4,0,2014_03
-114.108,53.547,EDMONTON STONY PLAIN CS,301A001,AB,-7.1,0,NA,14.5,0,-33.9,0,NA,NA,NA,17.8,0,NA,17,6,NA,NA,NA,778.4,0,2014_03
-110.206,51.67,ESTHER 1,301B460,AB,-8.6,0,NA,9,0,-41.1,0,NA,NA,NA,10.4,0,NA,NA,4,NA,NA,NA,823.3,0,2014_03
-113.533,53.517,UNIVERSITY OF ALBERTA METABOLIC CENTRE,301FFNJ,AB,-6.2,8,-2.2,13,5,-35,6,19,0,145,19,0,141,0,5,NA,NA,NA,556.3,0,2014_03
-111.096,52.829,WAINWRIGHT CFB AIRFIELD 21,301S001,AB,-8.5,0,NA,8.3,0,-38.9,0,NA,NA,NA,9.8,0,NA,2,3,NA,NA,NA,822.8,0,2014_03
-110.317,51.066,ACADIA VALLEY,3020035,AB,-7.3,0,NA,11.6,0,-35.9,0,NA,NA,NA,14.1,5,NA,NA,4,NA,NA,NA,782.8,0,2014_03
-111.006,50.81,ATLEE AGCM,3020405,AB,-6.6,0,NA,12.5,0,-34.2,0,NA,NA,NA,13.5,3,NA,NA,6,NA,NA,NA,764,0,2014_03
-113.357,51.379,BEISEKER AGCM,3020610,AB,-7.8,4,NA,8.6,4,-38.6,4,NA,NA,NA,5.5,9,NA,NA,3,NA,NA,NA,697.2,0,2014_03
-112.803,51.998,BIG VALLEY AGCM,3020679,AB,-7.9,1,NA,9.2,1,-33.6,1,NA,NA,NA,6.9,7,NA,NA,3,NA,NA,NA,777.2,0,2014_03
-112.252,51.775,CRAIGMYLE AGCM,3021912,AB,-9.3,0,NA,7.5,0,-37.5,0,NA,NA,NA,13.6,3,NA,NA,5,NA,NA,NA,845.6,0,2014_03
-112.283,51.767,CRAIGMYLE,3021940,AB,-9.6,0,-6.7,8,0,-41,0,68.5,0,316,68.5,0,298,0,12,NA,NA,NA,856.9,0,2014_03
-112.677,51.445,DRUMHELLER EAST,30221LG,AB,-6.9,0,NA,12.8,0,-35.8,0,NA,NA,NA,NA,NA,NA,NA,NA,NA,NA,NA,770.8,0,2014_03
-114.486,52.31,HESPERO AGCM,3023200,AB,-7.9,2,NA,13.9,2,-37.4,1,NA,NA,NA,24.5,7,NA,NA,6,NA,NA,NA,751.4,0,2014_03
-112.5,51.183,HUSSAR AGDM,3023402,AB,-8.6,0,NA,10.4,0,-34.1,0,NA,NA,NA,8.7,2,NA,NA,3,NA,NA,NA,823.2,0,2014_03
-113.756,52.449,LACOMBE CDA 2,3023722,AB,-8.5,0,NA,12.9,0,-38.9,0,NA,NA,NA,25.5,0,NA,NA,7,NA,NA,NA,822,0,2014_03
-114.473,52.553,LEEDALE AGDM,3023740,AB,-9.3,0,NA,11.4,0,-40.6,0,NA,NA,NA,24.1,4,NA,3,8,NA,NA,NA,847.2,0,2014_03
-113.656,51.619,LINDEN AGCM,3023850,AB,-9.1,0,NA,9.5,0,-40,0,NA,NA,NA,20.4,1,NA,NA,7,NA,NA,NA,839.1,0,2014_03
-112.675,51.66,MORRIN AGDM,3024668,AB,-8.7,0,NA,9.6,0,-38.5,0,NA,NA,NA,15.1,7,NA,NA,4,NA,NA,NA,826.9,0,2014_03
-114.1,51.783,OLDS,3024920,AB,-8.3,0,-5.1,11.6,0,-35.8,0,41.5,0,196,41.5,0,180,64,9,NA,NA,NA,814.7,0,2014_03
-114.085,51.759,OLDS AGDM,3024925,AB,-8.9,0,NA,8.4,0,-37,0,NA,NA,NA,31.5,1,NA,NA,12,NA,NA,NA,832.4,0,2014_03
-110.472,51.353,OYEN CARA,3024962,AB,-9,4,NA,8,3,-35.5,3,2,2,NA,12,2,NA,0,2,NA,NA,NA,729.5,0,2014_03
-110.35,51.383,OYEN AGDM,3024965,AB,-8.4,0,NA,7,0,-37,0,NA,NA,NA,8.7,4,NA,NA,3,NA,NA,NA,819.1,0,2014_03
-111.705,51.125,POLLOCKVILLE AGDM,3025243,AB,-8.1,0,NA,10,0,-39.3,0,NA,NA,NA,6.2,12,NA,NA,2,NA,NA,NA,807.9,0,2014_03
-113.6,52.433,PRENTISS,3025297,AB,-16,22,NA,10.5,22,-35,22,NA,NA,NA,17,24,NA,NA,3,NA,NA,NA,306,0,2014_03
-113.893,52.179,RED DEER A,3025480,AB,-9,0,-5.4,10,0,-36.1,0,44.8,0,219,32.2,0,170,41,7,NA,NA,NA,838.1,0,2014_03
-110.091,50.307,SCHULER AGDM,3025768,AB,-5.2,2,NA,12.6,2,-35.3,2,NA,NA,NA,12.7,3,NA,NA,5,NA,NA,NA,672.5,0,2014_03
-110.146,51.425,SIBBALD WESTGARD,3025928,AB,-8.5,0,NA,8,0,-41,0,28,0,NA,28,0,NA,4,6,NA,NA,NA,820.6,0,2014_03
-112.959,51.492,SLEEPY HOLLOW,3026009,AB,-4.5,22,-1.3,11,16,-40,17,32,16,NA,32,16,NA,0,7,NA,NA,NA,202.3,0,2014_03
-113.206,51.768,THREE HILLS,3026479,AB,-8.2,1,NA,7.9,1,-38.4,0,NA,NA,NA,13.1,7,NA,NA,4,NA,NA,NA,785.4,0,2014_03
-114.683,51.778,SUNDRE A,3026KNQ,AB,-8.5,0,NA,14.6,0,-38.7,0,NA,NA,NA,19.6,0,NA,26,5,NA,NA,NA,821.2,0,2014_03
-113.591,51.936,WIMBORNE AGCM,3027582,AB,-5.3,6,NA,12.1,3,-24.6,5,NA,NA,NA,14.8,11,NA,NA,5,NA,NA,NA,581.3,0,2014_03
-114.013,50.512,AZURE,3030450,AB,-6.7,0,NA,13.3,0,-35.5,0,NA,NA,NA,16.9,3,NA,NA,8,NA,NA,NA,764.7,0,2014_03
-112.3,49.8,BARNWELL AGDM,3030525,AB,-4.6,0,NA,14.8,0,-31.8,0,NA,NA,NA,11.6,11,NA,NA,4,NA,NA,NA,700.9,0,2014_03
-113.224,50.026,BARONS AGCM,3030529,AB,-5.8,0,NA,15,0,-33.1,0,NA,NA,NA,13.2,5,NA,NA,7,NA,NA,NA,739.3,0,2014_03
-112.465,50.893,BASSANO AGCM,3030540,AB,-7.3,1,NA,11.3,1,-38.5,1,NA,NA,NA,8.4,6,NA,NA,5,NA,NA,NA,758.9,0,2014_03
-114.152,50.707,BLACK DIAMOND,3030680,AB,-7.6,1,NA,12.5,1,-36.9,1,NA,NA,NA,12.5,10,NA,NA,5,NA,NA,NA,768.9,0,2014_03
-113.05,49.567,BLOOD TRIBE AGDM,3030720,AB,-5.1,2,NA,14.2,2,-33.1,1,NA,NA,NA,17.2,7,NA,NA,4,NA,NA,NA,669.5,0,2014_03
-111.45,49.734,BOW ISLAND,3030768,AB,-4.1,0,NA,13.9,0,-29.5,0,NA,NA,NA,21.1,0,NA,NA,6,NA,NA,NA,686,0,2014_03
-111.366,49.868,BOW ISLAND IRRIGATION AGDM,3030772,AB,-4,3,NA,14.5,3,-29.8,3,NA,NA,NA,19.1,8,NA,NA,6,NA,NA,NA,617.2,0,2014_03
-113.817,49.617,BROCKET AGDM,3030830,AB,-4.9,0,NA,11.7,0,-33.5,0,NA,NA,NA,26.1,0,NA,NA,6,NA,NA,NA,708.4,0,2014_03
-111.849,50.555,BROOKS,3030QLP,AB,-6.1,0,NA,13.5,0,-33,0,NA,NA,NA,11.1,0,NA,3,5,NA,NA,NA,746.1,0,2014_03
-114.013,51.123,CALGARY INTL A,3031092,AB,-6.7,0,NA,14.7,0,-30.4,0,36.2,0,NA,17.5,0,NA,10,6,NA,NA,NA,765.8,0,2014_03
-114,51.109,CALGARY INT'L CS,3031094,AB,-7,1,NA,14.8,1,-30.2,0,NA,NA,NA,12.5,1,NA,10,4,NA,NA,NA,749.7,0,2014_03
-113.286,49.201,CARDSTON,3031322,AB,-4.6,0,NA,13.8,0,-35.7,0,NA,NA,NA,22.6,0,NA,NA,5,NA,NA,NA,700,0,2014_03
-113.376,49.001,CARWAY,3031402,AB,-5.6,1,NA,10.4,1,-33.6,1,NA,NA,NA,20,0,NA,NA,8,NA,NA,NA,708.7,0,2014_03
-113.35,50.282,CHAMPION AGDM,3031480,AB,-6.3,1,NA,15.7,1,-33.1,1,NA,NA,NA,4.1,10,NA,NA,1,NA,NA,NA,730.3,0,2014_03
-113.639,50.004,CLARESHOLM,3031640,AB,-5.1,0,NA,15.8,0,-33.8,0,NA,NA,NA,14.1,0,NA,3,6,NA,NA,NA,715.9,0,2014_03
-114.222,51.076,COP UPPER,3031875,AB,-4.9,2,NA,13.4,2,-24.4,2,NA,NA,NA,17.7,2,NA,NA,8,NA,NA,NA,664.6,0,2014_03
-112.433,50.183,ENCHANT AGDM,3032422,AB,-5,0,NA,15.3,0,-30.6,0,NA,NA,NA,15.5,6,NA,NA,7,NA,NA,NA,712.8,0,2014_03
-111.054,49.553,ETZIKOM AGCM,3032450,AB,-4.5,0,NA,14.6,0,-32.5,0,NA,NA,NA,6.5,6,NA,NA,3,NA,NA,NA,698.8,0,2014_03
-112.033,49.8,FINCASTLE AGDM,3032550,AB,-4.3,0,NA,14.9,0,-30.5,0,NA,NA,NA,18.5,7,NA,NA,6,NA,NA,NA,690.2,0,2014_03
-111.486,49.483,FOREMOST AGDM,3032642,AB,-4.4,0,NA,14.8,0,-31.2,0,NA,NA,NA,7.3,13,NA,NA,2,NA,NA,NA,695,0,2014_03
-113.379,49.786,FORT MACLEOD AGCM,3032683,AB,-5.2,1,NA,12.7,1,-34.7,0,NA,NA,NA,8,4,NA,NA,4,NA,NA,NA,696.1,0,2014_03
-112.941,50.934,GLEICHEN AGCM,3032801,AB,-7.8,0,NA,9.2,0,-34.6,0,NA,NA,NA,8.6,5,NA,NA,3,NA,NA,NA,798.4,0,2014_03
-113.524,49.334,GLENWOOD,3032818,AB,-6.3,2,NA,12.5,1,-37,1,NA,NA,NA,14,13,NA,NA,5,NA,NA,NA,705.9,0,2014_03
-111.733,49.874,GRASSY LAKE,3032927,AB,-4.2,0,NA,15.4,0,-31.2,0,NA,NA,NA,18.6,4,NA,NA,7,NA,NA,NA,687.1,0,2014_03
-112.733,49.9,IRON SPRINGS AGDM,3033498,AB,-4.8,0,NA,13.2,0,-32,0,NA,NA,NA,4.3,20,NA,NA,1,NA,NA,NA,707,0,2014_03
-110.261,49.989,IRVINE AGCM,3033550,AB,-4.7,1,NA,13.6,1,-31.8,0,NA,NA,NA,9.6,10,NA,NA,3,NA,NA,NA,680.7,0,2014_03
-112.799,49.63,LETHBRIDGE,3033875,AB,-5.3,3,NA,14.2,3,-32.5,3,NA,NA,NA,5.7,3,NA,NA,3,NA,NA,NA,652.6,0,2014_03
-112.768,49.695,LETHBRIDGE CDA,3033890,AB,-3.9,0,NA,14.4,0,-32.2,0,NA,NA,NA,0,14,NA,NA,0,NA,NA,NA,680.2,0,2014_03
-112.783,49.7,LETHBRIDGE CDA 2,3033892,AB,NA,NA,NA,NA,NA,NA,NA,15.1,0,NA,27.4,0,NA,0,11,NA,NA,NA,NA,NA,2014_03
-112.75,49.683,LETHBRIDGE DEMO FARM AGDM,3033897,AB,-3.7,2,NA,14.2,2,-32.8,2,NA,NA,NA,20.7,4,NA,NA,7,NA,NA,NA,629.6,0,2014_03
-110.721,50.019,MEDICINE HAT,3034479,AB,-4.2,1,NA,14.3,1,-30.3,1,NA,NA,NA,13.2,1,NA,NA,5,NA,NA,NA,666.3,0,2014_03
-110.717,50.025,MEDICINE HAT RCS,3034485,AB,-4.1,0,NA,14.4,0,-30.2,0,NA,NA,NA,23.3,1,NA,0,6,NA,NA,NA,686.6,0,2014_03
-113.349,50.673,MOSSLEIGH AGCM,3034577,AB,-7.6,0,NA,12.2,0,-37.7,0,NA,NA,NA,12.9,1,NA,NA,3,NA,NA,NA,792.2,0,2014_03
-113.594,49.132,MOUNTAIN VIEW VILLAGE,3034725,AB,-5.3,6,NA,11,6,-36,6,55.8,6,NA,55.8,6,NA,6,9,NA,NA,NA,582.6,0,2014_03
-114.099,51.369,NIER AGDM,3034795,AB,-7.3,0,NA,11.2,0,-32.5,0,NA,NA,NA,11.7,3,NA,NA,5,NA,NA,NA,784.4,0,2014_03
-113.997,49.521,PINCHER CREEK,3035198,AB,-7.3,3,NA,10.2,3,-34.5,3,NA,NA,NA,23.8,3,NA,NA,8,NA,NA,NA,708.3,0,2014_03
-114.005,49.522,PINCHER CREEK CLIMATE,3035208,AB,-6.2,0,NA,9.9,0,-34.8,0,NA,NA,NA,36.2,0,NA,4,14,NA,NA,NA,751.6,0,2014_03
-112.983,50.606,QUEENSTOWN,3035340,AB,-7,0,-5.9,13.5,0,-35.5,0,23,0,98,23,0,91,0,7,NA,NA,NA,775.5,0,2014_03
-112.803,50.598,QUEENSTOWN,3035342,AB,-7.5,0,NA,12.2,0,-35.4,0,NA,NA,NA,15.9,0,NA,NA,5,NA,NA,NA,792,0,2014_03
-112.683,49.483,RAYMOND AGDM,3035422,AB,-3.7,2,NA,12.8,2,-33.8,1,NA,NA,NA,19.7,7,NA,NA,3,NA,NA,NA,629.5,0,2014_03
-111.701,50.265,ROLLING HILLS AGCM,3035530,AB,-5.6,0,NA,15.6,0,-33.4,0,NA,NA,NA,5,11,NA,NA,1,NA,NA,NA,730.8,0,2014_03
-112.05,50.833,ROSEMARY AGDM,3035650,AB,-7.4,1,NA,13.1,1,-38.6,1,NA,NA,NA,13.1,11,NA,NA,5,NA,NA,NA,762.2,0,2014_03
-110.917,49.917,SEVEN PERSONS AGDM,3035845,AB,-4.3,3,NA,14,3,-31.7,3,NA,NA,NA,18.5,7,NA,NA,6,NA,NA,NA,625.2,0,2014_03
-112.982,51.228,STANDARD AGCM,3036086,AB,-7.4,0,NA,11.6,0,-34.5,0,NA,NA,NA,11.1,1,NA,NA,6,NA,NA,NA,788,0,2014_03
-113.883,50.183,STAVELY AAFC,3036099,AB,-6.9,2,NA,12.8,2,-33.2,2,NA,NA,NA,19.9,2,NA,NA,6,NA,NA,NA,722,0,2014_03
-113.283,51.033,STRATHMORE AGDM,3036205,AB,-7.5,2,NA,10.9,2,-33.3,2,NA,NA,NA,10.3,8,NA,NA,4,NA,NA,NA,739.6,0,2014_03
-112.124,49.792,TABER,3036360,AB,-3.8,14,NA,15.5,9,-30,10,45,9,NA,45,9,NA,0,7,NA,NA,NA,370.9,0,2014_03
-112.863,50.304,TRAVERS AGCM,3036500,AB,-3.9,5,NA,14.4,5,-34.9,5,NA,NA,NA,11.8,7,NA,NA,5,NA,NA,NA,568.1,0,2014_03
-112.133,50.05,VAUXHALL CDA CS,3036682,AB,-4.6,0,NA,14.5,0,-30.1,0,NA,NA,NA,12.9,0,NA,NA,5,NA,NA,NA,699.6,0,2014_03
-114.721,51.269,WILDCAT HILLS,3037550,AB,-7.8,0,NA,12,0,-37,0,31.6,0,NA,31.6,0,NA,11,11,NA,NA,NA,800.3,0,2014_03
-112.117,49.5,WRENTHAM AGDM,3037675,AB,-0.2,13,NA,13.3,12,-20.1,12,NA,NA,NA,8.1,18,NA,NA,4,NA,NA,NA,328,0,2014_03
-113.961,50.729,OKOTOKS,303M9JM,AB,-6.2,0,-4.8,14.5,0,-34.5,0,23.2,0,86,23.6,0,83,19,7,NA,NA,NA,750.8,0,2014_03
-112.817,49.05,DEL BONITA AGDM,3042045,AB,-5.6,2,NA,11.5,2,-33.9,1,NA,NA,NA,16.7,2,NA,NA,5,NA,NA,NA,685.8,0,2014_03
-110.678,49.364,MANYBERRIES AGCM,3044203,AB,-4.5,2,NA,11.5,2,-34.5,1,NA,NA,NA,11.8,10,NA,NA,4,NA,NA,NA,651.4,0,2014_03
-111.652,49.137,MASINASIN AGDM,3044232,AB,-4.3,0,NA,15,0,-31.4,0,NA,NA,NA,21.8,0,NA,0,9,NA,NA,NA,692.7,0,2014_03
-112.05,49.133,MILK RIVER,3044533,AB,-5.3,0,NA,15.5,0,-33.7,0,NA,NA,NA,17.2,0,NA,5,7,NA,NA,NA,720.8,0,2014_03
-112.538,49.284,MILK RIVER RIDGE RESERVOIR,3044545,AB,-6.7,5,NA,11.1,5,-35.5,5,NA,NA,NA,10.9,17,NA,NA,4,NA,NA,NA,642,0,2014_03
-110.467,49.117,ONEFOUR CDA,3044923,AB,-5,2,NA,13.7,2,-31.2,2,NA,NA,NA,13.7,2,NA,2,7,NA,NA,NA,666.9,0,2014_03
-111.126,49.225,PAKOWKI LAKE AGCM,3045000,AB,-4.4,0,NA,13.9,0,-31.2,0,NA,NA,NA,10.4,3,NA,NA,3,NA,NA,NA,695.8,0,2014_03
-115.552,51.193,BANFF CS,3050519,AB,-5.9,0,NA,8.2,0,-35.2,0,NA,NA,NA,39.5,0,NA,34,12,NA,NA,NA,741.1,0,2014_03
-114.175,49.468,BEAVER MINES,3050602,AB,-6,0,NA,9,0,-36,0,NA,NA,NA,52,0,NA,11,14,NA,NA,NA,742.9,0,2014_03
-115.067,51.083,BOW VALLEY,3050778,AB,-6.3,0,NA,12,0,-37,0,NA,NA,NA,18.4,0,NA,NA,5,NA,NA,NA,753.1,0,2014_03
-114.482,49.628,CROWSNEST,3051R4R,AB,-5.3,0,NA,10.9,0,-30.8,0,NA,NA,NA,NA,NA,NA,NA,NA,NA,NA,NA,723.2,0,2014_03
-118.03,52.926,JASPER WARDEN,3053536,AB,-5.6,1,NA,10.3,1,-30.9,1,NA,NA,NA,28.9,1,NA,21,11,NA,NA,NA,707.9,0,2014_03
-115.035,51.028,KANANASKIS,3053600,AB,-5.7,0,-4.1,11.5,0,-37.5,0,49.5,0,119,44.2,0,109,29,11,NA,NA,NA,735.2,0,2014_03
-115.12,50.713,KANANASKIS POCATERRA,3053604,AB,-5.8,21,-1.8,8,13,-25,14,61.5,13,NA,61.5,13,NA,NA,10,NA,NA,NA,237.5,0,2014_03
-116.04,52.492,NORDEGG CS,3054843,AB,-6.8,12,NA,12.8,10,-38.7,10,NA,NA,NA,0.2,16,NA,NA,0,NA,NA,NA,470.4,0,2014_03
-114.416,50.368,PEKISKO,3055119,AB,-7.7,0,NA,11.4,0,-39.8,0,NA,NA,NA,29.6,1,NA,87,8,NA,NA,NA,795.9,0,2014_03
-113.11,49.361,ST. MARY RESERVOIR,3056100,AB,-5.6,1,NA,11,1,-32,1,NA,NA,NA,15.1,8,NA,NA,6,NA,NA,NA,709.4,0,2014_03
-113.809,49.131,WATERTON PARK GATE,3056214,AB,-5.1,0,NA,9.3,0,-31.7,0,NA,NA,NA,67.2,0,NA,NA,18,NA,NA,NA,716.4,0,2014_03
-115.19,50.943,NAKISKA RIDGETOP,305MGFF,AB,-8.7,2,NA,0.8,2,-33.2,1,NA,NA,NA,NA,NA,NA,NA,NA,NA,NA,NA,774.5,0,2014_03
-113.382,54.635,ATHABASCA AGCM,3060330,AB,-7.6,0,NA,11.7,0,-38.2,0,NA,NA,NA,2.9,1,NA,NA,2,NA,NA,NA,792.8,0,2014_03
-112.825,54.782,ATMORE AGDM,3060406,AB,-8.5,0,NA,9.6,0,-41.3,0,NA,NA,NA,1.4,7,NA,17,1,NA,NA,NA,823,0,2014_03
-114.448,54.095,BARRHEAD CS,3060535,AB,-7.8,1,NA,13.6,1,-40.4,1,NA,NA,NA,6.6,1,NA,10,3,NA,NA,NA,774.6,0,2014_03
-117.867,53.35,BRULE BLACK CAT,3060903,AB,-6.2,0,-3.6,13,0,-37,0,56.4,0,232,57.4,0,212,40,11,NA,NA,NA,750.6,0,2014_03
-114.678,54.131,CAMPSIE AUTO,3061201,AB,-8.3,0,NA,14.5,0,-41.6,0,NA,NA,NA,8,0,NA,9,4,NA,NA,NA,815.5,0,2014_03
-113.95,54.317,DAPP AGDM,3061975,AB,-8.6,1,NA,9.6,1,-40,1,NA,NA,NA,4.3,2,NA,NA,2,NA,NA,NA,797.3,0,2014_03
-116.465,53.579,EDSON,3062239,AB,-8.1,0,NA,13.3,0,-34,0,NA,NA,NA,12.5,1,NA,NA,4,NA,NA,NA,807.8,0,2014_03
-116.453,53.58,EDSON CLIMATE,3062246,AB,-7.9,0,NA,12.3,0,-33.9,0,NA,NA,NA,40.6,0,NA,35,12,NA,NA,NA,803.4,0,2014_03
-114.983,53.6,ENTWISTLE,3062451,AB,-10.2,10,-7.4,10.8,10,-37,10,39,10,NA,39,10,NA,47,8,NA,NA,NA,592,0,2014_03
-115.124,53.573,EVANSBURG AGCM,3062475,AB,-7.8,0,NA,15,0,-35.6,0,NA,NA,NA,22.9,2,NA,NA,6,NA,NA,NA,799.2,0,2014_03
-114.769,54.41,FORT ASSINIBOINE AGCM,3062660,AB,-7,0,NA,13.4,0,-37.5,0,NA,NA,NA,6.8,3,NA,NA,2,NA,NA,NA,774.4,0,2014_03
-111.213,56.651,FORT MCMURRAY CS,3062696,AB,-11.2,1,NA,10.8,1,-39,1,NA,NA,NA,14,1,NA,14,4,NA,NA,NA,877.1,0,2014_03
-111.223,56.653,FORT MCMURRAY A,3062697,AB,-11.4,0,NA,10.9,0,-37.7,0,NA,NA,NA,8.5,0,NA,NA,3,NA,NA,NA,911.2,0,2014_03
-118.447,53.795,HENDRICKSON CREEK,3063135,AB,-9.9,0,NA,9.4,0,-37.7,0,NA,NA,NA,48.1,0,NA,109,9,NA,NA,NA,866.3,0,2014_03
-116.479,55.396,HIGH PRAIRIE AGDM,3063165,AB,-7.8,1,NA,9.7,1,-38.5,0,NA,NA,NA,9.3,10,NA,NA,5,NA,NA,NA,774,0,2014_03
-112.024,54.769,LAC LA BICHE CLIMATE,3063686,AB,-8.7,0,NA,9.5,0,-41.6,0,NA,NA,NA,4.3,0,NA,NA,1,NA,NA,NA,826.2,0,2014_03
-111.559,57.041,MILDRED LAKE,3064528,AB,-9.5,2,NA,9.1,2,-35.6,2,NA,NA,NA,18.4,2,NA,3,7,NA,NA,NA,797,0,2014_03
-111.7,54.5,RICH LAKE AGDM,3065475,AB,-9.6,1,NA,10.5,1,-41.9,1,NA,NA,NA,2.2,8,NA,NA,0,NA,NA,NA,827.3,0,2014_03
-114.777,55.293,SLAVE LAKE,3065995,AB,-7.8,0,NA,11.1,0,-35,0,NA,NA,NA,3,1,NA,NA,1,NA,NA,NA,800.9,0,2014_03
-114.777,55.293,SLAVE LAKE RCS,3065997,AB,-7.7,1,NA,11.1,1,-35.2,1,NA,NA,NA,4.7,2,NA,1,2,NA,NA,NA,772.2,0,2014_03
-114.777,55.293,SLAVE LAKE AWOS A,3066002,AB,-8.5,1,NA,11.1,1,-35.1,1,NA,NA,NA,4.5,1,NA,NA,1,NA,NA,NA,794.5,0,2014_03
-113.52,54.3,TAWATINAW AGCM,3066367,AB,-8.1,0,NA,9.5,0,-34.7,0,NA,NA,NA,2.7,7,NA,NA,1,NA,NA,NA,809.1,0,2014_03
-115.784,54.14,WHITECOURT,3067371,AB,-6.5,0,NA,14.8,0,-33.5,0,NA,NA,NA,NA,NA,NA,NA,NA,NA,NA,NA,760.2,0,2014_03
-115.787,54.144,WHITECOURT A,3067372,AB,-7.1,0,-4.2,14.2,0,-33.6,0,NA,NA,NA,21.2,0,101,27,5,NA,NA,NA,777.8,0,2014_03
-118.348,53.386,WILLOW CREEK 1,306GE70,AB,-6.5,26,NA,6.6,26,-16.5,24,NA,NA,NA,3.4,24,NA,NA,1,NA,NA,NA,122.7,0,2014_03
-117.209,55.578,BALLATER,3070493,AB,-9.6,4,-4.7,8.3,4,-33,4,1.4,4,NA,2.2,4,NA,4,0,NA,NA,NA,745.2,0,2014_03
-119.396,55.197,BEAVERLODGE RCS,3070600,AB,-8,1,NA,7.7,0,-30,1,NA,NA,NA,2.4,23,NA,7,1,NA,NA,NA,779.2,0,2014_03
-117.886,56.118,BROWNVALE AGCM,3070800,AB,-9.5,1,NA,6.5,1,-39.4,1,NA,NA,NA,13.4,5,NA,NA,4,NA,NA,NA,823.7,0,2014_03
-117.887,55.808,EAGLESHAM AGCM,3072151,AB,-9.4,0,NA,7.4,0,-36.7,0,NA,NA,NA,7.3,13,NA,NA,2,NA,NA,NA,850.5,0,2014_03
-110.439,58.981,EGG ISLAND,3072246,AB,-19,0,NA,-3,0,-37.8,0,NA,NA,NA,NA,NA,NA,NA,NA,NA,NA,NA,1146.5,0,2014_03
-118.439,56.081,FAIRVIEW AGDM,3072525,AB,-10.5,0,NA,6.6,0,-34.7,0,NA,NA,NA,6.2,3,NA,NA,3,NA,NA,NA,882.1,0,2014_03
-111.117,58.767,FORT CHIPEWYAN,3072655,AB,-17.6,4,NA,3.3,3,-41.3,4,NA,NA,NA,1.9,5,NA,NA,1,NA,NA,NA,960.3,0,2014_03
-111.117,58.767,FORT CHIPEWYAN RCS,3072659,AB,-17.6,0,NA,3.3,0,-41.7,0,NA,NA,NA,52.7,0,NA,38,20,NA,NA,NA,1103.8,0,2014_03
-116.04,58.382,FORT VERMILION,3072723,AB,-10.9,1,NA,10.7,1,-38.6,0,NA,NA,NA,8.7,1,NA,0,1,NA,NA,NA,868.2,0,2014_03
-118.885,55.18,GRANDE PRAIRIE A,3072921,AB,-9.5,0,NA,7.6,0,-34.5,0,16.4,0,NA,10.4,0,NA,NA,4,NA,NA,NA,852,0,2014_03
-117.298,57.265,HAWK HILLS AGCM,3073071,AB,-11.8,0,NA,10,0,-40.4,0,NA,NA,NA,14.3,1,NA,NA,7,NA,NA,NA,923.1,0,2014_03
-117.165,58.622,HIGH LEVEL,3073140,AB,-13.6,2,NA,7.2,2,-39.9,2,NA,NA,NA,0,2,NA,NA,0,NA,NA,NA,916.1,0,2014_03
-117.165,58.621,HIGH LEVEL A,3073146,AB,-13.4,0,-4,9.3,0,-39.3,0,18.8,0,88,14.2,0,78,41,4,NA,NA,NA,971.9,0,2014_03
-117.12,55.913,JEAN COTE AGCM,3073535,AB,-8.3,2,NA,6.3,2,-33.1,1,NA,NA,NA,3.5,11,NA,NA,2,NA,NA,NA,762.5,0,2014_03
-116.343,58.172,LA CRETE AGCM,3073730,AB,-11.6,0,NA,9.8,0,-36.9,0,NA,NA,NA,13.3,1,NA,NA,4,NA,NA,NA,918.6,0,2014_03
-119.255,55.422,LA GLACE AGCM,3073740,AB,-10.2,1,NA,11.5,1,-36.3,1,NA,NA,NA,16.4,2,NA,NA,3,NA,NA,NA,845.3,0,2014_03
-117.451,56.974,MANNING AGDM,3074190,AB,-11.9,3,NA,8,3,-41.8,2,NA,NA,NA,34.4,11,NA,NA,15,NA,NA,NA,837.6,0,2014_03
-119.745,56.314,CLEARDALE AGDM,3074935,AB,-8.9,1,NA,8,1,-33.5,1,NA,NA,NA,35.8,9,NA,NA,10,NA,NA,NA,808,0,2014_03
-117.447,56.227,PEACE RIVER A,3075040,AB,-8.8,0,-3.2,7.3,0,-37,0,7.4,1,NA,8.3,0,54,1,3,NA,NA,NA,831.9,0,2014_03
-118.293,55.621,PEORIA AGDM,3075160,AB,-7.8,3,NA,9.4,3,-35.4,0,NA,NA,NA,2.4,17,NA,NA,1,NA,NA,NA,722.5,0,2014_03
-115.278,56.552,RED EARTH,3075488,AB,-9.1,0,NA,10.3,0,-39.3,0,NA,NA,NA,30.4,1,NA,NA,14,NA,NA,NA,841.2,0,2014_03
-118.668,55.777,RYCROFT AGCM,3075601,AB,-8,3,NA,9.6,3,-39.1,1,NA,NA,NA,6.4,10,NA,NA,1,NA,NA,NA,727.9,0,2014_03
-119.345,56.076,SAVANNA AGCM,3075770,AB,-8.2,2,NA,6.6,2,-33.7,0,NA,NA,NA,16.9,7,NA,NA,3,NA,NA,NA,760.7,0,2014_03
-117.741,54.425,SIMONETTE,3075937,AB,-12.6,20,-9.5,13,12,-40,12,10,12,NA,10,12,NA,NA,3,NA,NA,NA,337,0,2014_03
-119.23,55.695,SPIRIT RIVER AUTO STATION,3076069,AB,-8.8,0,NA,7.8,0,-29,0,NA,NA,NA,36.4,1,NA,89,6,NA,NA,NA,830.8,0,2014_03
-118.408,55.352,TEEPEE CREEK AGCM,3076366,AB,-10.1,0,NA,9.5,0,-37.9,0,NA,NA,NA,11.3,4,NA,NA,3,NA,NA,NA,870.8,0,2014_03
-117.199,55.098,VALLEYVIEW AGDM,3076680,AB,-7.3,2,NA,10.6,2,-32.6,2,NA,NA,NA,16,13,NA,NA,6,NA,NA,NA,734.7,0,2014_03
-113.866,58.711,GARDEN RIVER,307KPFP,AB,-13,0,NA,10.3,0,-40.3,0,NA,NA,NA,NA,NA,NA,45,NA,NA,NA,NA,960.3,0,2014_03
-110.283,54.417,COLD LAKE A,3081680,AB,-8.4,0,-3.6,9.5,0,-37.3,0,3.6,0,20,1.9,0,11,4,0,NA,NA,NA,818.4,0,2014_03
-110.868,54.367,DUPRE AGCM,3081690,AB,-9.2,0,NA,9.9,0,-42.5,0,NA,NA,NA,3.9,1,NA,NA,2,NA,NA,NA,843.7,0,2014_03
-104.71,50.201,BRATT'S LAKE CLIMATE,4010811,SK,-10.4,0,NA,4.8,0,-39.1,0,NA,NA,NA,12.3,0,NA,10,3,NA,NA,NA,880,0,2014_03
-102.571,50.368,BROADVIEW,4010879,SK,-11.2,0,-6.2,5.3,0,-37.5,0,NA,NA,NA,13.2,0,61,9,3,NA,NA,NA,906.6,0,2014_03
-105.383,50.55,BUFFALO POUND LAKE,4010984,SK,-10.1,0,NA,5,0,-38,0,0,0,NA,0,0,NA,0,0,NA,NA,NA,872.3,0,2014_03
-104.267,50.85,CUPAR,4011980,SK,-9.4,12,-3.8,6,10,-40,10,17.5,10,NA,17.5,10,NA,NA,2,NA,NA,NA,521,0,2014_03
-104.867,51.183,DUVAL,4012300,SK,-10,0,-5.5,5,0,-37.5,0,20.9,0,145,20.9,0,114,0,7,NA,NA,NA,867.1,0,2014_03
-102.967,49.217,ESTEVAN A,4012400,SK,-6.9,0,-3,12.4,0,-35.7,0,6.6,0,40,7.2,0,33,0,3,NA,NA,NA,770.6,0,2014_03
-102.967,49.217,ESTEVAN,4012410,SK,-6.7,0,NA,12.2,0,-35.5,0,NA,NA,NA,6.9,0,NA,4,2,NA,NA,NA,765.4,0,2014_03
-103.65,50.55,INDIAN HEAD CDA,4013480,SK,-11.9,0,-6.5,6.4,0,-38.5,0,NA,NA,NA,19.3,0,79,13,5,NA,NA,NA,926.9,0,2014_03
-103.753,51.257,KELLIHER,4013660,SK,-11.7,0,-5.7,6,0,-38.5,0,15.5,0,73,15.5,0,62,32,4,NA,NA,NA,919.2,0,2014_03
-102.733,50.2,KIPLING,4014040,SK,-10.2,0,-4.7,5.3,0,-38.1,0,23.5,0,115,23.5,0,90,0,4,NA,NA,NA,873.1,0,2014_03
-101.717,50.9,LANGENBURG,4014145,SK,-9,9,-2.2,8.5,9,-29,9,3.2,9,NA,3.2,9,NA,68,1,NA,NA,NA,595,0,2014_03
-105.25,51.417,LAST MOUNTAIN CS,4014156,SK,-11.8,0,-6.4,4.3,0,-39.3,0,NA,NA,NA,9.1,0,49,10,3,NA,NA,NA,924.1,0,2014_03
-104.633,52,LEROY,4014322,SK,-12,0,-5.4,5,0,-39,0,14.8,0,77,14.8,0,67,16,4,NA,NA,NA,930.9,0,2014_03
-103.889,51.152,LIPTON 2,4014481,SK,-11.9,3,-6.2,6.5,3,-38.5,3,17,3,NA,17,3,NA,42,6,NA,NA,NA,836.1,0,2014_03
-103.233,49.233,MACOUN,4014870,SK,NA,NA,NA,NA,NA,NA,NA,12,27,NA,12,27,NA,NA,3,NA,NA,NA,NA,NA,2014_03
-103.3,49.383,MIDALE,4015159,SK,-6.9,0,NA,13,0,-37,0,7.3,0,NA,7.6,0,NA,0,4,NA,NA,NA,772.3,0,2014_03
-105.538,50.332,MOOSE JAW CS,4015322,SK,-8,0,NA,9.3,0,-36.6,0,NA,NA,NA,12,0,NA,NA,3,NA,NA,NA,804.6,0,2014_03
-105.551,50.341,MOOSE JAW SNOW,4015328,SK,NA,NA,NA,NA,NA,NA,NA,21.3,0,NA,21.3,0,NA,0.1,4,NA,NA,NA,NA,NA,2014_03
-105,52.333,MUENSTER,4015440,SK,-11.2,3,-4.9,6,3,-37,3,16,3,NA,16,3,NA,0,5,NA,NA,NA,817.7,0,2014_03
-102.117,49.317,OXBOW,4015800,SK,-8.3,1,NA,11.5,1,-38.5,1,8,1,NA,8,1,NA,NA,5,NA,NA,NA,789.9,0,2014_03
-103.265,51.403,PARKERVIEW,4015870,SK,-13.7,17,-7.5,20,17,-39.5,17,9.1,17,NA,9.1,17,NA,23,4,NA,NA,NA,443.8,0,2014_03
-103.983,50.567,QU'APPELLE 1,4016322,SK,-9.6,0,-4.7,7,0,-37,0,34,0,175,34,0,148,40,7,NA,NA,NA,855.8,0,2014_03
-104.582,50.408,REGINA SIAST SNOW,4016563,SK,NA,NA,NA,NA,NA,NA,NA,30.3,1,NA,30.3,1,NA,6,6,NA,NA,NA,NA,NA,2014_03
-104.667,50.451,REGINA RCMP SNOW,4016565,SK,NA,NA,NA,NA,NA,NA,NA,31.2,1,NA,31.2,1,NA,29,4,NA,NA,NA,NA,NA,2014_03
-104.833,50.567,REGINA GILMOUR,4016651,SK,NA,NA,NA,NA,NA,NA,NA,7,1,NA,7,1,NA,8,2,NA,NA,NA,NA,NA,2014_03
-104.667,50.433,REGINA RCS,4016699,SK,-10.8,0,NA,5.3,0,-38.8,0,NA,NA,NA,13.8,0,NA,12,4,NA,NA,NA,891.4,0,2014_03
-101.55,50.467,ROCANVILLE,4016842,SK,-12.3,18,-7.2,3,18,-35,18,12,18,NA,12,18,NA,0,2,NA,NA,NA,393.5,0,2014_03
-105.4,51.667,WATROUS EAST,4018642,SK,-10.7,0,NA,4.3,0,-35.6,0,NA,NA,NA,11.3,0,NA,NA,3,NA,NA,NA,889.3,0,2014_03
-104.183,49.817,YELLOW GRASS,4019040,SK,-7.7,0,-3.4,12,0,-38.5,0,21,0,117,21,0,89,0,6,NA,NA,NA,795.7,0,2014_03
-102.464,51.265,YORKTON,4019073,SK,-12.7,3,NA,4.6,3,-37.4,3,NA,NA,NA,6.7,3,NA,12,2,NA,NA,NA,858.8,0,2014_03
-102.462,51.265,YORKTON,4019075,SK,-11.6,1,NA,5,1,-37.1,0,NA,NA,NA,3.1,3,NA,NA,2,NA,NA,NA,889.2,0,2014_03
-102.233,51.2,TONKIN,4019082,SK,-12.1,1,NA,7,1,-40,1,14,1,NA,14,1,NA,34,4,NA,NA,NA,901.5,0,2014_03
-104.2,51.767,WYNYARD (AUT),40190LN,SK,-11.3,0,NA,3.4,0,-36.8,0,NA,NA,NA,8.8,0,NA,0,3,NA,NA,NA,909.7,0,2014_03
-103.8,49.7,WEYBURN,401HP5R,SK,-8.3,0,NA,13.1,0,-38.7,0,NA,NA,NA,9.8,0,NA,NA,2,NA,NA,NA,815,0,2014_03
-105.946,49.729,ASSINIBOIA AIRPORT,4020286,SK,-6.7,0,NA,11.7,0,-36.6,0,NA,NA,NA,8.3,0,NA,NA,2,NA,NA,NA,767,0,2014_03
-107.311,50.832,BEECHY,4020560,SK,-8.3,0,-5.6,7,0,-39,0,20.2,0,150,20.2,0,122,15,8,NA,NA,NA,816.6,0,2014_03
-106.583,51.133,ELBOW CS,4022359,SK,-10.5,0,NA,4.2,0,-37.9,0,NA,NA,NA,14.6,0,NA,5,5,NA,NA,NA,884.5,0,2014_03
-106.55,51.167,ELBOW 2 NE,4022363,SK,-8.6,10,-4.5,8.5,10,-36,10,8.2,10,NA,8.2,10,NA,3,5,NA,NA,NA,557.7,0,2014_03
-107.15,50.95,LUCKY LAKE,4024714,SK,-9.9,0,NA,4.7,0,-38.8,0,NA,NA,NA,13,1,NA,3,4,NA,NA,NA,864.2,0,2014_03
-109.466,49.903,MAPLE CREEK,4024919,SK,-4.8,0,NA,14,0,-34.6,0,NA,NA,NA,15.1,0,NA,1,3,NA,NA,NA,706.4,0,2014_03
-107.263,51.154,ROCK POINT,4026847,SK,-9.2,0,-5.5,6,0,-38.5,0,32,0,218,32,0,179,9,9,NA,NA,NA,842.3,0,2014_03
-107.8,50.6,STEWART VALLEY,4027775,SK,-8.6,0,-6.4,9,0,-39,0,20,0,129,20,0,108,0,6,NA,NA,NA,825,0,2014_03
-107.691,50.292,SWIFT CURRENT,4028038,SK,-7.3,0,NA,9.8,0,-37.3,0,NA,NA,NA,4.5,2,NA,NA,2,NA,NA,NA,783.6,0,2014_03
-107.733,50.267,SWIFT CURRENT CDA,4028060,SK,-7.2,0,-4.6,10.8,0,-37.4,0,NA,NA,NA,12.7,0,71,NA,5,NA,NA,NA,780.4,0,2014_03
-109.501,50.909,LEADER AIRPORT,402DAF0,SK,-7.2,0,NA,11.4,0,-38.3,0,NA,NA,NA,12.8,0,NA,NA,5,NA,NA,NA,779.9,0,2014_03
-109.1,49.133,CLAYDON,4031581,SK,-4.9,0,-3,13,0,-34.5,0,8.4,0,52,11.8,0,55,0,6,NA,NA,NA,709.5,0,2014_03
-105.517,49.117,CORONACH,4031844,SK,-6.2,0,-3.3,13.5,0,-36.5,0,19.4,0,106,19.7,0,87,0,8,NA,NA,NA,749.7,0,2014_03
-105.483,49.05,CORONACH SPC,40318MN,SK,-5.6,0,-3.2,14.4,0,-35.1,0,NA,NA,NA,13.8,0,75,NA,5,NA,NA,NA,730.2,0,2014_03
-109.514,49.641,CYPRESS HILLS PARK,4031999,SK,-6.9,0,NA,9.7,0,-37.2,0,NA,NA,NA,35.5,0,NA,5,8,NA,NA,NA,772.9,0,2014_03
-108.989,49.438,EASTEND CYPRESS (AUT),4032322,SK,-6.3,0,NA,10.5,0,-38.1,0,NA,NA,NA,5.7,0,NA,NA,2,NA,NA,NA,753.1,0,2014_03
-107.024,49.099,MANKOTA,4034910,SK,-5.3,0,-2.8,14.2,0,-34.3,0,NA,NA,NA,12.1,0,96,NA,4,NA,NA,NA,723.8,0,2014_03
-105.979,49.168,ROCKGLEN (AUT),4036844,SK,-6.4,0,NA,11.7,0,-35.9,0,NA,NA,NA,16,0,NA,NA,7,NA,NA,NA,757.3,0,2014_03
-108.383,49,TREELON,4038116,SK,-10.1,25,-8.8,1,25,-19,25,3.2,25,NA,3.2,25,NA,NA,1,NA,NA,NA,168.5,0,2014_03
-107.586,49.058,VAL MARIE SOUTHEAST,4038412,SK,-5.1,0,NA,14.9,0,-33.9,0,NA,NA,NA,11.4,0,NA,NA,4,NA,NA,NA,716.8,0,2014_03
-108.407,51.294,BICKLEIGH,4040587,SK,-9.7,5,-5.6,4.5,2,-39,3,27.6,0,214,20.6,0,122,12,7,NA,NA,NA,720,0,2014_03
-109.2,53.45,BUTTE ST PIERRE,4041000,SK,-9.9,0,-3.3,7,0,-41,0,7.2,0,53,7.3,0,47,5,2,NA,NA,NA,865.8,0,2014_03
-109.181,51.515,KINDERSLEY A,4043901,SK,-9.2,0,NA,5.9,0,-38.8,0,12.8,0,NA,10.2,0,NA,2,3,NA,NA,NA,844.3,0,2014_03
-109.948,52.333,MACKLIN,4044850,SK,-9,5,NA,8.5,4,-37.5,4,5,2,NA,5,2,NA,14,2,NA,NA,NA,701.3,0,2014_03
-108.256,52.772,NORTH BATTLEFORD RCS,4045607,SK,-10.1,0,NA,7.2,0,-34.8,0,NA,NA,NA,6,0,NA,NA,3,NA,NA,NA,869.7,0,2014_03
-108.244,52.769,NORTH BATTLEFORD,4045695,SK,-9.9,0,NA,7.2,0,-34.6,0,NA,NA,NA,1.8,1,NA,NA,1,NA,NA,NA,865.9,0,2014_03
-107.917,51.567,ROSETOWN EAST,4046884,SK,-10.3,0,NA,4.8,0,-41.1,0,NA,NA,NA,9.5,0,NA,3,3,NA,NA,NA,878.7,0,2014_03
-108.835,52.36,SCOTT CDA,4047240,SK,-10.8,0,-5.3,4.4,0,-37.7,0,NA,NA,NA,6.8,0,47,1,3,NA,NA,NA,894.1,0,2014_03
-107.767,52.317,SONNINGDALE,4047644,SK,-7.3,6,NA,8,6,-36.5,6,8.6,6,NA,8.6,6,NA,0,3,NA,NA,NA,632.8,0,2014_03
-109.404,53.131,WASECA,4048520,SK,-8.5,8,-3.1,8,8,-35.5,8,0.4,8,NA,0.4,8,NA,0,0,NA,NA,NA,610.3,0,2014_03
-109.405,53.131,WASECA RCS,4048521,SK,-9.2,0,NA,6.3,0,-35.8,0,NA,NA,NA,2.5,4,NA,NA,1,NA,NA,NA,843.7,0,2014_03
-104.6,52.817,MELFORT,4055079,SK,-12.7,0,NA,4.3,0,-37,0,NA,NA,NA,5.7,0,NA,21,2,NA,NA,NA,950.4,0,2014_03
-107.05,51.483,OUTLOOK PFRA,4055736,SK,-9.3,0,-5.9,5.4,0,-35.9,0,NA,NA,NA,11.5,0,60,12,3,NA,NA,NA,846.9,0,2014_03
-105.673,53.214,PRINCE ALBERT A,4056241,SK,-12,0,NA,7.8,0,-36.4,0,9.8,1,NA,7.8,1,NA,NA,3,NA,NA,NA,931.5,0,2014_03
-106.719,52.174,SASKATOON RCS,4057165,SK,-10.1,0,NA,6.1,0,-36.2,0,NA,NA,NA,5.8,0,NA,NA,2,NA,NA,NA,872.3,0,2014_03
-109.626,54.335,BEACON HILL,4060452,SK,-9.8,0,NA,10,0,-39,0,0,0,NA,0,0,NA,0,0,NA,NA,NA,862.2,0,2014_03
-108.421,55.841,BUFFALO NARROWS (AUT),4060983,SK,-12.5,0,NA,11.1,0,-36.7,0,NA,NA,NA,14.2,0,NA,37,4,NA,NA,NA,946.3,0,2014_03
-104.483,58.083,CIGAR LAKE,4061570,SK,-19.2,0,-5.3,-1.5,0,-41,0,25,0,132,25,0,131,64,6,NA,NA,NA,1152.8,0,2014_03
-103.712,58.19,COLLINS BAY,4061629,SK,-18,0,NA,-3.8,0,-32.5,0,NA,NA,NA,0.6,0,NA,63,0,NA,NA,NA,1117.3,0,2014_03
-103.7,58.183,COLLINS BAY CAMECO,4061632,SK,-19.3,8,NA,-3,6,-39.5,6,26.5,6,NA,26.5,6,NA,0,3,NA,NA,NA,857.2,0,2014_03
-102.35,55.533,ISLAND FALLS (AUT),4063605,SK,-16.1,0,NA,3.1,0,-35.9,0,NA,NA,NA,23.2,0,NA,59,7,NA,NA,NA,1057.1,0,2014_03
-109.962,54.908,JIMMY LAKE AWOS,4063623,SK,-9.1,3,NA,11.1,3,-31.4,2,NA,NA,NA,7,3,NA,NA,3,NA,NA,NA,758.1,0,2014_03
-105.6,57.25,KEY LAKE,4063753,SK,-18.8,0,NA,4.1,0,-39.5,0,NA,NA,NA,16.6,0,NA,40,5,NA,NA,NA,1141.5,0,2014_03
-105.617,57.25,KEY LAKE,4063755,SK,-17.9,0,-6.1,4.5,0,-38,0,23.3,0,114,23.3,0,111,63,8,NA,NA,NA,1111.6,0,2014_03
-105.618,57.256,KEY LAKE,4063757,SK,-18.1,3,NA,1.5,3,-36.5,3,NA,NA,NA,5.1,3,NA,NA,2,NA,NA,NA,1011.3,0,2014_03
-105.27,55.146,LA RONGE RCS,4064149,SK,-13.5,0,NA,10.7,0,-35.7,0,NA,NA,NA,NA,NA,NA,51,NA,NA,NA,NA,975.6,0,2014_03
-105.267,55.151,LA RONGE A,4064155,SK,-13.8,0,NA,9.9,0,-36.2,0,8.2,0,NA,10,0,NA,52,4,NA,NA,NA,985.2,0,2014_03
-109.138,54.02,LOON LAKE RCS,4064620,SK,-9.6,0,NA,10.5,0,-36.3,0,NA,NA,NA,3.9,0,NA,NA,2,NA,NA,NA,854.9,0,2014_03
-108.05,54.125,MEADOW LAKE A,4065057,SK,-11.6,0,NA,7.2,0,-39,0,NA,NA,NA,NA,NA,NA,16,NA,NA,NA,NA,918.4,0,2014_03
-103.283,56.333,SOUTHEND,4067655,SK,-16.7,0,NA,4.8,0,-38.1,0,NA,NA,NA,24,0,NA,61,6,NA,NA,NA,1075.8,0,2014_03
-107.55,53.367,SPIRITWOOD WEST,4067723,SK,-11,0,NA,6.4,0,-34.7,0,NA,NA,NA,3,0,NA,1,1,NA,NA,NA,898.4,0,2014_03
-105.841,59.25,STONY RAPIDS,4067799,SK,-20,1,NA,-3.1,1,-35.2,1,NA,NA,NA,0,1,NA,NA,0,NA,NA,NA,1139.5,0,2014_03
-106.067,53.917,WASKESIU LAKE,4068559,SK,-11.1,0,NA,9.8,0,-35.2,0,NA,NA,NA,8.3,0,NA,41,4,NA,NA,NA,901.2,0,2014_03
-108.517,54.133,MEADOW LAKE,406N0NM,SK,-11.7,0,NA,7,0,-38.6,0,NA,NA,NA,3.9,0,NA,8,1,NA,NA,NA,921.1,0,2014_03
-108.483,59.567,URANIUM CITY (AUT),406QLD0,SK,-19.9,0,NA,-1.4,0,-37.7,0,NA,NA,NA,12.7,0,NA,59,4,NA,NA,NA,1174,0,2014_03
-104.008,53.333,NIPAWIN,4075525,SK,-12.8,0,NA,7.4,0,-37.2,0,NA,NA,NA,1.1,2,NA,NA,0,NA,NA,NA,954.2,0,2014_03
-104,53.333,NIPAWIN,407N51G,SK,-13,0,NA,7,0,-37.6,0,NA,NA,NA,3.7,0,NA,28,0,NA,NA,NA,961.9,0,2014_03
-102.583,52.883,HUDSON BAY 13W,4083323,SK,-12,10,NA,9,10,-38,10,10,10,NA,10,10,NA,40,4,NA,NA,NA,630.7,0,2014_03
-102.317,52.817,HUDSON BAY(AUT),4083324,SK,-12.3,0,NA,8,0,-36.2,0,NA,NA,NA,8.9,0,NA,21,3,NA,NA,NA,939.9,0,2014_03
-103.833,52.583,MCKAGUE 2,4085052,SK,-8.5,16,-1.4,5,16,-24,16,2.5,16,NA,2.5,16,NA,0,1,NA,NA,NA,397,0,2014_03
-101.867,52.083,PELLY,4086000,SK,-12.6,0,-4.9,8.5,0,-35.5,0,27.4,0,98,27.4,0,86,45,7,NA,NA,NA,948.5,0,2014_03
-101.9,51.733,PELLY 2,4086001,SK,-12.2,0,-5.1,6,0,-37,0,19.6,0,98,19.6,0,81,38,7,NA,NA,NA,935.3,0,2014_03
-99.292,49.276,BALDUR,5010140,MB,-9.8,2,-4.2,5.5,1,-35,1,0.5,0,3,0.5,0,2,0,0,NA,NA,NA,805.1,0,2014_03
-99.45,49.3,BELMONT,5010191,MB,NA,NA,NA,NA,NA,NA,NA,9.6,0,48,9.6,0,36,60,5,NA,NA,NA,NA,NA,2014_03
-101.391,51.539,BOGGY CREEK,5010310,MB,-13.2,0,NA,7.5,0,-38,0,24,0,NA,24,0,NA,44,7,NA,NA,NA,967.5,0,2014_03
-99.952,49.91,BRANDON A,5010481,MB,-12.3,0,NA,4.3,0,-36.4,0,19,0,NA,14.4,0,NA,40,5,NA,NA,NA,940,0,2014_03
-99.95,49.9,BRANDON RCS,5010490,MB,-11.9,0,NA,4.7,0,-35.2,0,NA,NA,NA,10.7,0,NA,12,4,NA,NA,NA,925.4,0,2014_03
-99.357,49.906,CARBERRY CS,5010547,MB,-12.1,0,NA,4.5,0,-40.2,0,NA,NA,NA,7.3,0,NA,NA,2,NA,NA,NA,932.1,0,2014_03
-99.074,49.562,CYPRESS RIVER RCS,5010641,MB,-10.7,0,NA,5.5,0,-35.6,0,NA,NA,NA,6.1,0,NA,7,2,NA,NA,NA,888.6,0,2014_03
-101.203,49.927,ELKHORN 2 EAST,5010QFQ,MB,-10.5,2,-4.8,6,2,-36,2,16,2,NA,16,2,NA,8,4,NA,NA,NA,827,0,2014_03
-98.3,49.983,PORTAGE ROMANCE,5012300,MB,NA,NA,NA,NA,NA,NA,NA,13,0,NA,13,0,NA,43,3,NA,NA,NA,NA,NA,2014_03
-98.267,49.95,PORTAGE LA PRAIRIE CDA,5012321,MB,NA,NA,NA,NA,NA,NA,NA,24.2,14,NA,24.2,14,NA,54,3,NA,NA,NA,NA,NA,2014_03
-98.284,49.903,PORTAGE SOUTHPORT,5012324,MB,-10.4,0,NA,8.4,0,-32.3,0,NA,NA,NA,10,0,NA,15,3,NA,NA,NA,880,0,2014_03
-101.363,51.183,ROBLIN,5012469,MB,-13.5,0,NA,4.6,0,-39.1,0,NA,NA,NA,11.7,0,NA,29,3,NA,NA,NA,975.6,0,2014_03
-99.017,49.45,ST ALPHONSE,5012545,MB,-9.8,0,-4.5,6,0,-36,0,10,0,56,10,0,36,19,2,NA,NA,NA,861.5,0,2014_03
-100.604,50.455,SHOAL LAKE CS,5012654,MB,-13.7,0,NA,3.8,0,-37,0,NA,NA,NA,NA,NA,NA,NA,NA,NA,NA,NA,982,0,2014_03
-100.934,49.842,VIRDEN WATER,5012961,MB,-13,16,NA,6,16,-36,16,595.5,16,NA,595.5,16,NA,14,15,NA,NA,NA,465.6,0,2014_03
-99.942,50.655,WASAGAMING,5013117,MB,-14,0,-5.9,7.7,0,-42.8,0,NA,NA,NA,20,0,70,61,4,NA,NA,NA,990.8,0,2014_03
-100.986,49.281,MELITA,501A7AR,MB,-8.9,0,NA,9,0,-35.4,0,NA,NA,NA,8.1,0,NA,22,3,NA,NA,NA,833.4,0,2014_03
-101.4,51.267,ROBLIN FRIESEN 3 NORTHWEST,501B4G2,MB,NA,NA,NA,NA,NA,NA,NA,15.2,0,NA,15.2,0,NA,43,4,NA,NA,NA,NA,NA,2014_03
-100.179,50.108,RIVERS PETTAPIECE,501BMMA,MB,NA,NA,NA,NA,NA,NA,NA,27.4,0,170,27.4,0,115,67,4,NA,NA,NA,NA,NA,2014_03
-100.817,50.75,ROSSBURN 4 NORTH,501KE01,MB,NA,NA,NA,NA,NA,NA,NA,38,0,157,38,0,122,78,6,NA,NA,NA,NA,NA,2014_03
-98.15,49.433,CARMAN,5020551,MB,-11.7,12,-6.5,6,12,-34,12,8,12,NA,8,12,NA,0,2,NA,NA,NA,564.3,0,2014_03
-98.319,49.4,DEERWOOD RCS,5020725,MB,-9.6,0,NA,6.7,0,-33.3,0,NA,NA,NA,8.3,0,NA,0,3,NA,NA,NA,857.1,0,2014_03
-97.238,49,EMERSON AUTO,5020881,MB,-10.9,0,NA,4.4,0,-33.8,0,NA,NA,NA,12.1,0,NA,39,2,NA,NA,NA,896.8,0,2014_03
-97.56,49.031,GRETNA (AUT),5021220,MB,-10,0,NA,5.9,0,-33.8,0,NA,NA,NA,NA,NA,NA,NA,NA,NA,NA,NA,868.1,0,2014_03
-98.875,49.606,HOLLAND,5021302,MB,NA,NA,NA,NA,NA,NA,NA,7,18,NA,7,18,NA,NA,3,NA,NA,NA,NA,NA,2014_03
-97.807,50.013,MARQUETTE,5021695,MB,-11.5,0,-6,6.5,0,-33.5,0,12.4,0,72,12.4,0,44,46,3,NA,NA,NA,915.2,0,2014_03
-98.25,49.45,MIAMI THIESSEN,5021737,MB,-9,0,NA,7.5,0,-32,0,12.8,0,NA,13.2,0,NA,8,5,NA,NA,NA,837.7,0,2014_03
-98.084,49.188,MORDEN CDA CS,5021849,MB,-8.9,0,NA,7.3,0,-31.7,0,NA,NA,NA,7.8,0,NA,0,1,NA,NA,NA,832.9,0,2014_03
-96.85,49.933,OAKBANK,5022051,MB,NA,NA,NA,NA,NA,NA,NA,14.7,0,85,14.7,0,48,54,3,NA,NA,NA,NA,NA,2014_03
-98.905,49.191,PILOT MOUND (AUT),5022125,MB,-10.9,0,NA,5.1,0,-36.7,0,NA,NA,NA,7.3,0,NA,20,2,NA,NA,NA,894.7,0,2014_03
-98.367,49.65,ST CLAUDE,5022550,MB,NA,NA,NA,NA,NA,NA,NA,15.8,3,NA,15.8,3,NA,42,3,NA,NA,NA,NA,NA,2014_03
-96.035,49.353,ST LABRE,5022575,MB,NA,NA,NA,NA,NA,NA,NA,62,0,273,62,0,191,0,6,NA,NA,NA,NA,NA,2014_03
-97.95,49.133,SCHANZENFELD,5022623,MB,NA,NA,NA,NA,NA,NA,NA,7.5,0,53,7.6,0,34,20,2,NA,NA,NA,NA,NA,2014_03
-95.598,49.024,SPRAGUE,5022759,MB,-11.6,0,NA,7.1,0,-35.1,0,NA,NA,NA,29.5,0,NA,NA,5,NA,NA,NA,917,0,2014_03
-97.167,50.117,STONY MOUNTAIN,5022791,MB,-12,0,-6.2,6,0,-36,0,19.1,0,134,19.1,0,78,0,3,NA,NA,NA,928.7,0,2014_03
-97.273,49.85,WINNIPEG CHARLESWOOD 2,5023225,MB,NA,NA,NA,NA,NA,NA,NA,23,0,NA,23,0,NA,43,3,NA,NA,NA,NA,NA,2014_03
-97.129,49.888,WINNIPEG THE FORKS,5023262,MB,-10.3,0,NA,6,0,-32.2,0,NA,NA,NA,21.1,0,NA,NA,3,NA,NA,NA,878.7,0,2014_03
-98.03,49.498,CARMAN U OF M CS,502I001,MB,-11,0,NA,6.1,0,-32.9,0,NA,NA,NA,6.4,0,NA,NA,1,NA,NA,NA,898,0,2014_03
-97.249,49.917,WINNIPEG A CS,502S001,MB,-12.7,0,NA,4,0,-37,0,NA,NA,NA,9,0,NA,22,3,NA,NA,NA,950.4,0,2014_03
-97.083,50.933,ARBORG,5030080,MB,-13,0,-5.5,5,0,-37.5,0,21.1,0,138,21.1,0,85,128,3,NA,NA,NA,962.4,0,2014_03
-97.022,52.36,BERENS RIVER CS,5030203,MB,-15.6,0,-6.4,3.9,0,-37,0,NA,NA,NA,12.2,0,52,22,3,NA,NA,NA,1042.2,0,2014_03
-97.616,52.819,GEORGE ISLAND (AUT),5030984,MB,-15.4,0,NA,0,0,-34.4,0,NA,NA,NA,144.3,8,NA,72,21,NA,NA,NA,1036.7,0,2014_03
-97.555,51.083,FISHER BRANCH (AUT),50309J6,MB,-13.8,0,NA,5.6,0,-35.7,0,NA,NA,NA,30.1,0,NA,43,15,NA,NA,NA,987.1,0,2014_03
-96.982,50.631,GIMLI HARBOUR CS,5031041,MB,-12.7,0,NA,6.5,0,-33.8,0,NA,NA,NA,NA,NA,NA,NA,NA,NA,NA,NA,950.4,0,2014_03
-97.05,50.633,GIMLI CLIMATE,5031042,MB,-14.4,0,NA,4.7,0,-34.6,0,NA,NA,NA,12.9,0,NA,55,3,NA,NA,NA,1003.4,0,2014_03
-99.283,53.158,GRAND RAPIDS HYDRO,5031111,MB,-16.2,6,-7.9,6,6,-37,6,7.6,6,NA,7.6,6,NA,0,3,NA,NA,NA,854.3,0,2014_03
-95.977,50.522,GREAT FALLS CLIMATE,5031201,MB,-13,0,NA,5.2,0,-34.6,0,NA,NA,NA,23.3,0,NA,51,5,NA,NA,NA,962,0,2014_03
-97.465,51.186,HODGSON 2,5031301,MB,-14.6,0,-6.5,6,0,-36,0,23,0,86,23,0,66,87,4,NA,NA,NA,1009.8,0,2014_03
-95.197,49.624,INDIAN BAY,5031320,MB,-11.6,0,-5.7,7,0,-36.5,0,48,0,339,48,0,213,45,5,NA,NA,NA,919.1,0,2014_03
-97.65,50.667,NARCISSE,5031991,MB,NA,NA,NA,NA,NA,NA,NA,20.4,3,NA,20.4,3,NA,0,2,NA,NA,NA,NA,NA,2014_03
-99.268,53.186,GRAND RAPIDS (AUT),5031A10,MB,-14.6,0,NA,5.4,0,-34,0,NA,NA,NA,10.8,0,NA,52,5,NA,NA,NA,1010.2,0,2014_03
-95.89,50.148,PINAWA CANWARN,5032161,MB,NA,NA,NA,NA,NA,NA,NA,32.8,0,NA,32.8,0,NA,68,3,NA,NA,NA,NA,NA,2014_03
-96.058,50.181,PINAWA WNRE,5032162,MB,-12.6,6,-6.8,6.5,6,-35,6,25,6,NA,25,6,NA,0,2,NA,NA,NA,764.2,0,2014_03
-95.533,49.85,RENNIE,5032360,MB,-13.4,15,NA,6.5,10,-38,11,30.6,10,NA,30.6,10,NA,67,4,NA,NA,NA,503,0,2014_03
-96.567,50.7,VICTORIA BEACH (AUT),5032951,MB,-13.2,0,NA,5.3,0,-35.5,0,NA,NA,NA,NA,NA,NA,NA,NA,NA,NA,NA,965.9,0,2014_03
-96.065,50.177,PINAWA,503B1ER,MB,-13.4,0,NA,5.3,0,-35.2,0,NA,NA,NA,17.4,0,NA,45,4,NA,NA,NA,972,0,2014_03
-100.057,51.1,DAUPHIN CS,5040681,MB,-12.5,0,NA,5.1,0,-36.8,0,NA,NA,NA,13.4,0,NA,32,2,NA,NA,NA,946.7,0,2014_03
-100.053,51.101,DAUPHIN,5040689,MB,-12.7,2,NA,5.5,2,-36,2,NA,NA,NA,3.4,2,NA,NA,2,NA,NA,NA,890.4,0,2014_03
-100.467,51.1,GILBERT PLAINS,5040985,MB,-13.5,0,-6.6,6,0,-37.5,0,23.3,0,105,23.3,0,80,38,8,NA,NA,NA,976.3,0,2014_03
-100.65,52.033,COWAN,5040FJ3,MB,-11.5,0,-5,11,0,-34,0,19,0,65,20,0,59,0,7,NA,NA,NA,915.8,0,2014_03
-101.098,52.666,MAFEKING,5041685,MB,-11.2,0,-4.9,11,0,-32,0,14.3,0,52,14.4,0,49,48,6,NA,NA,NA,904.4,0,2014_03
-99.53,50.712,MCCREARY,5043158,MB,-11.2,0,-5.8,11.3,0,-37.3,0,NA,NA,NA,16.4,0,49,18,4,NA,NA,NA,904,0,2014_03
-98.037,50.499,OAKPOINT MARINE,504K0NM,MB,-13.6,0,NA,6.4,0,-35.1,0,NA,NA,NA,NA,NA,NA,NA,NA,NA,NA,NA,978.6,0,2014_03
-101.233,52.115,SWAN RIVER RCS,504K80K,MB,-12.9,0,NA,6.2,0,-35.2,0,NA,NA,NA,11.5,0,NA,19,3,NA,NA,NA,956.5,0,2014_03
-101.683,54.683,FLIN FLON,5050919,MB,-15.5,0,NA,4.8,0,-34.5,0,NA,NA,NA,NA,NA,NA,65,NA,NA,NA,NA,1038.6,0,2014_03
-101.883,54.767,FLIN FLON,5050920,MB,-14,0,-6.4,4.5,0,-35,0,22,0,147,22,0,146,57,7,NA,NA,NA,991.6,0,2014_03
-101.683,54.683,FLIN FLON A,5050960,MB,-14.8,0,-6,5,0,-34.5,0,25.6,0,130,25.6,0,135,47,8,NA,NA,NA,1017.3,0,2014_03
-101.1,53.967,THE PAS A,5052880,MB,-14.6,0,-6,5.6,0,-35.2,0,14.8,0,79,10.5,0,59,40,3,NA,NA,NA,1010.1,0,2014_03
-101.1,53.967,THE PAS CLIMATE,5052890,MB,-14.4,0,NA,5.4,0,-35.1,0,NA,NA,NA,9.9,0,NA,29,2,NA,NA,NA,1004.3,0,2014_03
-94.066,58.739,CHURCHILL,5060595,MB,-22.1,1,NA,-4.4,1,-32.5,0,NA,NA,NA,1.6,0,NA,NA,0,NA,NA,NA,1202.2,0,2014_03
-94.067,58.733,CHURCHILL CLIMATE,5060608,MB,-22.3,0,NA,-4.4,0,-32.9,0,NA,NA,NA,3.8,0,NA,NA,2,NA,NA,NA,1248.8,0,2014_03
-98.033,54.533,CROSS LAKE JENPEG,5060623,MB,-16,0,-6,-0.4,0,-34,0,18,0,132,18,0,114,0,4,NA,NA,NA,1054.6,0,2014_03
-94.711,56.358,GILLAM A,5061001,MB,-19.6,0,-5,0.1,0,-33.8,0,6.7,0,24,6.5,0,29,16,3,NA,NA,NA,1165.1,0,2014_03
-94.65,53.85,ISLAND LAKE A,5061376,MB,-17,0,-6.4,1.4,0,-36.9,0,27.4,0,115,27.4,0,123,74,9,NA,NA,NA,1083.9,0,2014_03
-96.51,56.038,KELSEY DAM CS,5061422,MB,-19.3,0,NA,0.3,0,-39.5,0,NA,NA,NA,14.2,0,NA,61,3,NA,NA,NA,1154.8,0,2014_03
-101.076,56.864,LYNN LAKE,5061645,MB,-18.8,2,NA,-3.2,2,-36.1,2,NA,NA,NA,3.4,4,NA,NA,1,NA,NA,NA,1066.1,0,2014_03
-101.067,56.85,LYNN LAKE RCS,5061649,MB,-19.5,0,NA,-2.4,0,-41.5,0,NA,NA,NA,21.9,0,NA,63,7,NA,NA,NA,1163.8,0,2014_03
-97.844,53.958,NORWAY HOUSE,5062040,MB,-16,5,NA,-0.3,5,-36.1,4,NA,NA,NA,6.4,5,NA,NA,4,NA,NA,NA,884.7,0,2014_03
-98.512,58.706,TADOULE LAKE,5062835,MB,-21.3,0,NA,-6.8,0,-36.1,0,NA,NA,NA,1.7,0,NA,NA,1,NA,NA,NA,1219,0,2014_03
-98.502,58.716,TADOULE LAKE CS,5062840,MB,-22,0,NA,-7.5,0,-37.8,0,NA,NA,NA,45.7,0,NA,35,18,NA,NA,NA,1239.2,0,2014_03
-97.863,55.803,THOMPSON A,5062922,MB,-19.5,0,-7,-0.3,0,-40.4,0,44.2,0,189,27,0,120,90,8,NA,NA,NA,1161,0,2014_03
-89.897,53.818,BIG TROUT LAKE A,6010735,ON,-17.3,0,NA,0.6,0,-37,0,NA,NA,NA,1.6,0,NA,NA,0,NA,NA,NA,1095.3,0,2014_03
-89.892,53.816,BIG TROUT LAKE,6010740,ON,-17.4,0,NA,0.5,0,-37.1,0,NA,NA,NA,14.3,0,NA,23,5,NA,NA,NA,1097.4,0,2014_03
-93.221,50.631,EAR FALLS (AUT),6012199,ON,-12,0,NA,4.1,0,-33,0,NA,NA,NA,38.4,0,NA,69,8,NA,NA,NA,930.9,0,2014_03
-87.676,56.019,FORT SEVERN A,6012501,ON,-21,2,NA,0.8,2,-39.5,2,NA,NA,NA,0.5,7,NA,NA,0,NA,NA,NA,1131,0,2014_03
-87.936,52.196,LANSDOWNE HOUSE (AUT),6014353,ON,-16.7,0,NA,1.4,0,-38.6,0,NA,NA,NA,16.3,1,NA,39,5,NA,NA,NA,1077,0,2014_03
-91.763,53.441,MUSKRAT DAM,6015026,ON,-16.5,11,NA,1.3,10,-34.9,11,NA,NA,NA,7.8,11,NA,NA,2,NA,NA,NA,689.6,0,2014_03
-85.433,54.983,PEAWANUCK (AUT),6016295,ON,-21.5,0,NA,-0.2,0,-43.2,0,NA,NA,NA,9.7,0,NA,29,4,NA,NA,NA,1225.3,0,2014_03
-90.218,51.449,PICKLE LAKE (AUT),6016525,ON,-14.1,0,NA,1.3,0,-34.5,0,NA,NA,NA,46.7,0,NA,43,9,NA,NA,NA,994,0,2014_03
-90.214,51.446,PICKLE LAKE A,6016529,ON,-13.9,3,NA,1.7,3,-34.6,3,NA,NA,NA,NA,NA,NA,60,NA,NA,NA,NA,892.8,0,2014_03
-93.793,51.067,RED LAKE A,6016970,ON,-13,0,NA,3.2,0,-34.7,0,NA,NA,NA,NA,NA,NA,63,NA,NA,NA,NA,962.4,0,2014_03
-93.344,53.064,SANDY LAKE A,6017401,ON,-15.4,5,NA,2.4,5,-37.1,4,NA,NA,NA,16.2,4,NA,NA,2,NA,NA,NA,869.3,0,2014_03
-93.967,48.633,BARWICK,6020559,ON,-8.4,16,-4,10.5,16,-37.5,16,28.3,16,NA,28.4,16,NA,55,4,NA,NA,NA,396.4,0,2014_03
-91.628,48.761,ATIKOKAN (AUT),6020LPQ,ON,-11.9,0,NA,12.5,0,-40.4,0,NA,NA,NA,59.3,0,NA,57,22,NA,NA,NA,928.2,0,2014_03
-93.439,48.651,FORT FRANCES RCS,6022474,ON,-11.1,0,NA,11.9,0,-37.3,0,NA,NA,NA,102.2,0,NA,45,30,NA,NA,NA,900.8,0,2014_03
-92.623,48.76,MINE CENTRE SOUTHWEST,6025205,ON,-10.6,0,NA,12,0,-37,0,43.8,0,NA,46.6,0,NA,62,8,NA,NA,NA,886,0,2014_03
-92.744,49.828,DRYDEN REGIONAL,6032125,ON,-11,0,NA,5.6,0,-31.4,0,NA,NA,NA,8.7,1,NA,NA,1,NA,NA,NA,900.1,0,2014_03
-94.378,49.791,KENORA RCS,6034073,ON,-11.1,0,NA,5.5,0,-33.7,0,NA,NA,NA,33.7,0,NA,75,7,NA,NA,NA,902.5,0,2014_03
-94.363,49.788,KENORA A,6034076,ON,-11,0,NA,6.3,0,-33.2,0,48,0,NA,40.2,1,NA,50,6,NA,NA,NA,898.9,0,2014_03
-91.908,50.114,SIOUX LOOKOUT A,6037776,ON,-12.7,0,NA,4.8,0,-34.7,0,81.9,0,NA,80.5,0,NA,34,8,NA,NA,NA,951,0,2014_03
-88.905,50.294,ARMSTRONG (AUT),6040325,ON,-15.2,0,NA,2.9,0,-41,0,NA,NA,NA,75.8,1,NA,73,10,NA,NA,NA,1030,0,2014_03
-88.345,49.154,CAMERON FALLS (AUT),6041110,ON,-11.4,0,NA,5.4,0,-30.9,0,NA,NA,NA,37.6,0,NA,62,9,NA,NA,NA,910.7,0,2014_03
-86.931,49.783,GERALDTON A,6042716,ON,-15.2,0,-6.3,3.4,0,-39.7,0,57,0,200,46.6,0,146,53,9,NA,NA,NA,1030.7,0,2014_03
-86.287,48.608,PUKASKWA (AUT),6046768,ON,-12.1,0,NA,5.8,0,-34.9,0,NA,NA,NA,39.1,0,NA,96,7,NA,NA,NA,932.8,0,2014_03
-89.322,48.372,THUNDER BAY,6048260,ON,-10.7,1,NA,9,1,-31.8,1,NA,NA,NA,18.6,1,NA,NA,4,NA,NA,NA,860.1,0,2014_03
-89.278,48.414,THUNDER BAY BURWOOD,6048266,ON,-11.3,13,NA,9.5,13,-33,13,7.5,13,NA,6.3,13,NA,NA,3,NA,NA,NA,528,0,2014_03
-89.327,48.369,THUNDER BAY CS,6048268,ON,-10.5,0,NA,9.2,0,-33.2,0,NA,NA,NA,25.6,0,NA,35,7,NA,NA,NA,883.5,0,2014_03
-90.467,49.033,UPSALA (AUT),6049095,ON,-12.6,0,NA,11.1,0,-34.6,0,NA,NA,NA,30.2,0,NA,64,9,NA,NA,NA,947.8,0,2014_03
-89.119,48.369,WELCOME ISLAND (AUT),6049443,ON,-9.6,0,NA,7.6,0,-28,0,NA,NA,NA,NA,NA,NA,NA,NA,NA,NA,NA,856,0,2014_03
-88.306,49.69,LITTLE FLATLAND ISLAND (AUT),6049470,ON,-14.2,0,NA,4.1,0,-35.2,0,NA,NA,NA,48.1,4,NA,32,11,NA,NA,NA,998.6,0,2014_03
-89.317,48.367,THUNDER BAY A FIREHALL,604S003,ON,NA,NA,NA,NA,NA,NA,NA,31.4,0,NA,35.4,0,NA,25,7,NA,NA,NA,NA,NA,2014_03
-84.814,47.723,LAKE SUPERIOR PROVINCIAL PARK,6054425,ON,-13.1,0,NA,6.8,0,-35.8,0,NA,NA,NA,55,0,NA,123,11,NA,NA,NA,962.6,0,2014_03
-84.51,46.485,SAULT STE MARIE A,6057591,ON,-10.9,0,NA,6,0,-30.5,0,74.5,0,NA,45.6,0,NA,44,9,NA,NA,NA,895,0,2014_03
-84.783,47.967,WAWA A,6059D09,ON,-12.2,0,-5.7,9.4,0,-34,0,50.4,0,126,46.4,0,86,86,8,NA,NA,NA,935.6,0,2014_03
-81.483,45.967,KILLARNEY (AUT),605DJ25,ON,-7.8,0,NA,5.7,0,-23.9,0,NA,NA,NA,NA,NA,NA,NA,NA,NA,NA,NA,800.2,0,2014_03
-83.347,47.82,CHAPLEAU A,6061361,ON,-13.4,0,-6.2,8.1,0,-34.6,0,55.2,0,151,56,0,119,80,11,NA,NA,NA,972.3,0,2014_03
-82.025,46.193,MASSEY,6065006,ON,-9.2,0,-4.8,10.5,0,-32.5,0,31.2,0,109,32,0,53,96,7,NA,NA,NA,843.3,0,2014_03
-80.796,46.632,SUDBURY CLIMATE,6068145,ON,-10.6,0,NA,9,0,-28.4,0,NA,NA,NA,39.2,1,NA,69,9,NA,NA,NA,885.4,0,2014_03
-80.798,46.626,SUDBURY A,6068153,ON,-10.5,0,NA,9.4,0,-27.7,0,60,0,NA,47.2,0,NA,56,12,NA,NA,NA,884.7,0,2014_03
