Long,Lat,Stn_Name,Clim_ID,Prov_or_Ter,Tm,DwTm,D,Tx,DwTx,Tn,DwTn,S,DwS,S%N,P,DwP,P%N,S_G,Pd,BS,DwBS,BS%,HDD,CDD,YYYY_MM
-123.742,48.935,CHEMAINUS,1011500,BC,19.5,20,NA,27,20,12.5,20,0,20,NA,18.2,20,NA,0,1,NA,NA,NA,2.2,18.3,2023_07
-124.052,48.829,LAKE COWICHAN,1012055,BC,21.8,17,4,35.5,12,13,13,0,12,NA,29,12,NA,NA,3,NA,NA,NA,2.2,55.8,2023_07
-123.226,48.425,DISCOVERY ISLAND,1012475,BC,15.3,0,NA,26,0,10.9,0,NA,NA,NA,NA,NA,NA,NA,NA,NA,NA,NA,85.5,2.6,2023_07
-123.439,48.432,ESQUIMALT HARBOUR,1012710,BC,17.3,0,NA,27.6,0,11.1,0,NA,NA,NA,10.8,0,NA,NA,1,NA,NA,NA,27.7,5.9,2023_07
-123.53,48.575,MALAHAT,1014820,BC,20,0,NA,32.4,0,10.7,0,NA,NA,NA,17.6,0,NA,NA,1,NA,NA,NA,10.1,70.9,2023_07
-123.561,48.374,METCHOSIN,1015105,BC,NA,NA,NA,NA,NA,NA,NA,0,20,NA,14.2,20,NA,NA,2,NA,NA,NA,NA,NA,2023_07
-123.718,48.824,NORTH COWICHAN,1015628,BC,NA,NA,NA,NA,NA,NA,NA,0,0,NA,19.4,0,83,0,1,NA,NA,NA,NA,NA,2023_07
-123.719,48.824,NORTH COWICHAN,1015630,BC,19.4,0,NA,32.3,0,7.6,0,NA,NA,NA,19.3,0,NA,NA,1,NA,NA,NA,6.9,51.5,2023_07
-123.287,48.764,NORTH PENDER ISLAND,1015638,BC,19.7,6,NA,32,6,10,6,0,6,NA,15.6,6,NA,NA,3,NA,NA,NA,6.2,49.6,2023_07
-123.531,48.298,RACE ROCKS,1016640,BC,14.3,0,NA,25.2,0,9.5,0,NA,NA,NA,NA,NA,NA,NA,NA,NA,NA,NA,116.4,0.5,2023_07
-123.419,48.622,SAANICHTON CFIA,1016943,BC,17.7,0,NA,27.2,0,10.1,0,NA,NA,NA,13.5,0,NA,NA,1,NA,NA,NA,27.1,16.3,2023_07
-123.427,48.598,SAANICHTON MT NEWTON,1016RM0,BC,NA,NA,NA,NA,NA,NA,NA,0,0,NA,13.8,0,73,0,1,NA,NA,NA,NA,NA,2023_07
-123.128,48.775,SATURNA CAPMON CS,1017099,BC,18.2,0,NA,29.5,0,10.2,0,NA,NA,NA,14.5,0,NA,NA,1,NA,NA,NA,31.1,36.4,2023_07
-123.045,48.784,SATURNA ISLAND CS,1017101,BC,18.1,0,NA,27.7,0,11.7,0,NA,NA,NA,10.8,0,NA,NA,1,NA,NA,NA,18.9,20.6,2023_07
-123.626,48.647,SHAWNIGAN LAKE,1017230,BC,19.4,0,1.8,31,0,10,0,0,0,NA,15.2,0,65,0,2,NA,NA,NA,5,49.1,2023_07
-123.921,48.377,SHERINGHAM POINT,1017254,BC,13.5,1,NA,26,1,8.7,1,NA,NA,NA,28.8,1,NA,NA,3,NA,NA,NA,134.5,0.9,2023_07
-123.305,48.457,VICTORIA UNIVERSITY CS,1018598,BC,18.2,0,NA,29.5,0,8.3,0,NA,NA,NA,11.5,0,NA,NA,1,NA,NA,NA,15.3,20.3,2023_07
-123.325,48.413,VICTORIA GONZALES CS,1018611,BC,16.7,0,NA,26.4,0,10.8,0,NA,NA,NA,11.4,0,NA,NA,1,NA,NA,NA,47.9,6.4,2023_07
-123.426,48.647,VICTORIA INTL A,1018621,BC,18.2,1,NA,29.6,1,8.6,1,0,0,NA,13.4,0,NA,NA,1,NA,NA,NA,18.9,23.9,2023_07
-123.388,48.423,VICTORIA HARBOUR A,1018633,BC,16.5,0,NA,24.5,0,11.7,0,NA,NA,NA,NA,NA,NA,NA,NA,NA,NA,NA,47.8,1.4,2023_07
-124.16,49.35,BALLENAS ISLAND,1020590,BC,18.8,1,NA,25.1,1,14.3,1,NA,NA,NA,9.2,1,NA,NA,1,NA,NA,NA,8.2,32.7,2023_07
-125.273,49.952,CAMPBELL RIVER A,1021261,BC,18.7,0,1.5,32.5,0,8.5,0,0,0,NA,9.4,0,24,0,3,NA,NA,NA,17.7,40.4,2023_07
-125.273,49.952,CAMPBELL RIVER A,1021270,BC,18.6,0,NA,32.3,0,8.6,0,NA,NA,NA,NA,NA,NA,NA,NA,NA,NA,NA,17.2,35.6,2023_07
-125.195,49.998,CAPE MUDGE,1021330,BC,18.8,0,1.6,29,0,12,0,0,0,NA,13.4,0,34,0,3,NA,NA,NA,9.4,34.9,2023_07
-125.446,50.333,CHATHAM POINT,1021480,BC,17.8,0,1.8,27,0,11,0,0,0,NA,45.8,0,65,0,6,NA,NA,NA,21.8,16.4,2023_07
-124.9,49.717,COMOX A,1021830,BC,19.8,0,1.8,30.3,0,13.2,0,0,0,NA,8.4,0,31,NA,2,NA,NA,NA,2.7,59.4,2023_07
-125.033,49.686,COURTENAY PUNTLEDGE,1021989,BC,20.6,15,NA,34,10,9.5,9,0,10,NA,2.4,10,NA,0,2,NA,NA,NA,0.5,41.7,2023_07
-123.811,49.209,ENTRANCE ISLAND,1022689,BC,18.4,1,NA,25.5,1,12.6,1,NA,NA,NA,10.4,1,NA,NA,1,NA,NA,NA,17.3,29.9,2023_07
-125.993,50.454,FANNY ISLAND,1022795,BC,14.3,0,NA,21,0,10.3,0,NA,NA,NA,38,0,NA,NA,5,NA,NA,NA,114.8,0,2023_07
-124.512,49.353,LITTLE QUALICUM HATCHERY,1024638,BC,18.1,17,1.4,32,17,8.5,17,0,17,NA,6,17,NA,0,1,NA,NA,NA,8.3,10.1,2023_07
-123.87,49.054,NANAIMO A,1025365,BC,19.5,0,NA,31.8,0,10.1,0,NA,NA,NA,NA,NA,NA,NA,NA,NA,NA,NA,6.2,53.5,2023_07
-123.988,49.199,NANAIMO CITY YARD,10253G0,BC,NA,NA,NA,NA,NA,NA,NA,0,0,NA,15.6,0,62,0,1,NA,NA,NA,NA,NA,2023_07
-127.367,50.681,PORT HARDY A,1026271,BC,14.4,2,NA,23.2,2,6.2,2,0,2,NA,48,2,NA,NA,6,NA,NA,NA,104.6,0,2023_07
-127.377,50.684,PORT HARDY AIRPORT,1026273,BC,14.6,0,NA,22.9,0,6.7,0,NA,NA,NA,65.3,0,NA,NA,8,NA,NA,NA,106.2,0,2023_07
-124.394,49.337,QUALICUM BEACH AIRPORT,1026562,BC,19.1,0,NA,31.2,0,9.8,0,NA,NA,NA,4.1,0,NA,NA,2,NA,NA,NA,7.5,40.8,2023_07
-124.617,49.394,QUALICUM R FISH RESEARCH,1026565,BC,19.2,0,2.1,33,0,8,0,0,0,NA,8.8,0,34,0,2,NA,NA,NA,7.1,44.4,2023_07
-125.304,50.016,QUINSAM RIVER HATCHERY,1026639,BC,19,0,1.7,32.5,0,9,0,0,0,NA,18,0,43,0,2,NA,NA,NA,9,39.8,2023_07
-124.435,49.487,SISTERS ISLAND,1027403,BC,20.3,0,NA,29.4,0,13.9,0,NA,NA,NA,NA,NA,NA,NA,NA,NA,NA,NA,3.9,76.1,2023_07
-123.809,49.209,ENTRANCE ISLAND,102BFHH,BC,18.8,8,NA,26,8,13,8,0,8,NA,21.4,8,NA,0,2,NA,NA,NA,11.1,30.4,2023_07
-124.982,49.337,ALBERNI ROBERTSON CREEK,1030230,BC,19.8,0,1.5,35.5,0,7,0,0,0,NA,13,0,42,0,1,NA,NA,NA,7.7,62.5,2023_07
-125.216,48.786,CAPE BEALE LIGHT,1031316,BC,15,0,1.1,21,0,9,0,0,0,NA,34,0,63,0,6,NA,NA,NA,92,0,2023_07
-128.427,50.782,CAPE SCOTT,1031353,BC,14.3,1,0.9,18.5,1,9,1,0,1,NA,59.1,1,NA,0,9,NA,NA,NA,111.9,0,2023_07
-126.543,49.383,ESTEVAN POINT,1032730,BC,16.2,16,1.8,21,16,11.5,16,0,16,NA,38,16,NA,0,6,NA,NA,NA,27.3,0,2023_07
-126.543,49.383,ESTEVAN POINT CS,1032731,BC,15.1,5,NA,20.3,5,9.9,5,NA,NA,NA,12.9,5,NA,NA,3,NA,NA,NA,74.6,0,2023_07
-125.923,49.111,LENNARD ISLAND,1034600,BC,14.6,0,NA,20.5,0,9.5,0,0,0,NA,43.6,0,63,0,6,NA,NA,NA,105.2,0,2023_07
-124.655,48.859,NITINAT RIVER HATCHERY,1035612,BC,16.5,0,0.2,31,0,5.5,0,0,0,NA,37.5,0,60,0,4,NA,NA,NA,53.7,7.1,2023_07
-126.617,49.6,NOOTKA LIGHTSTATION,1035614,BC,16.1,0,0.3,25,0,9.5,0,0,0,NA,55.2,0,70,0,7,NA,NA,NA,63.5,3.1,2023_07
-125.097,48.723,PACHENA POINT,1035940,BC,14.5,0,0.4,23.5,0,7.5,0,0,0,NA,30.5,0,44,0,4,NA,NA,NA,107.8,0,2023_07
-127.653,50.534,QUATSINO,1036570,BC,15.7,3,0.4,23.5,3,7.5,3,0,3,NA,56.5,3,NA,0,9,NA,NA,NA,65.2,0,2023_07
-128.033,50.441,QUATSINO LIGHTSTATION,1036572,BC,15.5,1,0.7,23,1,11,1,0,1,NA,55.2,1,NA,NA,10,NA,NA,NA,74.3,0.3,2023_07
-124.927,49.317,PORT ALBERNI (AUT),1036B06,BC,19.1,0,NA,34.5,0,6.5,0,NA,NA,NA,11.8,0,NA,NA,2,NA,NA,NA,10.1,42.8,2023_07
-128.908,50.821,SARTINE ISLAND (AUT),1037090,BC,14,2,NA,18.4,2,10.5,2,NA,NA,NA,41.8,2,NA,NA,8,NA,NA,NA,116.4,0,2023_07
-127.94,50.112,SOLANDER ISLAND (AUT),1037553,BC,13.9,1,NA,19,1,10.1,1,NA,NA,NA,53.2,1,NA,NA,8,NA,NA,NA,124.5,0,2023_07
-125.773,49.082,TOFINO A,1038210,BC,15.4,0,NA,26.5,0,6.6,0,NA,NA,NA,NA,NA,NA,NA,NA,NA,NA,NA,83.1,1.1,2023_07
-125.527,48.945,UCLUELET KENNEDY CAMP,1038332,BC,15.9,0,0.9,28,0,7,0,0,0,NA,35.6,0,45,0,4,NA,NA,NA,68.2,1.6,2023_07
-126.779,50.053,ZEBALLOS MURAUDE CREEK,1039035,BC,17.8,8,NA,31,8,7,8,0,8,NA,14,8,NA,0,2,NA,NA,NA,18.6,13.9,2023_07
-123.402,49.36,BOWEN ISLAND SUNSET PARK,104091B,BC,NA,NA,NA,NA,NA,NA,NA,0,2,NA,18,2,NA,0,2,NA,NA,NA,NA,NA,2023_07
-123.541,49.386,GIBSONS GOWER POINT,1043152,BC,19,3,1.4,26,3,13,3,0,2,NA,22.4,2,NA,0,2,NA,NA,NA,6.3,35.4,2023_07
-123.913,49.468,MERRY ISLAND LIGHTSTATION,1045100,BC,19.6,0,1.5,28,0,13,0,0,0,NA,14.2,0,41,0,1,NA,NA,NA,2.4,53.5,2023_07
-123.299,49.488,HOWE SOUND - PAM ROCKS,10459NN,BC,20.2,2,NA,27.1,2,14.5,2,NA,NA,NA,23,2,NA,NA,2,NA,NA,NA,0.4,62.9,2023_07
-124.032,49.634,PENDER HARBOUR,1046115,BC,NA,NA,NA,NA,NA,NA,NA,0,0,NA,11,0,NA,0,4,NA,NA,NA,NA,NA,2023_07
-123.496,49.526,PORT MELLON,1046332,BC,20.1,0,NA,30.3,0,12.2,0,NA,NA,NA,44,0,NA,NA,3,NA,NA,NA,4.3,67.9,2023_07
-124.5,49.834,POWELL RIVER A,1046391,BC,19,0,1.7,30.5,0,9.5,0,0,0,NA,11.3,0,30,0,3,NA,NA,NA,7.5,37.2,2023_07
-124.497,49.835,POWELL RIVER,1046392,BC,18.9,0,NA,30.7,0,10.1,0,NA,NA,NA,14.9,0,NA,NA,3,NA,NA,NA,8.3,35.3,2023_07
-124.5,49.834,POWELL RIVER A,1046396,BC,19,0,NA,30.6,0,9.3,0,NA,NA,NA,NA,NA,NA,NA,NA,NA,NA,NA,7.2,37.1,2023_07
-123.715,49.458,SECHELT AUT,1047172,BC,18.5,0,NA,31.5,0,9.6,0,NA,NA,NA,14.1,0,NA,NA,1,NA,NA,NA,14.1,30.1,2023_07
-123.161,49.783,SQUAMISH AIRPORT,10476F0,BC,20.1,0,NA,32.6,0,9.2,0,NA,NA,NA,39.9,0,NA,NA,3,NA,NA,NA,3.1,67,2023_07
-122.955,50.129,WHISTLER,1048898,BC,18.4,15,2.1,32,15,7.5,15,0,15,NA,15.1,15,NA,NA,2,NA,NA,NA,11.9,19,2023_07
-131.016,51.936,CAPE ST JAMES,1051351,BC,14.5,13,NA,20.1,13,10.6,13,NA,NA,NA,48.1,13,NA,NA,9,NA,NA,NA,63.4,0,2023_07
-132.772,53.316,KINDAKUN ROCKS (AUT),1054222,BC,11.4,23,NA,13.8,23,8.7,23,NA,NA,NA,NA,NA,NA,NA,NA,NA,NA,NA,52.5,0,2023_07
-133.058,54.255,LANGARA,1054500,BC,12.9,1,0.2,18,1,7,1,0,1,NA,28.8,1,NA,0,8,NA,NA,NA,153.2,0,2023_07
-133.058,54.255,LANGARA ISLAND RCS,1054503,BC,13.1,1,NA,17.8,1,8.7,1,NA,NA,NA,24.1,6,NA,NA,5,NA,NA,NA,147.8,0,2023_07
-132.125,54.027,MASSET A,1054929,BC,13.8,0,NA,21.1,0,5.5,0,NA,NA,NA,NA,NA,NA,NA,NA,NA,NA,NA,130.8,0,2023_07
-131.661,54.159,ROSE SPIT (AUT),1056869,BC,14.2,0,NA,21.5,0,4.4,0,NA,NA,NA,63.6,0,NA,NA,10,NA,NA,NA,119.2,0,2023_07
-131.813,53.249,SANDSPIT AIRPORT AUTO,1057051,BC,15.3,2,NA,21.2,2,8.7,2,NA,NA,NA,71,2,NA,NA,11,NA,NA,NA,79.2,0,2023_07
-131.814,53.254,SANDSPIT,1057052,BC,15.5,0,NA,20.5,0,9.1,0,NA,NA,NA,73.7,0,NA,NA,11,NA,NA,NA,77,0,2023_07
-127.864,51.604,ADDENBROKE ISLAND,1060080,BC,16.4,0,1.5,22.5,0,11,0,0,0,NA,100,0,92,0,14,NA,NA,NA,51.9,1.6,2023_07
-128.157,52.185,BELLA BELLA,1060815,BC,15.4,0,NA,25.9,0,4.4,0,NA,NA,NA,135.4,0,NA,NA,10,NA,NA,NA,80.8,0,2023_07
-126.587,52.389,BELLA COOLA AIRPORT,1060844,BC,18,0,NA,30.3,0,4.6,0,NA,NA,NA,55.6,0,NA,NA,9,NA,NA,NA,26.4,25.9,2023_07
-126.596,52.388,BELLA COOLA A,1060848,BC,17.9,0,NA,29.9,0,4.7,0,NA,NA,NA,NA,NA,NA,NA,NA,NA,NA,NA,27.1,25.4,2023_07
-128.524,52.643,BOAT BLUFF,1060901,BC,15.9,0,1.2,26,0,9,0,0,0,NA,71.8,0,40,0,9,NA,NA,NA,66,1.3,2023_07
-130.638,53.493,BONILLA ISLAND,1060902,BC,14.3,0,0.9,20.5,0,9,0,0,0,NA,50.9,0,58,0,13,NA,NA,NA,114.9,0,2023_07
-130.639,53.493,BONILLA ISLAND (AUT),1060R0K,BC,13.6,8,NA,17.1,8,9.9,8,NA,NA,NA,40.8,10,NA,NA,8,NA,NA,NA,100.3,0,2023_07
-127.471,52.187,CATHEDRAL POINT (AUT),1061458,BC,17.3,4,NA,25.4,4,9.7,4,NA,NA,NA,66,4,NA,NA,9,NA,NA,NA,29.9,10.9,2023_07
-131.602,53.03,CUMSHEWA ISLAND,1062251,BC,14.6,4,NA,18.2,4,10.6,4,NA,NA,NA,17.6,11,NA,NA,4,NA,NA,NA,91.2,0,2023_07
-128.112,52.185,DRYAD POINT,1062544,BC,16.6,0,1.2,26.5,0,10,0,0,0,NA,126.6,0,108,0,11,NA,NA,NA,46.4,2.8,2023_07
-127.835,51.247,EGG ISLAND,1062646,BC,13.5,26,-0.2,17,26,10.5,26,0,26,NA,0.4,26,NA,NA,0,NA,NA,NA,22.4,0,2023_07
-130.698,54.58,GREY ISLET (AUT),1063303,BC,15.3,0,NA,20.7,0,10.2,0,NA,NA,NA,46.8,0,NA,NA,11,NA,NA,NA,84.3,0,2023_07
-127.632,50.94,HERBERT ISLAND (AUT),1063461,BC,13.8,0,NA,21,0,9.9,0,NA,NA,NA,49.6,0,NA,NA,8,NA,NA,NA,130.5,0,2023_07
-130.361,54.172,HOLLAND ROCK,1063496,BC,13.3,0,NA,19.3,0,9.4,0,NA,NA,NA,57.8,0,NA,NA,9,NA,NA,NA,145.8,0,2023_07
-127.943,53.563,KEMANO,1064020,BC,17.3,0,0.9,33.5,0,4.5,0,0,0,NA,67.3,0,109,0,10,NA,NA,NA,47.6,27.4,2023_07
-128.634,54.054,KITIMAT FOREST AVE,1064324,BC,18.1,0,NA,34.1,0,6.6,0,NA,NA,NA,33.5,0,NA,NA,8,NA,NA,NA,32.7,36.6,2023_07
-130.609,54.296,LUCY ISLAND LIGHTSTATION,1064728,BC,14,0,NA,18.8,0,10.4,0,NA,NA,NA,NA,NA,NA,NA,NA,NA,NA,NA,123.4,0,2023_07
-128.719,52.262,MCINNES ISLAND,1065010,BC,15.2,0,1,21.5,0,10.5,0,0,0,NA,50.4,0,46,0,11,NA,NA,NA,85.6,0,2023_07
-130.445,54.286,PRINCE RUPERT,1066482,BC,14.3,1,NA,20.2,1,7.7,1,NA,NA,NA,49.8,1,NA,NA,10,NA,NA,NA,112.3,0,2023_07
-130.29,54.32,PRINCE RUPERT MONT CIRC,1066488,BC,NA,NA,NA,NA,NA,NA,NA,0,14,NA,62.2,14,NA,0,10,NA,NA,NA,NA,NA,2023_07
-129.983,55.933,STEWART A,1067748,BC,16.7,1,NA,30.6,1,7.6,1,NA,NA,NA,NA,NA,NA,NA,NA,NA,NA,NA,49.3,9.2,2023_07
-128.625,54.502,TERRACE PCC,1068131,BC,20.4,21,3.5,35,21,8.5,21,0,21,NA,0,21,NA,0,0,NA,NA,NA,5,28.8,2023_07
-128.578,54.469,TERRACE A,1068134,BC,18,3,NA,33,3,3.8,3,0,2,NA,58.4,2,NA,NA,10,NA,NA,NA,39.1,40.4,2023_07
-130.88,54.295,TRIPLE ISLAND,1068250,BC,14.2,0,NA,18,0,10,0,0,0,NA,54.6,0,NA,0,12,NA,NA,NA,119.2,0,2023_07
-128.682,54.044,KITIMAT HATCHERY,106D289,BC,19.6,17,NA,35.5,17,6.5,17,0,17,NA,2.6,17,NA,NA,2,NA,NA,NA,5.2,27,2023_07
-126.668,54.396,HOUSTON,1073615,BC,17.3,2,NA,33,2,5,2,0,3,NA,79,3,NA,0,9,NA,NA,NA,47,27,2023_07
-127.183,54.825,SMITHERS,1077499,BC,16.7,1,NA,33,1,2.3,1,NA,NA,NA,34.7,1,NA,NA,9,NA,NA,NA,57.8,19.8,2023_07
-127.189,54.824,SMITHERS AIRPORT AUTO,1077501,BC,17.2,0,NA,32.7,0,3.6,0,NA,NA,NA,30.5,0,NA,NA,8,NA,NA,NA,51,27,2023_07
-127.171,55.289,SUSKWA VALLEY,107G879,BC,17.2,1,2.7,32,1,5,1,0,1,NA,60,1,NA,0,9,NA,NA,NA,42.8,18.4,2023_07
-122.738,50.302,PEMBERTON AIRPORT (WIND),1086081,BC,21.4,0,NA,36.7,0,8.1,0,NA,NA,NA,NA,NA,NA,NA,NA,NA,NA,NA,2.7,107.7,2023_07
-122.734,50.306,PEMBERTON AIRPORT CS,1086082,BC,21.7,0,NA,36.9,0,8.3,0,NA,NA,NA,20.2,0,NA,NA,3,NA,NA,NA,3.1,116.8,2023_07
-124.136,52.114,PUNTZI MOUNTAIN (AUT),1086558,BC,15.5,3,NA,31.5,3,-2.4,3,NA,NA,NA,62.1,3,NA,NA,7,NA,NA,NA,74.3,4.4,2023_07
-124.403,51.675,TATLAYOKO LAKE RCS,1088015,BC,15.9,1,NA,30.9,1,-1.9,1,NA,NA,NA,23,1,NA,NA,5,NA,NA,NA,66.4,2.7,2023_07
-121.515,53.069,BARKERVILLE,1090660,BC,13.6,0,1.3,28,0,1.5,0,0,0,NA,64.5,0,64,0,12,NA,NA,NA,136,0.5,2023_07
-125.959,54.383,BURNS LAKE DECKER LAKE,1091174,BC,14.5,0,NA,29.9,0,-1.2,0,NA,NA,NA,106.2,0,NA,NA,10,NA,NA,NA,114.5,6.7,2023_07
-124.286,54.455,FORT ST JAMES AUTO,1092975,BC,17.2,0,NA,30.6,0,6.6,0,NA,NA,NA,30.3,0,NA,NA,7,NA,NA,NA,47.4,22.5,2023_07
-124.293,54.459,FORT ST JAMES GOLF CLUB,1092977,BC,17.2,0,NA,30.8,0,6.7,0,NA,NA,NA,36.9,0,NA,NA,7,NA,NA,NA,49,23.1,2023_07
-122.286,52.531,MCLEESE LAKE GRANITE MT,1095018,BC,16.3,17,NA,30.5,12,5,12,0,12,NA,25.3,12,NA,NA,6,NA,NA,NA,31.5,7.1,2023_07
-122.678,53.884,PRINCE GEORGE,1096439,BC,16.3,0,NA,31.9,0,3.2,0,NA,NA,NA,24.9,17,NA,NA,7,NA,NA,NA,67.1,15.5,2023_07
-122.672,53.889,PRINCE GEORGE AIRPORT AUTO,1096453,BC,16.3,0,NA,31.9,0,3.2,0,NA,NA,NA,23.2,0,NA,NA,7,NA,NA,NA,68.3,15.5,2023_07
-122.791,53.9,PRINCE GEORGE MASSEY AUTO,1096454,BC,18.6,0,NA,32.5,0,7,0,NA,NA,NA,27.1,0,NA,NA,6,NA,NA,NA,27.1,44.7,2023_07
-122.51,53.026,QUESNEL,1096629,BC,17.6,1,NA,32.9,1,5,1,NA,NA,NA,37.5,1,NA,NA,8,NA,NA,NA,40.5,28.5,2023_07
-122.506,53.027,QUESNEL AIRPORT AUTO,1096631,BC,17.8,0,NA,33.9,0,5,0,NA,NA,NA,33.1,0,NA,NA,7,NA,NA,NA,39.6,34.6,2023_07
-121.686,52.184,SPOKIN LAKE 4E,1097646,BC,13.7,1,0.3,31.5,1,-3,1,0,1,NA,18,1,NA,0,3,NA,NA,NA,131,2.3,2023_07
-122.054,52.183,WILLIAMS LAKE A,1098941,BC,17.6,3,NA,32.6,3,3.6,3,0,0,NA,15.2,0,NA,NA,6,NA,NA,NA,41.3,30.3,2023_07
-122.36,49.025,ABBOTSFORD A,1100031,BC,19.6,1,NA,32.1,1,9.8,1,0,0,NA,24.3,0,NA,NA,2,NA,NA,NA,3.7,52.3,2023_07
-122.36,49.025,ABBOTSFORD A,1100032,BC,19.5,0,NA,32.1,0,9.8,0,NA,NA,NA,NA,NA,NA,NA,NA,NA,NA,NA,4.8,52.3,2023_07
-121.76,49.243,AGASSIZ RCS,1100119,BC,20,0,1.2,32.5,0,8.9,0,NA,NA,NA,23.2,0,NA,NA,1,NA,NA,NA,7.1,68,2023_07
-121.76,49.243,AGASSIZ CDA,1100120,BC,NA,NA,NA,32.5,0,NA,NA,0,0,NA,1.5,0,2,0,1,NA,NA,NA,NA,NA,2023_07
-122.955,50.129,WHISTLER - NESTERS,1100875,BC,18.5,0,NA,32.9,0,6.5,0,NA,NA,NA,23.8,0,NA,NA,3,NA,NA,NA,23.6,37.8,2023_07
-123.008,49.073,VANCOUVER BOUNDARY BAY,1100909,BC,18.5,0,NA,30.2,0,10.2,0,NA,NA,NA,NA,NA,NA,NA,NA,NA,NA,NA,13.3,27.7,2023_07
-123.111,50.144,CALLAGHAN VALLEY,1101300,BC,17,0,NA,30.2,0,5.7,0,NA,NA,NA,33.8,0,NA,NA,3,NA,NA,NA,52.6,21,2023_07
-121.97,49.106,CHILLIWACK SOUTH,1101571,BC,20.3,20,NA,29.8,20,11.4,20,0,20,NA,20,20,NA,0,1,NA,NA,NA,0.4,26.2,2023_07
-122.698,49.109,CLOVERDALE EAST,1101708,BC,20.2,1,NA,31.5,1,12,1,0,1,NA,18.8,1,NA,NA,3,NA,NA,NA,3.1,69.4,2023_07
-121.979,49.079,CULTUS LAKE,1102221,BC,20.6,0,NA,34,0,10.1,0,NA,NA,NA,20.6,0,NA,NA,1,NA,NA,NA,2.5,83.7,2023_07
-123.002,49.126,DELTA BURNS BOG,1102415,BC,18.2,0,NA,31.2,0,8.6,0,NA,NA,NA,19.8,0,NA,NA,2,NA,NA,NA,18.5,23.8,2023_07
-123.093,49.011,DELTA TSAWWASSEN BEACH,1102425,BC,19.6,0,1.7,28,0,13.5,0,0,0,NA,20.8,0,68,0,3,NA,NA,NA,2.6,53,2023_07
-122.551,49.145,FORT LANGLEY TELEGRAPH TRAIL,1102912,BC,20.3,14,NA,31.5,14,10,14,0,14,NA,0,14,NA,NA,0,NA,NA,NA,2,41.8,2023_07
-122.573,49.264,HANEY UBC RF ADMIN,1103332,BC,19.5,4,2,32.5,1,9.5,4,0,1,NA,19.7,1,NA,0,3,NA,NA,NA,8.9,50.4,2023_07
-122.631,49.101,LANGLEY REGIONAL,1104570,BC,19,1,NA,31.7,1,8.8,1,NA,NA,NA,NA,NA,NA,NA,NA,NA,NA,NA,7.7,38.8,2023_07
-122.271,49.153,MISSION WEST ABBEY,1105192,BC,20.2,0,2.4,32,0,11.5,0,0,0,NA,8.6,0,12,0,2,NA,NA,NA,5.3,73.9,2023_07
-123.078,49.381,N VANC GROUSE MTN RESORT,1105658,BC,15.7,3,2.5,25,3,6,3,0,3,NA,50,3,NA,0,3,NA,NA,NA,82.1,18.1,2023_07
-123.115,49.315,N VANCOUVER WHARVES,1105669,BC,NA,NA,NA,NA,NA,NA,NA,0,0,NA,23.2,0,49,0,2,NA,NA,NA,NA,NA,2023_07
-122.69,49.208,PITT MEADOWS CS,1106178,BC,20.8,0,NA,32.8,0,12.7,0,NA,NA,NA,15.1,0,NA,NA,2,NA,NA,NA,1.3,87.7,2023_07
-122.713,49.216,PITT MEADOWS,110617P,BC,19.8,0,NA,32.3,0,9.6,0,NA,NA,NA,NA,NA,NA,NA,NA,NA,NA,NA,3.7,58.5,2023_07
-123.265,49.33,POINT ATKINSON,1106200,BC,19.8,0,NA,26.7,0,13.8,0,NA,NA,NA,26,0,NA,NA,4,NA,NA,NA,2.1,57.3,2023_07
-123.087,49.179,RICHMOND DALLYN 2,1106764,BC,NA,NA,NA,NA,NA,NA,NA,0,0,NA,26,0,NA,0,3,NA,NA,NA,NA,NA,2023_07
-122.881,49.279,PORT MOODY GLENAYRE,1106CL2,BC,19.2,0,1.5,31,0,6,0,0,0,NA,19,0,31,0,2,NA,NA,NA,20.5,56.2,2023_07
-123.093,49.171,RICHMOND NATURE PARK,1106PF7,BC,19.9,9,1.6,32,9,10,9,0,9,NA,1,9,NA,0,1,NA,NA,NA,2,44,2023_07
-123.303,49.106,SANDHEADS CS,1107010,BC,18.5,0,NA,24.1,0,13.7,0,NA,NA,NA,NA,NA,NA,NA,NA,NA,NA,NA,10.4,25.6,2023_07
-122.11,49.113,SUMAS CANAL,1107785,BC,20.3,21,NA,33,15,12,15,0,15,NA,25,15,NA,0,2,NA,NA,NA,1.5,24.5,2023_07
-123.187,49.183,VANCOUVER SEA ISLAND CCG,1108380,BC,19.6,0,NA,30.8,0,11.9,0,NA,NA,NA,19.5,0,NA,NA,2,NA,NA,NA,3.5,51.6,2023_07
-123.184,49.195,VANCOUVER INTL A,1108395,BC,19,0,NA,29.2,0,11.9,0,0,0,NA,20.5,0,NA,NA,2,NA,NA,NA,5.2,36,2023_07
-123.122,49.295,VANCOUVER HARBOUR CS,1108446,BC,20.4,0,NA,29,0,13.5,0,NA,NA,NA,21.4,0,NA,NA,1,NA,NA,NA,0.8,76.6,2023_07
-123.193,49.347,WEST VANCOUVER AUT,1108824,BC,20.2,1,NA,31.3,1,11.9,1,NA,NA,NA,30.6,1,NA,NA,3,NA,NA,NA,4.1,70.7,2023_07
-122.947,50.068,WHISTLER ROUNDHOUSE,1108906,BC,12.2,7,NA,21,7,3.5,7,0,7,NA,41.6,7,NA,0,5,NA,NA,NA,140.1,0,2023_07
-122.784,49.018,WHITE ROCK CAMPBELL SCIENTIFIC,1108910,BC,18.7,0,NA,30.3,0,11.8,0,NA,NA,NA,16.6,0,NA,NA,2,NA,NA,NA,7.9,28.2,2023_07
-122.967,49.438,N VAN SEYMOUR HATCHERY,110N666,BC,16.3,29,-0.7,25,29,7,29,0,29,NA,0,29,NA,NA,0,NA,NA,NA,3.5,0,2023_07
-123.111,49.294,VANCOUVER HARBOUR,110Q44V,BC,20.4,0,NA,29.5,0,13.1,0,NA,NA,NA,NA,NA,NA,NA,NA,NA,NA,NA,3.8,77.1,2023_07
-121.498,49.368,HOPE A,1113542,BC,21.1,2,NA,33.4,2,10.3,2,NA,NA,NA,21.2,0,NA,NA,2,NA,NA,NA,1.4,92.2,2023_07
-121.493,49.37,HOPE AIRPORT,1113543,BC,21,0,NA,33.4,0,9.7,0,NA,NA,NA,24.1,1,NA,NA,2,NA,NA,NA,1.6,93.6,2023_07
-121.233,49.267,HOPE SLIDE,1113581,BC,17.5,0,2.4,31.5,0,7,0,0,0,NA,19,0,39,0,2,NA,NA,NA,38.1,22.9,2023_07
-121.934,50.684,LILLOOET,1114619,BC,24.1,0,NA,37.8,0,11.5,0,NA,NA,NA,4.2,0,NA,NA,2,NA,NA,NA,0,187.6,2023_07
-121.582,50.224,LYTTON A,1114738,BC,24.2,0,NA,38.4,0,12,0,NA,NA,NA,3.5,0,NA,NA,2,NA,NA,NA,0.5,193.3,2023_07
-121.582,50.224,LYTTON RCS,1114746,BC,24.7,3,NA,39.4,3,12,3,NA,NA,NA,2.7,3,NA,NA,2,NA,NA,NA,0,186.5,2023_07
-120.333,49.673,JELLICOE,1123721,BC,17.7,0,NA,34,0,3,0,0,0,NA,22.6,0,NA,0,5,NA,NA,NA,38.3,29.8,2023_07
-119.378,49.957,KELOWNA,1123939,BC,21.3,0,NA,36.3,0,5.9,0,NA,NA,NA,8.8,0,NA,NA,2,NA,NA,NA,3.9,105.7,2023_07
-119.4,49.941,KELOWNA UBCO,1123996,BC,22.7,1,NA,36.9,1,9.2,1,NA,NA,NA,8.6,1,NA,NA,2,NA,NA,NA,1.1,142.9,2023_07
-120.778,50.113,MERRITT,1125073,BC,19.4,0,NA,35.7,0,3.8,0,NA,NA,NA,5.8,0,NA,NA,3,NA,NA,NA,14.3,56.8,2023_07
-119.441,49.028,OSOYOOS CS,1125852,BC,24.3,1,1.4,38,1,11,1,NA,NA,NA,9.6,1,NA,NA,3,NA,NA,NA,0,189.9,2023_07
-119.717,49.783,PEACHLAND,1126070,BC,23.7,0,2.3,35,0,13,0,19.5,0,NA,62.5,0,196,0,4,NA,NA,NA,0.2,176.5,2023_07
-119.602,49.463,PENTICTON A,1126146,BC,22.7,3,NA,36.1,3,7.2,3,0,2,NA,1,2,NA,NA,0,NA,NA,NA,1.4,134,2023_07
-120.513,49.468,PRINCETON A,1126510,BC,19.7,0,1.8,35.5,0,4.5,0,0,0,NA,15.7,0,53,0,4,NA,NA,NA,12.2,66.2,2023_07
-120.513,49.468,PRINCETON A,1126518,BC,19.7,0,NA,35.4,0,4.5,0,NA,NA,NA,NA,NA,NA,NA,NA,NA,NA,NA,12,63.7,2023_07
-119.194,50.223,VERNON AUTO,1128582,BC,22.6,0,NA,36.9,0,9.6,0,NA,NA,NA,7.7,0,NA,NA,2,NA,NA,NA,0.7,143.2,2023_07
-119.056,50.359,VERNON SILVER STAR LODGE,1128584,BC,16.7,0,NA,29,0,4,0,0,0,NA,20.4,0,NA,0,5,NA,NA,NA,63.2,22,2023_07
-120.51,49.465,PRINCETON CS,112FN0M,BC,19.9,0,NA,35.6,0,4.9,0,NA,NA,NA,13.7,0,NA,NA,3,NA,NA,NA,10.7,68.4,2023_07
-119.649,49.563,SUMMERLAND CS,112G8L1,BC,23.3,0,1.9,35.5,0,10,0,NA,NA,NA,8.3,0,NA,NA,3,NA,NA,NA,1,164,2023_07
-118.228,49.017,BILLINGS,1140876,BC,22.5,0,1.6,36.5,0,10,0,0,0,NA,16.2,0,45,0,2,NA,NA,NA,0,139.2,2023_07
-117.633,49.296,CASTLEGAR A,1141455,BC,22.9,0,2.7,37.5,0,7.5,0,0,0,NA,5,0,10,0,2,NA,NA,NA,0,150.9,2023_07
-117.774,49.343,CASTLEGAR BCHPA DAM,1141457,BC,23,2,2.9,36,1,13,1,0,1,NA,6.2,1,NA,0,3,NA,NA,NA,0,145.6,2023_07
-117.633,49.296,CASTLEGAR A,1141460,BC,22.2,0,NA,38.2,0,6.6,0,NA,NA,NA,NA,NA,NA,NA,NA,NA,NA,NA,0,130.1,2023_07
-116.972,50.239,DUNCAN LAKE DAM,1142574,BC,19.7,0,2.1,35,0,6,0,0,0,NA,12,0,21,0,5,NA,NA,NA,4.6,57.8,2023_07
-117.817,50.269,NAKUSP CS,1145297,BC,21.3,0,NA,37.2,0,6.9,0,NA,NA,NA,17.2,0,NA,NA,3,NA,NA,NA,0.9,103,2023_07
-117.206,49.586,NELSON NE,1145442,BC,20.7,12,NA,34,12,9,12,0,12,NA,18.6,12,NA,0,4,NA,NA,NA,4.7,56.4,2023_07
-117.37,49.996,NEW DENVER,1145460,BC,21.5,0,2.4,35,0,9,0,0,0,NA,15.6,0,26,0,2,NA,NA,NA,0,108.3,2023_07
-117.305,49.491,NELSON CS,1145M29,BC,22.5,1,NA,38.2,1,9.2,1,NA,NA,NA,6.2,3,NA,NA,3,NA,NA,NA,0,134.2,2023_07
-117.739,49.112,WARFIELD RCS,1148705,BC,23.1,0,NA,38.2,0,7.7,0,NA,NA,NA,5.8,0,NA,NA,2,NA,NA,NA,0,156.7,2023_07
-116.501,49.082,CRESTON CAMPBELL SCIENTIFIC,114B1F0,BC,23.2,0,NA,36.9,0,10.9,0,NA,NA,NA,7.2,0,NA,NA,1,NA,NA,NA,0,159.9,2023_07
-117.399,49.512,NELSON RIXEN CREEK,114EMDM,BC,21.6,0,NA,36.5,0,8.5,0,0,0,NA,2.6,0,NA,0,1,NA,NA,NA,0.4,111.2,2023_07
-115.782,49.612,CRANBROOK A,1152105,BC,20.5,2,NA,35.4,2,6.6,2,0,0,NA,3.2,0,NA,NA,1,NA,NA,NA,6.6,78.2,2023_07
-115.789,49.618,CRANBROOK AIRPORT AUTO,1152106,BC,20.7,0,NA,35.9,0,7,0,NA,NA,NA,2.3,0,NA,NA,0,NA,NA,NA,7.3,90.4,2023_07
-115.073,49.489,FERNIE,1152850,BC,19.5,12,2.7,35.5,12,5,12,0,12,NA,7.7,12,NA,NA,3,NA,NA,NA,8.1,36.5,2023_07
-115.461,49.524,FT STEELE DANDY CRK,1153034,BC,19.4,17,NA,35.5,11,5,12,0,11,NA,7,11,NA,0,2,NA,NA,NA,5.4,24.8,2023_07
-115.962,49.632,KIMBERLEY PCC,1154203,BC,19.6,16,1.4,34.5,16,6,16,0,16,NA,0.4,16,NA,0,0,NA,NA,NA,7.1,30.4,2023_07
-114.884,49.745,SPARWOOD CS,1157631,BC,17.5,0,NA,32.4,0,3.7,0,NA,NA,NA,23.9,0,NA,NA,7,NA,NA,NA,40.3,25,2023_07
-114.883,49.833,SPARWOOD A,1157635,BC,17.5,1,NA,32.2,1,3.6,1,NA,NA,NA,NA,NA,NA,NA,NA,NA,NA,NA,39.2,24.2,2023_07
-121.281,50.708,ASHCROFT,1160515,BC,24.5,0,NA,38.4,0,11,0,NA,NA,NA,20.6,0,NA,NA,2,NA,NA,NA,0,202.3,2023_07
-119.29,52.129,BLUE RIVER A,1160899,BC,18,0,1.6,34,0,2,0,0,0,NA,29.6,0,28,0,5,NA,NA,NA,33,33.7,2023_07
-119.293,52.125,BLUE RIVER A,1160902,BC,18,1,NA,34.1,1,2.1,1,NA,NA,NA,NA,NA,NA,NA,NA,NA,NA,NA,33.7,33.1,2023_07
-119.29,52.129,BLUE RIVER CS,1160H99,BC,18.2,0,NA,35.1,0,2.2,0,NA,NA,NA,23.7,12,NA,NA,5,NA,NA,NA,31.8,37.5,2023_07
-120.082,51.653,CLEARWATER AUTO,1161650,BC,20.8,0,NA,36.9,0,5.4,0,NA,NA,NA,NA,NA,NA,NA,NA,NA,NA,NA,11.5,98.7,2023_07
-121.685,51.266,CLINTON A,1161662,BC,14.8,0,NA,30.1,0,-1.9,0,NA,NA,NA,13.2,0,NA,NA,4,NA,NA,NA,99.6,0.9,2023_07
-121.505,51.144,CLINTON RCS,1161663,BC,17.2,0,NA,31.6,0,1.7,0,NA,NA,NA,10.2,0,NA,NA,3,NA,NA,NA,46,21.9,2023_07
-120.449,50.703,KAMLOOPS A,1163781,BC,23.2,0,NA,38.3,0,9.8,0,0,0,NA,9.3,0,NA,NA,2,NA,NA,NA,0,160.9,2023_07
-120.442,50.702,KAMLOOPS AUT,1163842,BC,23.3,2,NA,37.8,2,10.1,2,NA,NA,NA,10.4,2,NA,NA,2,NA,NA,NA,0,154.9,2023_07
-121.217,51.681,100 MILE HOUSE 6NE,1165793,BC,17.2,0,NA,34.5,0,-0.5,0,0,0,NA,23.2,0,NA,0,5,NA,NA,NA,46.2,21,2023_07
-119.778,51.576,VAVENBY,1168520,BC,19.9,0,1.7,37,0,4,0,0,0,NA,6.8,0,12,0,2,NA,NA,NA,17.1,75.8,2023_07
-120.172,50.63,KAMLOOPS PRATT ROAD,116C8P0,BC,21.1,0,NA,34,0,8.5,0,0,0,NA,10.4,0,NA,0,3,NA,NA,NA,9.6,106.1,2023_07
-119.291,50.703,SALMON ARM CS,116FRMN,BC,21.3,1,0.6,36,1,7.1,1,NA,NA,NA,5,1,NA,NA,2,NA,NA,NA,0.7,100.5,2023_07
-116.982,51.299,GOLDEN A,1173210,BC,18.9,3,1.6,33,3,5,3,0,3,NA,20.6,3,NA,0,2,NA,NA,NA,19,43.2,2023_07
-116.982,51.299,GOLDEN A,1173214,BC,18.9,4,NA,33.4,4,5.3,4,NA,NA,NA,NA,NA,NA,NA,NA,NA,NA,NA,17.2,41.9,2023_07
-116.984,51.3,GOLDEN AIRPORT,1173220,BC,19,2,NA,33.6,2,5.4,2,NA,NA,NA,30.6,2,NA,NA,5,NA,NA,NA,17.6,46.7,2023_07
-118.585,52.053,MICA DAM,1175122,BC,18.7,2,2,33,1,5,1,0,1,NA,24.2,1,NA,0,6,NA,NA,NA,19.5,39.1,2023_07
-118.183,50.967,REVELSTOKE A,1176745,BC,21,0,NA,34.3,0,8.4,0,NA,NA,NA,28.6,0,NA,NA,5,NA,NA,NA,3.7,95.7,2023_07
-118.176,50.958,REVELSTOKE AIRPORT AUTO,1176755,BC,21.3,0,NA,34.9,0,8.6,0,NA,NA,NA,25.4,0,NA,NA,5,NA,NA,NA,2.2,104.3,2023_07
-116.345,51.443,YOHO PARK,11790J1,BC,14.9,13,NA,29.4,13,-1.3,13,NA,NA,NA,3.3,13,NA,0,2,NA,NA,NA,57.5,1.1,2023_07
-121.627,55.687,CHETWYND A,1181508,BC,17.6,1,2.3,33,1,4,1,0,1,NA,26.6,1,NA,0,7,NA,NA,NA,35,23.1,2023_07
-121.627,55.687,CHETWYND A,1181513,BC,17.6,0,NA,32.9,0,4.1,0,NA,NA,NA,NA,NA,NA,NA,NA,NA,NA,NA,35.9,22.9,2023_07
-120.183,55.742,DAWSON CREEK A,1182289,BC,17.1,0,NA,33.4,0,4.6,0,NA,NA,NA,63.4,0,NA,NA,13,NA,NA,NA,44.5,16.1,2023_07
-120.74,56.238,FORT ST. JOHN A,1183001,BC,17.6,0,NA,32.2,0,5.5,0,0,0,NA,66.5,0,NA,NA,8,NA,NA,NA,35.9,24.8,2023_07
-120.75,56.248,FORT ST JOHN AIRPORT,1183002,BC,17.2,0,NA,31.6,0,5.6,0,NA,NA,NA,63,0,NA,NA,9,NA,NA,NA,42.6,16.8,2023_07
-123.133,55.299,MACKENZIE,1184791,BC,16.9,1,NA,32.8,1,5.7,1,NA,NA,NA,62.7,1,NA,NA,10,NA,NA,NA,53.9,20.7,2023_07
-123.138,55.305,MACKENZIE AIRPORT AUTO,1184793,BC,17.3,0,NA,32.7,0,4.7,0,NA,NA,NA,63,0,NA,NA,9,NA,NA,NA,46.2,25.4,2023_07
-130.031,58.422,DEASE LAKE A,1192341,BC,15.7,0,NA,30.2,0,1.8,0,NA,NA,NA,61.6,0,NA,NA,9,NA,NA,NA,79.7,7.4,2023_07
-122.597,58.836,FORT NELSON A,1192946,BC,18.8,0,NA,33.5,0,8,0,0,0,NA,26.9,0,NA,NA,10,NA,NA,NA,18.6,42.1,2023_07
-122.574,58.841,FORT NELSON,1192948,BC,19.2,1,NA,33.6,1,9,1,NA,NA,NA,21.8,1,NA,NA,8,NA,NA,NA,12,49.3,2023_07
-130.025,58.426,DEASE LAKE (AUT),119BLM0,BC,15.6,0,NA,30.3,0,1.6,0,NA,NA,NA,56.5,0,NA,NA,9,NA,NA,NA,80.4,7.2,2023_07
-140.869,62.41,BEAVER CREEK A,2100155,YT,16.6,0,NA,32.3,0,3.2,0,NA,NA,NA,NA,NA,NA,NA,NA,NA,NA,NA,52.7,10.3,2023_07
-139.04,61.371,BURWASH A,2100181,YT,14.9,0,NA,29.3,0,2.8,0,NA,NA,NA,57.7,0,NA,NA,10,NA,NA,NA,95.5,0,2023_07
-139.017,61.367,BURWASH AIRPORT AUTO,2100184,YT,14.9,0,NA,29.2,0,2.9,0,NA,NA,NA,93.7,0,NA,NA,11,NA,NA,NA,96.3,0.1,2023_07
-136.192,62.115,CARMACKS CS,2100301,YT,18.7,0,NA,35.5,0,5.8,0,NA,NA,NA,31.2,0,NA,NA,6,NA,NA,NA,12.7,35.3,2023_07
-139.13,64.042,DAWSON CITY A,2100407,YT,18.8,4,NA,33.3,4,4.5,4,NA,NA,NA,NA,NA,NA,NA,NA,NA,NA,NA,12.3,34.1,2023_07
-133.376,62.208,FARO (AUT),2100518,YT,18.2,0,NA,32.5,0,8.3,0,NA,NA,NA,46.4,0,NA,NA,9,NA,NA,NA,20.5,27.6,2023_07
-133.373,62.207,FARO A,2100527,YT,18.1,0,NA,32.6,0,8.2,0,NA,NA,NA,NA,NA,NA,NA,NA,NA,NA,NA,23,25,2023_07
-137.58,60.773,HAINES JUNCTION,2100630,YT,15,0,NA,29.4,0,2.9,0,NA,NA,NA,NA,NA,NA,NA,NA,NA,NA,NA,94.7,0.2,2023_07
-138.913,69.568,HERSCHEL ISLAND,2100636,YT,14.9,26,NA,21.1,26,8.6,26,NA,NA,NA,1.5,26,NA,NA,0,NA,NA,NA,15.3,0,2023_07
-140.15,69.164,IVVAVIK NAT. PARK,2100660,YT,17.9,5,NA,30.7,5,6.9,5,NA,NA,NA,16,5,NA,NA,4,NA,NA,NA,23.9,22.5,2023_07
-130.037,63.244,MACMILLAN PASS,2100693,YT,14.4,2,NA,26.5,2,4,2,NA,NA,NA,34.9,2,NA,NA,9,NA,NA,NA,103.1,0,2023_07
-140.848,68.801,MARGARET LAKE,2100697,YT,17.1,4,NA,27.3,4,7.5,4,NA,NA,NA,26.8,4,NA,NA,7,NA,NA,NA,35.9,10.3,2023_07
-135.868,63.616,MAYO A,2100701,YT,19.8,3,NA,33.5,3,8.3,3,0,1,NA,25.3,1,NA,NA,6,NA,NA,NA,2.6,53.8,2023_07
-135.869,63.617,MAYO A,2100702,YT,19.8,1,NA,33.5,1,8.3,1,NA,NA,NA,NA,NA,NA,NA,NA,NA,NA,NA,2.6,57.8,2023_07
-139.839,67.571,OLD CROW RCS,2100805,YT,19.5,0,NA,30.5,0,9,0,NA,NA,NA,20.9,0,NA,NA,4,NA,NA,NA,14.3,59.4,2023_07
-139.84,67.57,OLD CROW A,2100807,YT,19.5,0,NA,30.6,0,8.9,0,NA,NA,NA,NA,NA,NA,NA,NA,NA,NA,NA,14.3,59.8,2023_07
-137.05,61.033,OTTER FALLS NCPC,2100840,YT,17.4,6,4.4,31,6,5.5,6,0,6,NA,51.4,6,NA,0,4,NA,NA,NA,36.2,21.8,2023_07
-137.367,62.817,PELLY RANCH FORT SELKIRK,2100881,YT,19.1,2,NA,34.3,2,4.7,2,NA,NA,NA,NA,NA,NA,NA,NA,NA,NA,NA,7.3,38,2023_07
-136.218,66.981,ROCK RIVER,2100935,YT,18.3,2,NA,27,2,6.8,2,NA,NA,NA,15,2,NA,NA,4,NA,NA,NA,25.4,35.3,2023_07
-137.217,68.95,SHINGLE POINT A,2100950,YT,16.5,0,NA,30.1,0,8.7,0,NA,NA,NA,NA,NA,NA,NA,NA,NA,NA,NA,64.2,19,2023_07
-139.127,64.061,DAWSON,2100LRP,YT,18.7,2,NA,33.7,2,4.6,2,NA,NA,NA,32.4,2,NA,NA,4,NA,NA,NA,13.8,35.1,2023_07
-132.733,60.167,TESLIN (AUT),2101102,YT,16.4,4,NA,30.6,4,5.1,4,NA,NA,NA,9.9,4,NA,NA,3,NA,NA,NA,49,5.4,2023_07
-132.742,60.173,TESLIN A,2101106,YT,16.2,0,NA,30.3,0,5.3,0,NA,NA,NA,NA,NA,NA,NA,NA,NA,NA,NA,61,6,2023_07
-128.823,60.116,WATSON LAKE A,2101201,YT,17.5,3,NA,28.8,3,6.2,3,NA,NA,NA,NA,NA,NA,NA,NA,NA,NA,NA,30,16.5,2023_07
-128.823,60.116,WATSON LAKE A,2101202,YT,17.5,0,NA,28.8,0,6.2,0,NA,NA,NA,NA,NA,NA,NA,NA,NA,NA,NA,32.9,17.3,2023_07
-128.832,60.116,WATSON LAKE (AUT),2101204,YT,17.6,2,NA,29.1,2,6.8,2,NA,NA,NA,46.5,2,NA,NA,8,NA,NA,NA,30.1,19,2023_07
-135.067,60.709,WHITEHORSE A,2101303,YT,17.5,0,NA,32.8,0,6.9,0,NA,NA,NA,NA,NA,NA,NA,NA,NA,NA,NA,40,23.5,2023_07
-135.098,60.733,WHITEHORSE AUTO,2101310,YT,17.1,0,NA,32.4,0,6.3,0,NA,NA,NA,45.6,0,NA,NA,6,NA,NA,NA,45.2,17.4,2023_07
-135.006,68.223,AKLAVIK A,2200105,NT,20,2,NA,30.3,2,11,2,NA,NA,NA,NA,NA,NA,NA,NA,NA,NA,NA,7.7,64.4,2023_07
-124.717,70.167,CAPE PARRY A,2200675,NT,9.7,1,NA,20.7,1,-0.2,1,NA,NA,NA,NA,NA,NA,NA,NA,NA,NA,NA,248,0,2023_07
-126.123,67.021,COLVILLE LAKE,2200824,NT,NA,NA,NA,NA,NA,NA,NA,NA,NA,NA,25.8,21,NA,NA,7,NA,NA,NA,NA,NA,2023_07
-126.129,67.021,COLVILLE LAKE A,2200827,NT,20.2,0,NA,30.2,0,12.5,0,NA,NA,NA,24.2,0,NA,NA,3,NA,NA,NA,1.5,70.1,2023_07
-123.433,65.209,DELINE CS,2201022,NT,16.5,0,NA,31.3,0,6.1,0,NA,NA,NA,3.1,0,NA,NA,2,NA,NA,NA,57.7,11.8,2023_07
-123.436,65.211,DELINE A,2201023,NT,16.6,0,NA,31.2,0,6.2,0,NA,NA,NA,NA,NA,NA,NA,NA,NA,NA,NA,57.4,12.8,2023_07
-124.468,61.257,DEADMEN VALLEY,22010H0,NT,18.8,2,NA,36.2,2,6.4,2,NA,NA,NA,102.4,2,NA,NA,7,NA,NA,NA,14.8,37.9,2023_07
-128.648,66.241,FORT GOOD HOPE A,2201406,NT,20.5,18,NA,31.1,18,10.9,18,NA,NA,NA,NA,NA,NA,NA,NA,NA,NA,NA,0,32,2023_07
-128.644,66.242,FORT GOOD HOPE CS,2201450,NT,21.2,0,NA,37.4,0,10.8,0,NA,NA,NA,9.8,0,NA,0,4,NA,NA,NA,0,99.3,2023_07
-123.467,60.233,FORT LIARD,2201579,NT,19.3,3,NA,34.8,3,8.4,3,NA,NA,NA,152,3,NA,NA,9,NA,NA,NA,10.2,45.5,2023_07
-123.47,60.236,FORT LIARD A,2201581,NT,19.2,5,NA,34.5,5,8.4,5,NA,NA,NA,NA,NA,NA,NA,NA,NA,NA,NA,9.4,41.5,2023_07
-134.86,67.407,FORT MCPHERSON A,2201606,NT,20.7,1,NA,32.1,1,11.3,1,NA,NA,NA,NA,NA,NA,NA,NA,NA,NA,NA,10.5,91.5,2023_07
-125.569,64.91,TULITA A,2201705,NT,21,0,NA,36.9,0,12.3,0,NA,NA,NA,NA,NA,NA,NA,NA,NA,NA,NA,0.3,92.8,2023_07
-117.602,61.317,FORT PROVIDENCE,2201799,NT,19,0,NA,31.5,0,6.5,0,NA,NA,NA,NA,NA,NA,NA,NA,NA,NA,NA,5.7,36.8,2023_07
-109.168,62.711,FORT RELIANCE (AUT),2201903,NT,17.4,0,NA,28.1,0,6.3,0,NA,NA,NA,NA,NA,NA,NA,NA,NA,NA,NA,38.7,21.5,2023_07
-113.69,61.181,FORT RESOLUTION A,2202010,NT,17.7,2,NA,29.4,2,2.8,2,NA,NA,NA,NA,NA,NA,NA,NA,NA,NA,NA,29.6,21.6,2023_07
-121.237,61.76,FORT SIMPSON CLIMATE,2202102,NT,19.9,0,NA,33.1,0,9.4,0,NA,NA,NA,25,0,NA,NA,4,NA,NA,NA,7.6,66.3,2023_07
-121.237,61.76,FORT SIMPSON A,2202103,NT,19.9,11,NA,33.8,11,9.7,11,0,5,NA,26.4,5,NA,NA,4,NA,NA,NA,3.4,41.1,2023_07
-121.237,61.76,FORT SIMPSON A,2202104,NT,20.1,0,NA,33.8,0,9.7,0,NA,NA,NA,NA,NA,NA,NA,NA,NA,NA,NA,5.5,71.3,2023_07
-111.962,60.02,FORT SMITH A,2202201,NT,18.4,7,NA,29.1,7,5.1,7,0,2,NA,7.4,2,NA,NA,3,NA,NA,NA,14.8,25,2023_07
-111.929,60.026,FORT SMITH CLIMATE,2202202,NT,18,0,NA,28.9,0,3.8,0,NA,NA,NA,7.1,0,NA,NA,2,NA,NA,NA,22.7,24.1,2023_07
-111.962,60.02,FORT SMITH A,2202203,NT,18.3,0,NA,29.1,0,5.1,0,NA,NA,NA,NA,NA,NA,NA,NA,NA,NA,NA,18.9,28.6,2023_07
-105.133,63.6,HANBURY RIVER,2202351,NT,16.3,2,NA,32.7,2,3.1,2,NA,NA,NA,26.4,1,NA,NA,4,NA,NA,NA,66,17.2,2023_07
-115.783,60.84,HAY RIVER A,2202401,NT,17.5,6,NA,27.9,6,4.1,6,0,3,NA,0,3,NA,NA,0,NA,NA,NA,28.8,15.9,2023_07
-115.777,60.839,HAY RIVER CLIMATE,2202402,NT,18,0,NA,29.1,0,5.3,0,NA,NA,NA,2.9,0,NA,NA,1,NA,NA,NA,28.2,28.7,2023_07
-115.783,60.84,HAY RIVER A,2202403,NT,17.6,0,NA,29.1,0,4.1,0,NA,NA,NA,NA,NA,NA,NA,NA,NA,NA,NA,36,22.4,2023_07
-113.726,61.92,INNER WHALEBACKS,2202560,NT,16.4,2,NA,22.8,2,7.4,2,NA,NA,NA,3.1,2,NA,NA,1,NA,NA,NA,56.4,10.4,2023_07
-133.483,68.304,INUVIK A,2202571,NT,20.5,0,NA,31.3,0,9.2,0,NA,NA,NA,NA,NA,NA,NA,NA,NA,NA,NA,10.2,86.2,2023_07
-133.517,68.317,INUVIK CLIMATE,2202578,NT,20.6,2,NA,33,2,9,2,NA,NA,NA,18.1,2,NA,NA,2,NA,NA,NA,6.5,83.3,2023_07
-117.245,63.134,WHATI,2202678,NT,17.9,0,NA,28.8,0,5.7,0,NA,NA,NA,11.7,0,NA,0,3,NA,NA,NA,22.8,19.2,2023_07
-110.682,62.418,LUTSELK'E A,2202690,NT,16.8,0,NA,27.2,0,5,0,NA,NA,NA,NA,NA,NA,NA,NA,NA,NA,NA,53.9,17.3,2023_07
-128.974,69.925,NICHOLSON PENINSULA 2,2202751,NT,15.3,13,NA,26.8,13,8,13,NA,NA,NA,NA,NA,NA,NA,NA,NA,NA,NA,50.8,2.9,2023_07
-126.799,65.281,NORMAN WELLS A,2202801,NT,20.6,0,NA,37.3,0,8.9,0,0,1,NA,17.7,1,NA,NA,3,NA,NA,NA,6.8,87.9,2023_07
-126.753,65.288,NORMAN WELLS CLIMATE,2202810,NT,20.4,0,NA,37.9,0,8,0,NA,NA,NA,17.1,0,NA,NA,3,NA,NA,NA,7.6,81.5,2023_07
-124.076,69.361,PAULATUK A,2203055,NT,16.2,3,NA,29.6,3,8.4,3,NA,NA,NA,NA,NA,NA,NA,NA,NA,NA,NA,59.9,10.7,2023_07
-124.083,69.358,PAULATUK,2203058,NT,15.7,1,NA,29.6,1,6.3,1,NA,NA,NA,28.8,1,NA,NA,3,NA,NA,NA,79.4,10.8,2023_07
-135.444,69.633,PELLY ISLAND,2203095,NT,13.1,3,NA,22.5,3,6.5,3,NA,NA,NA,NA,NA,NA,NA,NA,NA,NA,NA,136.9,0.1,2023_07
-127.209,61.963,RABBIT KETTLE,2203342,NT,18,2,NA,32.4,2,6.7,2,NA,NA,NA,63.2,2,NA,NA,9,NA,NA,NA,23.9,23.2,2023_07
-117.328,64.112,GAMETI,2203359,NT,20.1,0,NA,28.4,0,10.7,0,NA,NA,NA,30.9,0,NA,NA,4,NA,NA,NA,3.4,69.7,2023_07
-117.31,64.116,GAMETI A,2203365,NT,20.2,1,NA,28.5,1,10.7,1,NA,NA,NA,NA,NA,NA,NA,NA,NA,NA,NA,3.7,69.1,2023_07
-133.026,69.433,TUKTOYAKTUK A,2203911,NT,16.7,0,NA,26.3,0,8.2,0,NA,NA,NA,NA,NA,NA,NA,NA,NA,NA,NA,48.2,9.1,2023_07
-133.017,69.433,TUKTOYAKTUK,2203914,NT,16.9,0,NA,26.1,0,8.4,0,NA,NA,NA,11.2,0,NA,NA,2,NA,NA,NA,45.4,10.7,2023_07
-122.359,69.199,TUKTUT NOGAIT,2203918,NT,17,3,NA,26.4,3,7.9,3,NA,NA,NA,2.3,23,NA,NA,1,NA,NA,NA,48.8,20,2023_07
-114.077,64.191,WEKWEETI A,2203980,NT,18.1,0,NA,27.6,0,9,0,NA,NA,NA,49.5,0,NA,NA,5,NA,NA,NA,18.1,21,2023_07
-123.437,63.21,WRIGLEY A,2204005,NT,20.3,0,NA,35.8,0,6.2,0,NA,NA,NA,NA,NA,NA,NA,NA,NA,NA,NA,7.6,79.9,2023_07
-114.44,62.463,YELLOWKNIFE A,2204101,NT,18.9,0,NA,28.3,0,8.2,0,0,0,NA,7.6,0,NA,NA,3,NA,NA,NA,14.7,41.6,2023_07
-114.449,62.474,YELLOWKNIFE AIRPORT,2204108,NT,19.5,2,NA,28.6,2,10.3,2,NA,NA,NA,7,2,NA,1,3,NA,NA,NA,6.7,49.8,2023_07
-123.742,61.242,YOHIN,2204300,NT,20,17,NA,35.9,17,5.8,17,NA,NA,NA,39.5,19,NA,NA,4,NA,NA,NA,5,33,2023_07
-130.228,67.179,LITTLE CHICAGO,220B6Q3,NT,22.4,9,NA,34.1,9,12.3,9,NA,NA,NA,NA,NA,NA,NA,NA,NA,NA,NA,0,96.4,2023_07
-121.239,60.441,SAMBAA K'E,220CQHR,NT,17,0,NA,31.6,0,5.8,0,NA,NA,NA,85.3,0,NA,NA,6,NA,NA,NA,38.4,8.7,2023_07
-122.851,61.125,LINDBURG LANDING,220N003,NT,19,4,NA,36.8,4,6.9,4,NA,NA,NA,NA,NA,NA,NA,NA,NA,NA,NA,12.4,39.6,2023_07
-113.863,63.603,LOWER CARP LAKE,220N004,NT,18.6,1,NA,27.2,1,10.2,1,NA,NA,NA,NA,NA,NA,NA,NA,NA,NA,NA,15.6,33.3,2023_07
-133.502,68.746,TRAIL VALLEY,220N005,NT,18,4,NA,31.7,4,8.5,4,NA,NA,NA,7.4,4,NA,NA,2,NA,NA,NA,25.2,26.4,2023_07
-94.072,61.094,ARVIAT A,2300427,NU,11.1,3,NA,26,3,4.6,3,NA,NA,NA,79.5,3,NA,NA,9,NA,NA,NA,193.9,1.8,2023_07
-96,64.317,BAKER LAKE CLIMATE,2300501,NU,14.1,0,NA,26.1,0,3.9,0,NA,NA,NA,14.9,0,NA,NA,5,NA,NA,NA,120.7,1.3,2023_07
-96.078,64.299,BAKER LAKE A,2300503,NU,14.5,5,NA,26.9,5,4.8,5,0,1,NA,15.3,1,NA,0,4,NA,NA,NA,94.7,2.5,2023_07
-96.078,64.299,BAKER LAKE A,2300504,NU,14.4,0,NA,26.9,0,4.8,0,NA,NA,NA,NA,NA,NA,NA,NA,NA,NA,NA,113.6,2.5,2023_07
-108.015,66.838,BATHURST INLET,2300551,NU,15.7,3,NA,27.6,3,7.1,3,NA,NA,NA,5.5,14,NA,NA,3,NA,NA,NA,74.9,11,2023_07
-114.94,68.755,BERNARD HARBOUR,2300556,NU,15.3,0,NA,28.2,0,4.8,0,NA,NA,NA,NA,NA,NA,NA,NA,NA,NA,NA,92.1,7.3,2023_07
-90.731,63.347,CHESTERFIELD INLET A,2300710,NU,11.3,0,NA,25.1,0,3.1,0,NA,NA,NA,NA,NA,NA,NA,NA,NA,NA,NA,209.6,1.7,2023_07
-115.144,67.817,KUGLUKTUK A,2300903,NU,15.5,0,NA,27.4,0,4.9,0,0,0,NA,4.4,0,NA,NA,2,NA,NA,NA,85.3,6.8,2023_07
-115.135,67.817,KUGLUKTUK CLIMATE,2300904,NU,15.5,0,NA,27.5,0,4.9,0,NA,NA,NA,4.3,0,NA,NA,2,NA,NA,NA,84.9,6.9,2023_07
-115.144,67.817,KUGLUKTUK A,2300905,NU,15.3,4,NA,27.4,4,4.9,4,NA,NA,NA,NA,NA,NA,NA,NA,NA,NA,NA,79.4,5.8,2023_07
-83.359,64.193,CORAL HARBOUR A,2301002,NU,9.9,13,NA,23.1,13,1.6,13,0,8,NA,20.9,8,NA,NA,3,NA,NA,NA,146.6,0,2023_07
-83.359,64.193,CORAL HARBOUR A,2301004,NU,9.5,0,NA,23.1,0,1.6,0,NA,NA,NA,NA,NA,NA,NA,NA,NA,NA,NA,262.9,0,2023_07
-83.35,64.183,CORAL HARBOUR RCS,2301010,NU,9.6,0,NA,23,0,2.1,0,NA,NA,NA,43.3,0,NA,NA,7,NA,NA,NA,259.1,0,2023_07
-100.884,61.132,ENNADAI LAKE (AUT),2301102,NU,16,0,NA,32.8,0,5.9,0,NA,NA,NA,43,0,NA,NA,7,NA,NA,NA,80.1,19.5,2023_07
-94.067,61.1,ARVIAT CLIMATE,2301153,NU,11.4,0,NA,26.4,0,4.7,0,NA,NA,NA,65.8,0,NA,NA,9,NA,NA,NA,207.3,1.9,2023_07
-95.85,68.636,GJOA HAVEN A,2302337,NU,10,3,NA,19.8,3,2,3,NA,NA,NA,8.9,1,NA,NA,4,NA,NA,NA,224.6,0,2023_07
-95.85,68.636,GJOA HAVEN CLIMATE,2302340,NU,9.9,0,NA,20.3,0,1.5,0,NA,NA,NA,10.6,0,NA,NA,3,NA,NA,NA,251.6,0,2023_07
-100.087,68.318,HAT ISLAND,2302370,NU,6.9,0,NA,17.4,0,-0.7,0,NA,NA,NA,NA,NA,NA,NA,NA,NA,NA,NA,343.7,0,2023_07
-89.726,68.437,PELLY BAY,2303093,NU,11.5,21,NA,18.9,21,5,21,NA,NA,NA,NA,NA,NA,NA,NA,NA,NA,NA,65.2,0,2023_07
-89.796,68.538,KUGAARUK CLIMATE,2303094,NU,9.4,0,NA,20.4,0,0.9,0,NA,NA,NA,14,0,NA,NA,3,NA,NA,NA,265.2,0,2023_07
-89.805,68.536,KUGAARUK A,2303095,NU,9.4,0,NA,20.6,0,0.8,0,NA,NA,NA,NA,NA,NA,NA,NA,NA,NA,NA,266.8,0,2023_07
-92.115,62.811,RANKIN INLET A,2303405,NU,12.3,1,NA,23.3,1,4.6,1,0,9,NA,10.6,9,NA,NA,2,NA,NA,NA,170.2,0,2023_07
-102.429,65.1,ROBERTSON LAKE (AUT),2303610,NU,13.2,1,NA,25.8,1,3.9,1,NA,NA,NA,19,1,NA,NA,3,NA,NA,NA,143.5,0.6,2023_07
-79.25,56.537,SANIKILUAQ A,2303660,NU,10.8,1,NA,25.9,1,3.2,1,NA,NA,NA,NA,NA,NA,NA,NA,NA,NA,NA,215.6,0,2023_07
-79.26,56.537,SANIKILUAQ,2303668,NU,11,2,NA,25.7,2,3.2,2,NA,NA,NA,NA,NA,NA,NA,NA,NA,NA,NA,203,0,2023_07
-92.598,62.24,WHALE COVE A,2303990,NU,11.1,0,NA,25.3,0,3.9,0,NA,NA,NA,NA,NA,NA,NA,NA,NA,NA,NA,214.8,0.1,2023_07
-111.246,65.755,LUPIN CS,230N002,NU,15.2,10,NA,25.9,9,4.6,10,NA,NA,NA,9.9,10,NA,NA,3,NA,NA,NA,61.9,2.9,2023_07
-62.333,82.5,ALERT CLIMATE,2400305,NU,3.4,0,NA,14,0,-1.1,0,NA,NA,NA,49.2,0,NA,NA,7,NA,NA,NA,451.6,0,2023_07
-62.333,82.5,ALERT UA,2400306,NU,NA,NA,NA,NA,NA,NA,NA,0.8,1,NA,42.8,1,NA,0,7,NA,NA,NA,NA,NA,2023_07
-85.047,73.006,ARCTIC BAY,2400399,NU,7.3,0,NA,18.6,0,-0.5,0,NA,NA,NA,NA,NA,NA,NA,NA,NA,NA,NA,332.8,0,2023_07
-63.789,67.536,BROUGHTON ISLAND,2400570,NU,3.7,0,NA,10.7,0,-3.7,0,NA,NA,NA,NA,NA,NA,NA,NA,NA,NA,NA,443,0,2023_07
-64.033,67.547,QIKIQTARJUAQ CLIMATE,2400573,NU,2.4,0,NA,11.2,0,-1.8,0,NA,NA,NA,63.2,0,NA,NA,12,NA,NA,NA,482.4,0,2023_07
-64.032,67.547,QIKIQTARJUAQ A,2400577,NU,2.5,0,NA,11.3,0,-1.8,0,NA,NA,NA,64.6,0,NA,NA,12,NA,NA,NA,481.5,0,2023_07
-105.137,69.108,CAMBRIDGE BAY A,2400601,NU,11.7,10,NA,21.5,10,3.5,10,0,6,NA,0.9,6,NA,NA,0,NA,NA,NA,131.6,0,2023_07
-105.138,69.108,CAMBRIDGE BAY GSN,2400602,NU,12,2,NA,23.1,2,3.5,2,NA,NA,NA,2.8,2,NA,NA,1,NA,NA,NA,174.5,0,2023_07
-105.137,69.108,CAMBRIDGE BAY A,2400603,NU,11.9,0,NA,24.9,0,3.5,0,NA,NA,NA,NA,NA,NA,NA,NA,NA,NA,NA,190,0,2023_07
-76.53,64.231,KINNGAIT,2400636,NU,7.3,0,NA,17.2,0,0.1,0,NA,NA,NA,112.6,0,NA,NA,14,NA,NA,NA,333,0,2023_07
-76.525,64.23,KINNGAIT AIRPORT,2400637,NU,7.3,0,NA,16.9,0,0.3,0,NA,NA,NA,107.3,0,NA,NA,14,NA,NA,NA,332.1,0,2023_07
-78.293,73.668,CAPE LIVERPOOL,2400675,NU,3.4,3,NA,12.4,3,-2.4,3,NA,NA,NA,11,3,NA,NA,3,NA,NA,NA,408.5,0,2023_07
-68.517,70.483,CLYDE RIVER CLIMATE,2400802,NU,3.6,0,NA,13.5,0,-3,0,NA,NA,NA,25.3,0,NA,NA,5,NA,NA,NA,447.8,0,2023_07
-68.517,70.486,CLYDE RIVER A,2400804,NU,3.5,0,NA,13.4,0,-3.1,0,NA,NA,NA,0,24,NA,NA,0,NA,NA,NA,448.7,0,2023_07
-71.167,68.65,DEWAR LAKES,2401030,NU,4.6,0,NA,14.4,0,-3.7,0,NA,NA,NA,NA,NA,NA,NA,NA,NA,NA,NA,416.9,0,2023_07
-85.934,79.989,EUREKA CLIMATE,2401199,NU,8.2,2,NA,19.7,2,1.7,2,NA,NA,NA,4.7,2,NA,NA,1,NA,NA,NA,282.9,0,2023_07
-85.812,79.994,EUREKA A,2401208,NU,11.1,1,NA,19.1,1,2.1,1,NA,NA,NA,NA,NA,NA,NA,NA,NA,NA,NA,207.2,0,2023_07
-94.198,72.018,FORT ROSS,2402051,NU,7.3,6,NA,20,6,-0.2,6,NA,NA,NA,7.3,6,NA,NA,3,NA,NA,NA,268.5,0,2023_07
-100.267,70.633,GATESHEAD ISLAND,2402332,NU,5.2,19,NA,11.1,19,0.3,19,NA,NA,NA,0.4,22,NA,NA,0,NA,NA,NA,154.1,0,2023_07
-82.902,76.423,GRISE FIORD CLIMATE,2402351,NU,3.6,1,NA,10.8,1,-1.2,1,NA,NA,NA,1.2,1,NA,NA,0,NA,NA,NA,432.2,0,2023_07
-81.244,68.776,SANIRAJAK,2402353,NU,9,1,NA,22.5,1,1.8,1,NA,NA,NA,16.5,1,NA,NA,4,NA,NA,NA,270.4,0,2023_07
-81.243,68.776,SANIRAJAK AIRPORT,2402354,NU,6.5,0,NA,19.8,0,0.2,0,NA,NA,NA,1,0,NA,NA,1,NA,NA,NA,356.4,0,2023_07
-82.908,76.426,GRISE FIORD A,2402360,NU,3.9,1,NA,11.5,1,-1.3,1,NA,NA,NA,NA,NA,NA,NA,NA,NA,NA,NA,423.5,0,2023_07
-81.816,69.365,IGLOOLIK A,2402546,NU,8.4,2,NA,22.2,2,-0.3,2,NA,NA,NA,NA,NA,NA,NA,NA,NA,NA,NA,279.4,0,2023_07
-68.544,63.747,IQALUIT CLIMATE,2402592,NU,7.4,0,NA,16.4,0,1.9,0,NA,NA,NA,108,0,NA,NA,11,NA,NA,NA,328.4,0,2023_07
-68.556,63.757,IQALUIT A,2402596,NU,7.2,2,NA,16.4,2,1.8,2,NA,NA,NA,NA,NA,NA,NA,NA,NA,NA,NA,311.9,0,2023_07
-103.554,78.792,ISACHSEN (AUT),2402604,NU,6.5,22,NA,14.6,22,0.9,22,NA,NA,NA,0.2,28,NA,NA,0,NA,NA,NA,103.6,0,2023_07
-69.877,62.848,KIMMIRUT A,2402673,NU,8.8,2,NA,22.9,2,2.4,2,NA,NA,NA,NA,NA,NA,NA,NA,NA,NA,NA,266.5,0,2023_07
-75.141,68.899,LONGSTAFF BLUFF,2402684,NU,8.1,0,NA,17.3,0,0,0,NA,NA,NA,NA,NA,NA,NA,NA,NA,NA,NA,307,0,2023_07
-65.711,66.143,PANGNIRTUNG,2403049,NU,7,0,NA,14.3,0,1.2,0,NA,NA,NA,106.4,0,NA,NA,13,NA,NA,NA,341.1,0,2023_07
-65.714,66.145,PANGNIRTUNG A,2403054,NU,6.9,0,NA,14.2,0,1.1,0,NA,NA,NA,NA,NA,NA,NA,NA,NA,NA,NA,345.2,0,2023_07
-77.958,72.693,POND INLET CLIMATE,2403204,NU,6,0,NA,14.7,0,-0.3,0,NA,NA,NA,6.9,0,NA,NA,1,NA,NA,NA,371.2,0,2023_07
-77.969,72.689,POND INLET A,2403206,NU,5.9,0,NA,14,0,-0.2,0,NA,NA,NA,4.7,0,NA,NA,1,NA,NA,NA,374.4,0,2023_07
-105.715,75.377,REA POINT,2403450,NU,5.4,23,NA,15.2,23,2.1,23,NA,NA,NA,0,23,NA,NA,0,NA,NA,NA,101.1,0,2023_07
-86.225,66.521,NAUJAAT A,2403495,NU,10.2,1,NA,21.4,1,2.3,1,NA,NA,NA,NA,NA,NA,NA,NA,NA,NA,NA,233,0,2023_07
-94.969,74.717,RESOLUTE BAY A,2403497,NU,7.4,0,NA,18.8,0,-0.3,0,NA,NA,NA,NA,NA,NA,NA,NA,NA,NA,NA,328,0,2023_07
-94.969,74.717,RESOLUTE BAY A,2403498,NU,7.1,5,NA,18.8,5,-0.3,5,0,2,NA,0,2,NA,NA,0,NA,NA,NA,282.4,0,2023_07
-94.983,74.716,RESOLUTE CS,2403505,NU,7.2,1,NA,18.9,1,-0.3,1,NA,NA,NA,0,1,NA,NA,0,NA,NA,NA,325.4,0,2023_07
-79.033,69.083,ROWLEY ISLAND,2403625,NU,7.5,0,NA,15.9,0,0.4,0,NA,NA,NA,NA,NA,NA,NA,NA,NA,NA,NA,324.8,0,2023_07
-105.296,73.766,STEFANSSON ISLAND,2403756,NU,5.8,7,NA,17.7,7,-1.4,7,NA,NA,NA,0.7,8,NA,NA,0,NA,NA,NA,292.8,0,2023_07
-91.816,81.161,SVARTEVAEG,2403833,NU,4.3,0,NA,14.7,0,-1.2,0,NA,NA,NA,23.5,0,NA,NA,4,NA,NA,NA,425.1,0,2023_07
-93.577,69.547,TALOYOAK A,2403855,NU,9.7,19,NA,21.5,19,1.3,19,0,16,NA,1.9,16,NA,NA,1,NA,NA,NA,100.1,0,2023_07
-93.577,69.547,TALOYOAK A,2403856,NU,10.1,0,NA,21.7,0,1.3,0,NA,NA,NA,NA,NA,NA,NA,NA,NA,NA,NA,246.2,0,2023_07
-89.446,65.879,WAGER BAY (AUT),2403945,NU,13.4,0,NA,25.1,0,4.9,0,NA,NA,NA,22.7,0,NA,NA,4,NA,NA,NA,144.7,1.3,2023_07
-119.989,74.139,NANGMAGVIK LAKE,2500440,NT,9.9,2,NA,23.2,2,0.8,2,NA,NA,NA,7.5,3,NA,NA,2,NA,NA,NA,233.5,0,2023_07
-112.161,74.457,CAPE PROVIDENCE,2501419,NT,7.4,21,NA,20.5,21,1.9,21,NA,NA,NA,1,23,NA,NA,0,NA,NA,NA,106,0,2023_07
-117.806,70.763,ULUKHAKTOK A,2502503,NT,14.8,0,NA,24.1,0,2.9,0,NA,NA,NA,NA,NA,NA,NA,NA,NA,NA,NA,104,3.6,2023_07
-117.8,70.761,HOLMAN CS,2502505,NT,14.6,1,NA,23.9,1,2.9,1,NA,NA,NA,NA,NA,NA,NA,NA,NA,NA,NA,104.2,3.3,2023_07
-125.254,71.993,SACHS HARBOUR CLIMATE,2503648,NT,12.7,0,NA,24.8,0,1,0,NA,NA,NA,20.2,0,NA,NA,2,NA,NA,NA,165.9,0.3,2023_07
-125.241,71.994,SACHS HARBOUR A,2503649,NT,12.6,1,NA,24.6,1,0.7,1,NA,NA,NA,NA,NA,NA,NA,NA,NA,NA,NA,161.8,0,2023_07
-119.538,73.231,THOMSEN RIVER,2503886,NT,14,9,NA,24.5,9,2.7,9,NA,NA,NA,2.3,10,NA,NA,1,NA,NA,NA,88.7,0,2023_07
-119.347,76.238,MOULD BAY CS,250M001,NT,6.6,20,NA,13.9,20,1.3,20,NA,NA,NA,0.8,21,NA,NA,0,NA,NA,NA,125.2,0,2023_07
-112.967,54.283,ABEE AGDM,3010010,AB,16.3,9,NA,28.4,9,4.3,9,NA,NA,NA,84,20,NA,NA,6,NA,NA,NA,47,8.6,2023_07
-111.181,53.113,ALBERT HALL AGCM,3010060,AB,16.7,15,NA,28.3,15,4,15,NA,NA,NA,18.6,18,NA,NA,3,NA,NA,NA,29.3,8.5,2023_07
-111.779,52.315,ALLIANCE AGCM,3010162,AB,17.7,8,NA,32.3,8,5.4,8,NA,NA,NA,42.6,8,NA,NA,8,NA,NA,NA,27,20.8,2023_07
-112.279,53.917,ANDREW AGDM,3010237,AB,16.8,8,NA,28.4,8,6.1,8,NA,NA,NA,77.2,8,NA,NA,8,NA,NA,NA,37.8,10.5,2023_07
-111.465,52.582,BELLSHILL AGCM,3010650,AB,17.8,8,NA,30.4,8,8.2,8,NA,NA,NA,98.6,8,NA,NA,5,NA,NA,NA,23.2,18.2,2023_07
-110.101,52.124,BODO AGDM,3010730,AB,18.1,8,NA,34.6,8,5.1,8,NA,NA,NA,50.4,8,NA,NA,7,NA,NA,NA,23.6,25.9,2023_07
-114.483,53.167,BRETON,3010815,AB,NA,NA,NA,NA,NA,NA,NA,0,2,NA,57.4,2,NA,0,11,NA,NA,NA,NA,NA,2023_07
-114.441,53.089,BRETON PLOTS,3010816,AB,17.1,8,NA,28.9,8,7.1,8,NA,NA,NA,38,8,NA,NA,7,NA,NA,NA,31.9,10.6,2023_07
-113.922,53.931,BUSBY AGCM,3010979,AB,17.1,8,NA,29.8,8,6.8,8,NA,NA,NA,98.6,8,NA,NA,6,NA,NA,NA,32.5,10.7,2023_07
-110.51,52.334,CADOGAN AGCM,3010992,AB,18.3,8,NA,35.4,8,6.4,8,NA,NA,NA,44.2,8,NA,NA,7,NA,NA,NA,21.6,27.5,2023_07
-113.863,53.29,CALMAR,3011120,AB,NA,NA,NA,26,30,12.5,30,0,30,NA,0.6,30,NA,NA,0,NA,NA,NA,NA,NA,2023_07
-112.817,53.05,CAMROSE,3011240,AB,16.5,2,-0.3,28.1,2,7,2,NA,NA,NA,113,2,NA,NA,11,NA,NA,NA,56.2,12,2023_07
-110.713,51.937,CONSORT AGDM,3011815,AB,18.3,8,NA,34.5,8,6,8,NA,NA,NA,31.4,8,NA,NA,5,NA,NA,NA,22.1,29.4,2023_07
-111.449,52.074,CORONATION CLIMATE,3011887,AB,17.6,2,NA,34.7,2,5,2,NA,NA,NA,37.5,2,NA,NA,8,NA,NA,NA,44.6,32.4,2023_07
-113.903,52.733,CRESTOMERE AGCM,3011892,AB,16.4,8,NA,28.3,8,5,8,NA,NA,NA,23,8,NA,NA,6,NA,NA,NA,43.3,5.8,2023_07
-113.95,52.75,DAKOTA WEST,3011953,AB,16.6,0,0.6,29,0,5,0,0,0,NA,40.8,0,36,0,11,NA,NA,NA,53.6,10.6,2023_07
-113.176,52.183,DELBURNE AGCM,3012050,AB,17.5,8,NA,31.2,8,7.6,8,NA,NA,NA,28.1,8,NA,NA,7,NA,NA,NA,30.2,18.5,2023_07
-110.588,53.659,DEWBERRY AGCM,3012073,AB,17.3,8,NA,29.5,8,6.4,8,NA,NA,NA,24.1,8,NA,NA,3,NA,NA,NA,33.8,18,2023_07
-110.433,52.778,EDGERTON AGCM,3012192,AB,18.1,8,NA,33.2,8,6,8,NA,NA,NA,23.9,8,NA,NA,3,NA,NA,NA,23.8,27.1,2023_07
-113.606,53.307,EDMONTON INTERNATIONAL CS,3012206,AB,16,0,NA,29.3,0,3.9,0,NA,NA,NA,126.2,0,NA,NA,7,NA,NA,NA,71.5,10.1,2023_07
-113.517,53.573,EDMONTON BLATCHFORD,3012209,AB,18.6,0,NA,30.5,0,8.8,0,NA,NA,NA,92.5,1,NA,NA,13,NA,NA,NA,28.4,48.5,2023_07
-113.579,53.31,EDMONTON INTL A,3012216,AB,16.1,0,NA,29.2,0,3.7,0,0,0,NA,128.8,0,NA,NA,8,NA,NA,NA,70.6,10.2,2023_07
-113.538,53.49,EDMONTON SOUTH CAMPUS,3012220,AB,18.8,16,NA,29.4,16,10.7,16,NA,NA,NA,34,16,NA,NA,4,NA,NA,NA,1.6,13.2,2023_07
-113.856,53.668,EDMONTON VILLENEUVE A,3012229,AB,16.8,0,NA,29.4,0,5.4,0,NA,NA,NA,126.6,0,NA,NA,10,NA,NA,NA,53.2,17.4,2023_07
-114.108,53.548,EDMONTON STONY PLAIN,301222F,AB,18,0,0.9,30.5,0,7,0,0,0,NA,134.1,0,131,0,14,NA,NA,NA,37.2,35.9,2023_07
-112.868,53.683,ELK ISLAND NAT PARK,3012275,AB,16.9,0,-0.1,28.2,0,7.5,0,NA,NA,NA,110,0,98,NA,12,NA,NA,NA,52.4,17.7,2023_07
-111,52.967,FABYAN,3012515,AB,17.1,0,0.1,31,0,6,0,0,0,NA,68.8,0,95,0,10,NA,NA,NA,52.8,24.2,2023_07
-112.858,52.744,FERINTOSH AGCM,3012590,AB,16.4,8,NA,27.5,8,4.1,8,NA,NA,NA,63.9,8,NA,NA,7,NA,NA,NA,44.9,7,2023_07
-111.813,52.041,FLEET AGCM,3012635,AB,18,11,NA,33,11,6.1,11,NA,NA,NA,41.1,11,NA,NA,5,NA,NA,NA,19.8,20.1,2023_07
-112.12,52.467,FORESTBURG PLANT SITE,3012652,AB,18.2,8,-0.1,30.5,8,8,8,0,8,NA,60.6,8,NA,0,11,NA,NA,NA,24.6,30.3,2023_07
-112.123,52.548,FORESTBURG AGCM,3012653,AB,17.2,8,NA,29.4,8,5.7,8,NA,NA,NA,57.2,8,NA,NA,6,NA,NA,NA,29.7,12.4,2023_07
-110.621,53.071,GILT EDGE NORTH AGCM,3012790,AB,17.6,8,NA,31.7,8,5.1,8,NA,NA,NA,49.3,8,NA,NA,5,NA,NA,NA,30.2,20.6,2023_07
-114.32,53.295,ST. FRANCIS,3012799,AB,18.1,8,NA,29.6,8,10.3,8,NA,NA,NA,55.2,8,NA,NA,9,NA,NA,NA,17.2,19.8,2023_07
-112.278,52.987,GLADSTONE AGCM,3012810,AB,16.9,8,NA,28.2,8,4.4,8,NA,NA,NA,61.2,9,NA,NA,5,NA,NA,NA,35.2,10.9,2023_07
-114.539,53.833,GLENEVIS AGCM,3012818,AB,17.6,8,NA,30.7,8,8.4,8,NA,NA,NA,NA,NA,NA,NA,NA,NA,NA,NA,23.3,13.4,2023_07
-110.803,52.113,GOOSEBERRY LAKE AGCM,3012871,AB,17.5,8,NA,34.5,8,1.6,8,NA,NA,NA,39.4,8,NA,NA,6,NA,NA,NA,31.3,20.1,2023_07
-112.164,52.116,HALKIRK AGCM,3012999,AB,17.2,8,NA,31.6,8,5.4,8,NA,NA,NA,75.1,9,NA,NA,9,NA,NA,NA,31.9,14.4,2023_07
-111.212,51.78,HEMARUKA AGCM,3013140,AB,18.7,14,NA,35.5,14,5.2,14,NA,NA,NA,10.2,14,NA,NA,2,NA,NA,NA,17.2,29.3,2023_07
-112.246,53.185,HOLDEN AGDM,3013340,AB,17.7,11,NA,28.2,11,7.5,11,NA,NA,NA,102.3,18,NA,NA,4,NA,NA,NA,19.9,14,2023_07
-110.784,52.578,HUGHENDEN AGCM,3013362,AB,18,8,NA,32.5,8,4.5,8,NA,NA,NA,60.9,8,NA,NA,5,NA,NA,NA,23.7,24.8,2023_07
-111.872,52.848,KILLAM AGDM,3013640,AB,16.8,8,NA,28.7,8,4.9,8,NA,NA,NA,NA,NA,NA,NA,NA,NA,NA,NA,38.3,10.8,2023_07
-111.113,52.29,KESSLER AGCM,3013644,AB,17.7,8,NA,34.5,8,3.2,8,NA,NA,NA,51.3,9,NA,NA,6,NA,NA,NA,27.9,22,2023_07
-111.548,53.047,KINSELLA RESEARC STATION,3013647,AB,16.8,8,NA,29.5,8,3.6,8,NA,NA,NA,76.5,8,NA,NA,6,NA,NA,NA,42.1,15.1,2023_07
-110.416,53.353,KITSCOTY AGCM,3013660,AB,17.3,8,NA,29.5,8,6.5,8,NA,NA,NA,23.6,8,NA,NA,3,NA,NA,NA,34.5,17.4,2023_07
-113.474,54.003,LEGAL AGCM,3013790,AB,17.4,8,NA,33.7,8,8.7,8,NA,NA,NA,107.9,8,NA,NA,7,NA,NA,NA,29.9,15.4,2023_07
-110.579,53.943,LINDBERGH AGDM,3013921,AB,18.9,8,NA,27.2,8,10.4,8,NA,NA,NA,39.5,8,NA,NA,6,NA,NA,NA,7,28.4,2023_07
-110.073,53.309,LLOYDMINSTER,3013959,AB,16.9,0,NA,29.4,0,5.7,0,NA,NA,NA,38.2,0,NA,NA,5,NA,NA,NA,58.2,22.9,2023_07
-110.073,53.309,LLOYDMINSTER A,3013961,AB,17.1,3,0.1,29,3,6,3,0,3,NA,34.8,3,NA,0,7,NA,NA,NA,47.5,21,2023_07
-111.255,53.456,MANNVILLE AGCM,3014195,AB,17.2,8,NA,29.6,8,7.4,8,NA,NA,NA,24.8,8,NA,NA,5,NA,NA,NA,34.3,16.5,2023_07
-110.55,52.017,MONITOR,3014600,AB,NA,NA,NA,NA,NA,NA,NA,0,0,NA,57.4,0,88,0,8,NA,NA,NA,NA,NA,2023_07
-113.165,53.262,NEW SAREPTA AGCM,3014795,AB,17.9,10,NA,28.9,10,8.8,10,NA,NA,NA,125.1,10,NA,NA,5,NA,NA,NA,16.3,13.8,2023_07
-113.35,53.65,OLIVER AGDM,3014921,AB,17.4,15,NA,28.9,15,7.7,15,NA,NA,NA,40.9,15,NA,NA,3,NA,NA,NA,11.8,2.7,2023_07
-112.879,53.995,RADWAY AGCM,3015346,AB,17.3,14,NA,27.9,14,8.3,14,NA,NA,NA,NA,NA,NA,NA,NA,NA,NA,NA,23.5,11.1,2023_07
-111.726,53.425,RANFURLY AUTO,3015401,AB,17.3,0,NA,29.4,0,7.1,0,NA,NA,NA,73.4,0,NA,NA,9,NA,NA,NA,48.5,25.3,2023_07
-110.343,52.587,RIBSTONE SOUTH AGCM,3015480,AB,17.7,8,NA,34.9,8,5,8,NA,NA,NA,38.7,8,NA,NA,5,NA,NA,NA,30,24,2023_07
-110.102,53.019,RIVERCOURSE AGCM,3015501,AB,17.3,8,NA,32.6,8,6.2,8,NA,NA,NA,14.1,9,NA,NA,2,NA,NA,NA,35.6,19.6,2023_07
-114.912,52.421,ROCKY MTN HOUSE (AUT),3015523,AB,15.3,0,NA,29.8,0,1.6,0,NA,NA,NA,90.5,0,NA,NA,12,NA,NA,NA,88.1,5.4,2023_07
-112.422,52.792,ROSALIND AGCM,3015600,AB,17.3,8,NA,28.9,8,5.7,8,NA,NA,NA,50,8,NA,NA,7,NA,NA,NA,28.6,11.9,2023_07
-111.453,54.282,ST. LINA AGCM,3015673,AB,16.8,8,NA,27.8,8,6.1,8,NA,NA,NA,41.7,13,NA,NA,6,NA,NA,NA,36.2,9.4,2023_07
-111.272,54.011,ST. PAUL AGCM,3015676,AB,17,8,NA,28.1,8,6.2,8,NA,NA,NA,50.2,8,NA,NA,8,NA,NA,NA,34.9,12.3,2023_07
-110.755,51.59,SEDALIA AGCM,3015797,AB,19.5,15,NA,36.3,15,5.4,15,NA,NA,NA,16.8,16,NA,NA,3,NA,NA,NA,9.5,33.9,2023_07
-112.539,53.333,SHONTS AGCM,3015900,AB,17.1,11,NA,27.8,11,5.7,11,NA,NA,NA,175.8,11,NA,NA,5,NA,NA,NA,27.6,9.1,2023_07
-112.499,54.278,SMOKY LAKE AGDM,3016022,AB,17,8,NA,28.7,8,6.8,8,NA,NA,NA,84.9,8,NA,NA,9,NA,NA,NA,35.8,13,2023_07
-111.683,51.816,SPONDIN AGCM,3016070,AB,18.3,11,NA,35.2,11,4.8,11,NA,NA,NA,35.4,11,NA,NA,5,NA,NA,NA,16.9,23.6,2023_07
-112.596,52.347,STETTLER AGDM,3016124,AB,17.5,8,NA,30.4,8,7.2,8,NA,NA,NA,40.4,15,NA,NA,7,NA,NA,NA,27.6,15.5,2023_07
-113.895,53.217,THORSBY AGCM,3016441,AB,17.3,8,NA,29.4,8,6.2,8,NA,NA,NA,74.9,8,NA,NA,10,NA,NA,NA,28.2,12.4,2023_07
-114.718,53.439,TOMAHAWK AGDM,3016505,AB,17.5,8,NA,29.3,8,8.1,8,NA,NA,NA,87.5,9,NA,NA,9,NA,NA,NA,24.5,12.1,2023_07
-110.081,53.664,TULLIBY LAKE AGCM,3016593,AB,17.3,8,NA,29.5,8,4.6,8,NA,NA,NA,22.3,8,NA,NA,4,NA,NA,NA,32.6,17,2023_07
-113.033,53.5,UNCAS,3016650,AB,NA,NA,NA,NA,NA,NA,NA,0,0,NA,134.4,0,NA,0,12,NA,NA,NA,NA,NA,2023_07
-111.678,53.625,TWO HILLS AGDM,3016655,AB,17.7,8,NA,29.3,8,8,8,NA,NA,NA,53.5,8,NA,NA,8,NA,NA,NA,25.9,20,2023_07
-110.882,53.344,VERMILION AGDM,3016802,AB,17.1,8,NA,30.6,8,4.2,8,NA,NA,NA,42.4,8,NA,NA,5,NA,NA,NA,36.7,16.9,2023_07
-111.732,53.182,VIKING AGCM,3016841,AB,17.6,8,NA,28.8,8,7.3,8,NA,NA,NA,52.7,8,NA,NA,7,NA,NA,NA,27.4,19,2023_07
-111.921,54.13,VILNA AGCM,3016852,AB,16.8,8,NA,28.4,8,4.9,8,NA,NA,NA,65,8,NA,NA,9,NA,NA,NA,38.3,11.3,2023_07
-112.098,53.505,VEGREVILLE,3016GF0,AB,16.7,0,0.1,29.6,0,5.7,0,NA,NA,NA,101.2,0,133,NA,9,NA,NA,NA,55.9,16.8,2023_07
-113.444,52.98,WETASKIWIN AGCM,3017282,AB,16.7,8,NA,28.6,8,5.5,8,NA,NA,NA,51.6,16,NA,NA,7,NA,NA,NA,39.3,10.1,2023_07
-111.224,51.491,YOUNGSTOWN AGCM,3017705,AB,18.8,8,NA,36.1,8,6,8,NA,NA,NA,43.7,8,NA,NA,8,NA,NA,NA,16.7,34.4,2023_07
-114.108,53.547,EDMONTON STONY PLAIN CS,301A001,AB,17.2,2,NA,29.4,2,6.5,2,NA,NA,NA,130.5,2,NA,NA,13,NA,NA,NA,45.3,23,2023_07
-110.206,51.67,ESTHER 1,301B460,AB,18.1,0,NA,35.9,0,3.3,0,NA,NA,NA,43.5,0,NA,NA,3,NA,NA,NA,35.3,38.5,2023_07
-111.096,52.829,WAINWRIGHT CFB AIRFIELD 21,301S001,AB,17.9,2,NA,32.1,2,6.6,2,NA,NA,NA,61.4,9,NA,NA,10,NA,NA,NA,36,31.7,2023_07
-113.821,54.308,PIBROCH AGCM,301X001,AB,16.5,8,NA,28.3,8,6.6,8,NA,NA,NA,119.6,8,NA,NA,6,NA,NA,NA,41.6,6.9,2023_07
-113.099,53.843,REDWATER INDUSTRIAL AGCM,301X002,AB,18.8,15,NA,30.1,15,11.1,15,NA,NA,NA,46.5,16,NA,NA,3,NA,NA,NA,2.8,16.3,2023_07
-110.025,53.358,LLOYDMINSTER LITE,301X003,AB,16.7,8,NA,28.7,8,4.3,8,NA,NA,NA,15.2,8,NA,NA,4,NA,NA,NA,41.9,11.6,2023_07
-110.317,51.066,ACADIA VALLEY,3020035,AB,20,10,NA,37.2,10,7.1,10,NA,NA,NA,32.2,10,NA,NA,5,NA,NA,NA,8.1,50.4,2023_07
-111.006,50.81,ATLEE AGCM,3020405,AB,20.6,8,NA,37.4,8,8.9,8,NA,NA,NA,13.7,8,NA,NA,3,NA,NA,NA,3.9,64.6,2023_07
-113.357,51.379,BEISEKER AGCM,3020610,AB,17.6,8,NA,35.3,8,0.7,8,NA,NA,NA,20.3,8,NA,NA,7,NA,NA,NA,29.2,19.7,2023_07
-112.803,51.998,BIG VALLEY AGCM,3020679,AB,18.2,8,NA,33.3,8,7,8,NA,NA,NA,36.9,8,NA,NA,8,NA,NA,NA,26,29.5,2023_07
-110.686,50.798,BUFFALO AGCM,3020950,AB,20.5,14,NA,38.3,14,8.2,14,NA,NA,NA,6.8,15,NA,NA,2,NA,NA,NA,2.8,46,2023_07
-111.221,51.024,CABIN LAKE AGCM,3021000,AB,19.9,8,NA,37.5,8,5.4,8,NA,NA,NA,NA,NA,NA,NA,NA,NA,NA,NA,8.7,51.6,2023_07
-110.797,51.067,CAPPON,3021200,AB,19.2,8,NA,36.5,8,4.3,8,NA,NA,NA,72.3,8,NA,NA,6,NA,NA,NA,13.7,40.2,2023_07
-110.824,51.276,CEREAL AGCM,3021463,AB,19.4,14,NA,35.9,14,7.8,14,NA,NA,NA,50,14,NA,NA,5,NA,NA,NA,10.6,33.8,2023_07
-112.252,51.775,CRAIGMYLE AGCM,3021912,AB,17.8,10,NA,34.9,10,5.1,10,NA,NA,NA,49.9,11,NA,NA,5,NA,NA,NA,24.7,21.2,2023_07
-112.677,51.445,DRUMHELLER EAST,30221LG,AB,20.3,1,NA,36.9,1,7.3,1,NA,NA,NA,47.8,1,NA,NA,10,NA,NA,NA,14.3,82.5,2023_07
-112.097,51.053,FINNEGAN AGCM,3022650,AB,19.6,8,NA,37,8,5.3,8,NA,NA,NA,14.7,16,NA,NA,3,NA,NA,NA,10.7,47.1,2023_07
-112.135,51.453,HAND HILLS AGCM,3022990,AB,18.1,10,NA,33.6,10,6.4,10,NA,NA,NA,42.5,10,NA,NA,6,NA,NA,NA,25.2,26.4,2023_07
-114.486,52.31,HESPERO AGCM,3023200,AB,16.2,8,NA,30.8,8,3.3,8,NA,NA,NA,52.9,8,NA,NA,8,NA,NA,NA,47.2,5.3,2023_07
-112.5,51.183,HUSSAR AGDM,3023402,AB,18.5,8,NA,32.9,8,7.2,8,NA,NA,NA,31.4,9,NA,NA,5,NA,NA,NA,18,30.1,2023_07
-110.359,51.913,KIRRIEMUIR AGCM,3023660,AB,18.2,8,NA,35,8,3.8,8,NA,NA,NA,39.3,8,NA,NA,5,NA,NA,NA,23,26.8,2023_07
-113.756,52.449,LACOMBE CDA 2,3023722,AB,16.5,1,NA,29.2,1,5.8,1,NA,NA,NA,53.2,1,NA,NA,11,NA,NA,NA,56.7,12.8,2023_07
-114.473,52.553,LEEDALE AGDM,3023740,AB,15.6,8,NA,28.7,8,3,8,NA,NA,NA,40.7,11,NA,NA,5,NA,NA,NA,58.7,3.1,2023_07
-113.656,51.619,LINDEN AGCM,3023850,AB,16.4,15,NA,30.4,15,2.3,15,NA,NA,NA,51.5,15,NA,NA,7,NA,NA,NA,29.7,3.7,2023_07
-110.341,49.458,LODGE CREEK,3023900,AB,19,8,NA,37,8,3.6,8,NA,NA,NA,7.4,8,NA,NA,3,NA,NA,NA,16.1,39.1,2023_07
-112.675,51.66,MORRIN AGDM,3024668,AB,18.2,8,NA,35.6,8,5.1,8,NA,NA,NA,37,8,NA,NA,6,NA,NA,NA,23.3,27.2,2023_07
-114.085,51.759,OLDS AGDM,3024925,AB,16.4,8,NA,28.7,8,5.5,8,NA,NA,NA,68.3,8,NA,NA,7,NA,NA,NA,42.8,6.7,2023_07
-110.35,51.383,OYEN AGDM,3024965,AB,18.7,8,NA,36.4,8,4.1,8,NA,NA,NA,21,9,NA,NA,2,NA,NA,NA,16.6,33.6,2023_07
-111.621,50.74,PATRICIA AGCM,3025013,AB,20.7,10,NA,38.3,10,7,10,NA,NA,NA,14.1,10,NA,NA,2,NA,NA,NA,4.2,61.4,2023_07
-111.705,51.125,POLLOCKVILLE AGDM,3025243,AB,19.5,8,NA,36.9,8,4,8,NA,NA,NA,24.3,8,NA,NA,4,NA,NA,NA,12.5,46.2,2023_07
-113.6,52.433,PRENTISS,3025297,AB,16.3,3,NA,28.4,3,7,3,NA,NA,NA,43.6,3,NA,NA,10,NA,NA,NA,56.5,9.7,2023_07
-113.894,52.182,RED DEER REGIONAL A,3025484,AB,16.3,0,NA,28.8,0,5.6,0,NA,NA,NA,25.6,0,NA,NA,9,NA,NA,NA,61.9,10.2,2023_07
-113.62,53.692,ST. ALBERT RESEARCH STATION,3025750,AB,16.6,0,NA,29.4,0,4.2,0,NA,NA,NA,101.4,0,NA,NA,10,NA,NA,NA,56.1,12.1,2023_07
-110.091,50.307,SCHULER AGDM,3025768,AB,20,8,NA,37.9,8,6.7,8,NA,NA,NA,17.8,8,NA,NA,1,NA,NA,NA,4.7,50,2023_07
-111.646,51.463,SHEERNESS AGCM,3025890,AB,18.5,16,NA,32.4,16,9.3,16,NA,NA,NA,24.2,18,NA,NA,5,NA,NA,NA,7.9,14.9,2023_07
-111.388,51.301,SUNNYNOOK AGCM,3026264,AB,17.6,16,NA,33.2,16,2.1,16,NA,NA,NA,34.6,17,NA,NA,6,NA,NA,NA,14.6,9,2023_07
-113.206,51.768,THREE HILLS,3026479,AB,17.1,8,NA,34,8,2.8,8,NA,NA,NA,30.4,8,NA,NA,5,NA,NA,NA,35.3,15.4,2023_07
-111.955,50.895,VERGER,3026800,AB,19.6,8,NA,35.6,8,4.6,8,NA,NA,NA,20.3,10,NA,NA,4,NA,NA,NA,10.6,47.2,2023_07
-114.683,51.778,SUNDRE A,3026KNQ,AB,15.2,0,NA,29.8,0,0.2,0,NA,NA,NA,75,0,NA,NA,8,NA,NA,NA,91,5.3,2023_07
-113.591,51.936,WIMBORNE AGCM,3027582,AB,17.1,8,NA,30.4,8,4.1,8,NA,NA,NA,57.3,8,NA,NA,8,NA,NA,NA,31.3,10.4,2023_07
-113.434,49.528,ARDENVILLE,3030200,AB,19,8,NA,36.4,8,0,8,NA,NA,NA,6.3,12,NA,NA,3,NA,NA,NA,19.8,43.2,2023_07
-114.013,50.512,AZURE,3030450,AB,18.7,11,NA,34.9,10,4.8,11,NA,NA,NA,25.2,16,NA,NA,4,NA,NA,NA,11.5,25.4,2023_07
-112.3,49.8,BARNWELL AGDM,3030525,AB,20.1,8,NA,36.8,8,5.8,8,NA,NA,NA,18,8,NA,NA,5,NA,NA,NA,6.7,54.4,2023_07
-113.224,50.026,BARONS AGCM,3030529,AB,18.9,10,NA,35.9,10,4.7,10,NA,NA,NA,26,10,NA,NA,5,NA,NA,NA,14.4,33.4,2023_07
-112.465,50.893,BASSANO AGCM,3030540,AB,19.6,10,NA,35.8,10,6.6,10,NA,NA,NA,12.2,11,NA,NA,4,NA,NA,NA,9.8,43.4,2023_07
-114.152,50.707,BLACK DIAMOND,3030680,AB,17.1,8,NA,34.5,8,3.1,8,NA,NA,NA,23.7,8,NA,NA,5,NA,NA,NA,33.4,11.8,2023_07
-113.64,50.546,BLACKIE AGCM,3030690,AB,18.8,10,NA,34.7,10,2.7,10,NA,NA,NA,17.4,10,NA,NA,2,NA,NA,NA,14.8,31.1,2023_07
-113.05,49.567,BLOOD TRIBE AGDM,3030720,AB,18.9,8,NA,37.2,8,3.8,8,NA,NA,NA,4.5,9,NA,NA,2,NA,NA,NA,17.4,38.3,2023_07
-111.45,49.734,BOW ISLAND,3030768,AB,19.8,1,NA,36.9,1,7.4,1,NA,NA,NA,14.8,1,NA,NA,2,NA,NA,NA,13.2,67.1,2023_07
-113.817,49.617,BROCKET AGDM,3030830,AB,18.9,8,NA,35.6,8,5.6,8,NA,NA,NA,49,8,NA,NA,3,NA,NA,NA,14.8,35.5,2023_07
-110.484,50.339,BULL SPRINGS AGCM,3030879,AB,20.7,8,NA,38.3,8,8.2,8,NA,NA,NA,34.3,9,NA,NA,3,NA,NA,NA,2.6,63.9,2023_07
-111.849,50.555,BROOKS,3030QLP,AB,20.2,1,NA,36.5,1,6.2,1,NA,NA,NA,17.4,1,NA,NA,3,NA,NA,NA,11,76.8,2023_07
-114.013,51.123,CALGARY INTL A,3031092,AB,18.2,0,NA,35.1,0,6.7,0,0,0,NA,42.9,0,NA,NA,10,NA,NA,NA,33.4,41.1,2023_07
-114,51.109,CALGARY INT'L CS,3031094,AB,17.8,0,NA,35.1,0,6,0,NA,NA,NA,41.5,2,NA,NA,8,NA,NA,NA,40,33.9,2023_07
-114.371,51.105,CALGARY SPRINGBANK A,3031109,AB,15.9,1,NA,32.3,1,2.2,1,NA,NA,NA,78.8,1,NA,NA,11,NA,NA,NA,74.5,10.3,2023_07
-113.286,49.201,CARDSTON,3031322,AB,18.4,3,NA,33.6,3,5.2,3,NA,NA,NA,37.1,3,NA,NA,5,NA,NA,NA,25.6,36.5,2023_07
-113.376,49.001,CARWAY,3031402,AB,17,12,NA,34.3,12,4.1,12,NA,NA,NA,23.2,12,NA,NA,2,NA,NA,NA,34.9,15.2,2023_07
-113.35,50.282,CHAMPION AGDM,3031480,AB,18.9,12,NA,35.9,12,4.3,12,NA,NA,NA,24.7,12,NA,NA,6,NA,NA,NA,15.3,32.9,2023_07
-113.639,50.004,CLARESHOLM,3031640,AB,18.4,0,NA,35.4,0,3.9,0,NA,NA,NA,52.5,0,NA,0,7,NA,NA,NA,30.4,44.1,2023_07
-114.222,51.076,COP UPPER,3031875,AB,17.7,0,NA,33.1,0,7.1,0,NA,NA,NA,81.1,0,NA,NA,10,NA,NA,NA,44,33.6,2023_07
-112.433,50.183,ENCHANT AGDM,3032422,AB,19.4,8,NA,33.9,8,0,8,NA,NA,NA,26.4,9,NA,NA,5,NA,NA,NA,12.5,43.6,2023_07
-111.054,49.553,ETZIKOM AGCM,3032450,AB,20.3,8,NA,39.8,8,4.7,8,NA,NA,NA,33.7,9,NA,NA,4,NA,NA,NA,7.3,59.2,2023_07
-112.033,49.8,FINCASTLE AGDM,3032550,AB,20.8,10,NA,37.7,10,6.5,10,NA,NA,NA,6.5,21,NA,NA,3,NA,NA,NA,1.4,60.8,2023_07
-111.486,49.483,FOREMOST AGDM,3032642,AB,20.3,8,NA,38.5,8,4.7,8,NA,NA,NA,6.3,8,NA,NA,3,NA,NA,NA,7.8,60.5,2023_07
-113.379,49.786,FORT MACLEOD AGCM,3032683,AB,18.8,10,NA,34.7,10,4.9,10,NA,NA,NA,17.4,10,NA,NA,2,NA,NA,NA,13.8,31.1,2023_07
-112.941,50.934,GLEICHEN AGCM,3032801,AB,18.9,8,NA,35.7,8,6,8,NA,NA,NA,11.5,8,NA,NA,3,NA,NA,NA,13.6,34.3,2023_07
-111.733,49.874,GRASSY LAKE,3032927,AB,20.6,8,NA,37.3,8,7.4,8,NA,NA,NA,4.5,8,NA,NA,2,NA,NA,NA,2.4,62.5,2023_07
-114.292,50.869,PRIDDIS OBSERVATORY,3033505,AB,14.4,27,NA,28.2,27,5.6,27,NA,NA,NA,3.6,27,NA,NA,1,NA,NA,NA,16.8,2.2,2023_07
-110.261,49.989,IRVINE AGCM,3033550,AB,21.3,14,NA,38.9,14,8.8,14,NA,NA,NA,15.9,15,NA,NA,2,NA,NA,NA,1.3,57.9,2023_07
-113.631,51.191,KEOMA AGCM,3033620,AB,17.4,8,NA,35.6,8,2.4,8,NA,NA,NA,49.7,10,NA,NA,7,NA,NA,NA,31,16.2,2023_07
-112.299,50.6,LATHOM AGCM,3033770,AB,20,10,NA,36.3,10,7,10,NA,NA,NA,42.4,10,NA,NA,2,NA,NA,NA,8.6,51.3,2023_07
-112.799,49.63,LETHBRIDGE,3033875,AB,19.4,0,NA,37.2,0,4.8,0,NA,NA,NA,17.3,0,NA,NA,7,NA,NA,NA,20.8,63.9,2023_07
-112.763,49.647,LETHBRIDGE AGTECH AGCM,3033877,AB,19.1,8,NA,35.8,8,5.7,8,NA,NA,NA,9,16,NA,NA,2,NA,NA,NA,12.9,37.8,2023_07
-112.768,49.695,LETHBRIDGE CDA,3033890,AB,20.3,1,NA,36.9,1,8.2,1,NA,NA,NA,NA,NA,NA,NA,NA,NA,NA,NA,9.1,78.8,2023_07
-112.783,49.7,LETHBRIDGE CDA 2,3033892,AB,NA,NA,NA,NA,NA,NA,NA,0,2,NA,23.2,2,NA,0,6,NA,NA,NA,NA,NA,2023_07
-112.75,49.683,LETHBRIDGE DEMO FARM AGDM,3033897,AB,19.6,8,NA,35.2,8,7.1,8,NA,NA,NA,15.6,9,NA,NA,4,NA,NA,NA,8,44.1,2023_07
-110.721,50.019,MEDICINE HAT,3034479,AB,21.2,0,NA,39.1,0,8.7,0,NA,NA,NA,0,10,NA,NA,0,NA,NA,NA,5.7,105.4,2023_07
-110.717,50.025,MEDICINE HAT RCS,3034485,AB,21.4,1,NA,38.9,1,8.7,1,NA,NA,NA,37.6,1,NA,NA,5,NA,NA,NA,6.1,107.6,2023_07
-113.349,50.673,MOSSLEIGH AGCM,3034577,AB,18,10,NA,36.3,10,0,10,NA,NA,NA,27.9,11,NA,NA,4,NA,NA,NA,22.2,22.3,2023_07
-114.099,51.369,NIER AGDM,3034795,AB,16.4,8,NA,33.4,8,3.4,8,NA,NA,NA,52,8,NA,NA,7,NA,NA,NA,49.2,12.5,2023_07
-113.997,49.521,PINCHER CREEK,3035198,AB,17.7,0,NA,35.6,0,3.4,0,NA,NA,NA,23,0,NA,NA,5,NA,NA,NA,45.3,36.7,2023_07
-114.005,49.522,PINCHER CREEK CLIMATE,3035208,AB,17.7,2,NA,35.6,2,3.9,2,NA,NA,NA,13.4,2,NA,NA,4,NA,NA,NA,44.7,35.5,2023_07
-112.983,50.606,QUEENSTOWN,3035340,AB,19.6,0,1.7,36,0,6.5,0,0,0,NA,21.1,0,39,0,5,NA,NA,NA,21.7,71.5,2023_07
-112.803,50.598,QUEENSTOWN,3035342,AB,19.2,2,NA,36.5,2,5.1,2,NA,NA,NA,17.2,2,NA,NA,3,NA,NA,NA,26.7,60.3,2023_07
-112.117,50.367,RAINIER AGCM,3035355,AB,20.5,8,NA,36.7,8,7.1,8,NA,NA,NA,16.7,9,NA,NA,2,NA,NA,NA,4.8,61.4,2023_07
-111.213,50.099,RALSTON AGCM,3035362,AB,21.6,10,NA,38.7,10,8.3,10,NA,NA,NA,11.4,11,NA,NA,3,NA,NA,NA,0.3,75.3,2023_07
-112.683,49.483,RAYMOND AGDM,3035422,AB,19.6,9,NA,37.9,9,4.8,9,NA,NA,NA,7.8,11,NA,NA,2,NA,NA,NA,10.7,45.8,2023_07
-111.701,50.265,ROLLING HILLS AGCM,3035530,AB,20.4,10,NA,38.7,10,3.8,10,NA,NA,NA,20.3,10,NA,NA,2,NA,NA,NA,6.4,56.6,2023_07
-112.05,50.833,ROSEMARY AGDM,3035650,AB,19.3,8,NA,35.3,8,3.5,8,NA,NA,NA,29.5,8,NA,NA,3,NA,NA,NA,11.4,41.9,2023_07
-110.917,49.917,SEVEN PERSONS AGDM,3035845,AB,21,10,NA,37.9,10,7.4,10,NA,NA,NA,9.1,10,NA,NA,2,NA,NA,NA,1.5,64.5,2023_07
-110.215,50.732,SOCIAL PLAINS AGCM,3036040,AB,20.4,8,NA,38.4,8,8.1,8,NA,NA,NA,19.1,8,NA,NA,4,NA,NA,NA,3.9,60.2,2023_07
-112.982,51.228,STANDARD AGCM,3036086,AB,19.1,8,NA,35.8,8,6.5,8,NA,NA,NA,44.5,11,NA,NA,7,NA,NA,NA,14.5,40.1,2023_07
-113.883,50.183,STAVELY AAFC,3036099,AB,17.5,0,NA,33.8,0,5.2,0,NA,NA,NA,69.3,0,NA,NA,7,NA,NA,NA,52.9,36.4,2023_07
-113.283,51.033,STRATHMORE AGDM,3036205,AB,19,14,NA,34.3,14,7.7,14,NA,NA,NA,27.4,17,NA,NA,4,NA,NA,NA,12.8,30.2,2023_07
-112.124,49.792,TABER,3036360,AB,20.4,14,NA,37.5,9,8.5,10,0,9,NA,16.2,9,NA,0,4,NA,NA,NA,2.9,43.6,2023_07
-111.321,50.456,TIDE LAKE AGCM,3036485,AB,20.8,10,NA,38.3,10,5.9,10,NA,NA,NA,35.7,10,NA,NA,3,NA,NA,NA,4.2,62.9,2023_07
-112.863,50.304,TRAVERS AGCM,3036500,AB,19.9,14,NA,35.3,14,8,14,NA,NA,NA,9.5,14,NA,NA,3,NA,NA,NA,6.5,39.3,2023_07
-112.133,50.05,VAUXHALL CDA CS,3036682,AB,20,0,NA,37.2,0,6.9,0,NA,NA,NA,NA,NA,NA,NA,NA,NA,NA,NA,12.6,73.8,2023_07
-112.117,49.5,WRENTHAM AGDM,3037675,AB,19.3,8,NA,37.7,8,4.8,8,NA,NA,NA,0,8,NA,NA,0,NA,NA,NA,13.2,43,2023_07
-113.961,50.729,OKOTOKS,303M9JM,AB,19.4,8,2.4,35.5,8,6,8,0,8,NA,48,8,NA,0,6,NA,NA,NA,13.3,44.8,2023_07
-112.817,49.05,DEL BONITA AGDM,3042045,AB,18,8,NA,36,8,3.9,8,NA,NA,NA,8.3,8,NA,NA,4,NA,NA,NA,27.8,28.3,2023_07
-110.678,49.364,MANYBERRIES AGCM,3044203,AB,19.8,8,NA,39,8,4.6,8,NA,NA,NA,12.4,8,NA,NA,3,NA,NA,NA,11.7,53.4,2023_07
-111.652,49.137,MASINASIN AGDM,3044232,AB,20.2,8,NA,39.2,8,5.2,8,NA,NA,NA,13.5,8,NA,NA,3,NA,NA,NA,7.2,58.6,2023_07
-112.05,49.133,MILK RIVER,3044533,AB,19.1,4,NA,38.6,4,5.2,4,NA,NA,NA,7.6,22,NA,NA,3,NA,NA,NA,18.8,49,2023_07
-110.467,49.117,ONEFOUR CDA,3044923,AB,22.1,20,NA,38.6,20,9.9,20,NA,NA,NA,4.8,21,NA,NA,1,NA,NA,NA,0,45.5,2023_07
-111.126,49.225,PAKOWKI LAKE AGCM,3045000,AB,20.3,8,NA,39.1,8,7.2,8,NA,NA,NA,11.3,8,NA,NA,4,NA,NA,NA,5.9,58.2,2023_07
-111.025,49.029,PINHORN AGCM,3045100,AB,20.3,9,NA,37.1,9,7.6,9,NA,NA,NA,21,9,NA,NA,4,NA,NA,NA,5.2,55.6,2023_07
-112.16,49.283,WARNER AGCM,3046951,AB,19.9,9,NA,37.9,9,5.6,9,NA,NA,NA,7.4,24,NA,NA,1,NA,NA,NA,8.1,50.6,2023_07
-115.552,51.193,BANFF CS,3050519,AB,15.5,0,NA,30.6,0,0.7,0,NA,NA,NA,55.1,0,NA,NA,7,NA,NA,NA,78.7,2.5,2023_07
-114.175,49.468,BEAVER MINES,3050602,AB,17.2,0,NA,33.6,0,2.8,0,NA,NA,NA,22.7,0,NA,NA,3,NA,NA,NA,52.6,26.4,2023_07
-115.067,51.083,BOW VALLEY,3050778,AB,16.1,0,NA,32.4,0,0.7,0,NA,NA,NA,53.7,0,NA,NA,7,NA,NA,NA,70.7,10.8,2023_07
-114.482,49.628,CROWSNEST,3051R4R,AB,15.1,0,NA,31.6,0,2,0,NA,NA,NA,35.2,0,NA,NA,8,NA,NA,NA,93.6,3.8,2023_07
-118.03,52.926,JASPER WARDEN,3053536,AB,15.4,1,NA,32.7,1,-1.1,1,NA,NA,NA,39.6,1,NA,NA,7,NA,NA,NA,83.3,3.8,2023_07
-115.035,51.028,KANANASKIS,3053600,AB,15.7,0,1.2,31.5,0,1.5,0,0,0,NA,66.7,0,103,0,9,NA,NA,NA,75.8,4.8,2023_07
-116.04,52.492,NORDEGG CS,3054843,AB,14.4,1,NA,28.5,1,1.7,1,NA,NA,NA,83.6,1,NA,NA,10,NA,NA,NA,113,4.5,2023_07
-114.416,50.368,PEKISKO,3055119,AB,15.3,12,NA,31.3,12,0.5,12,NA,NA,NA,26.4,13,NA,NA,4,NA,NA,NA,53.7,2.9,2023_07
-113.809,49.131,WATERTON PARK GATE,3056214,AB,16.8,0,NA,34.3,0,1.2,0,NA,NA,NA,31,0,NA,NA,8,NA,NA,NA,58.3,21.4,2023_07
-115.787,54.144,WHITECOURT A,3057376,AB,16.4,0,NA,30.9,0,5,0,NA,NA,NA,NA,NA,NA,NA,NA,NA,NA,NA,60.7,12.1,2023_07
-115.19,50.943,NAKISKA RIDGETOP,305MGFF,AB,10.4,0,NA,21.2,0,0.5,0,NA,NA,NA,NA,NA,NA,NA,NA,NA,NA,NA,235.2,0,2023_07
-113.382,54.635,ATHABASCA AGCM,3060330,AB,17.7,8,NA,32.3,8,7.8,8,NA,NA,NA,86.1,8,NA,NA,9,NA,NA,NA,26.7,19.5,2023_07
-112.825,54.782,ATMORE AGDM,3060406,AB,17,8,NA,29.2,8,5.9,8,NA,NA,NA,138.9,8,NA,NA,9,NA,NA,NA,35.6,12.1,2023_07
-114.448,54.095,BARRHEAD CS,3060535,AB,16.8,0,NA,29,0,5.3,0,NA,NA,NA,154.4,0,NA,NA,12,NA,NA,NA,48.8,12,2023_07
-117.867,53.35,BRULE BLACK CAT,3060903,AB,13.9,12,-0.3,29,8,0.5,10,0,3,NA,67.6,3,NA,0,12,NA,NA,NA,78.1,0,2023_07
-114.678,54.131,CAMPSIE AUTO,3061201,AB,16.5,1,NA,29.8,1,4.2,1,NA,NA,NA,157.5,1,NA,NA,13,NA,NA,NA,52.5,8.8,2023_07
-115.894,53.623,CARROT CREEK,3061350,AB,16.2,9,NA,30.4,9,4,9,NA,NA,NA,97.8,9,NA,NA,8,NA,NA,NA,42.3,3.3,2023_07
-116.465,53.579,EDSON,3062239,AB,15.7,0,NA,29.8,0,2.2,0,NA,NA,NA,77.9,0,NA,NA,11,NA,NA,NA,74.9,5.1,2023_07
-116.453,53.58,EDSON CLIMATE,3062246,AB,15.8,0,NA,30,0,2.3,0,NA,NA,NA,74.5,0,NA,NA,12,NA,NA,NA,73.7,5.8,2023_07
-114.983,53.6,ENTWISTLE,3062451,AB,17.6,0,1.1,31,0,5,0,0,0,NA,154,0,149,0,12,NA,NA,NA,37.5,24,2023_07
-115.062,53.614,EVANSBURG2 AGCM,3062476,AB,16.4,8,NA,29.8,8,3.9,8,NA,NA,NA,128,8,NA,NA,7,NA,NA,NA,40.2,3.8,2023_07
-114.769,54.41,FORT ASSINIBOINE AGCM,3062660,AB,17.2,8,NA,29.3,8,7,8,NA,NA,NA,95.6,8,NA,NA,10,NA,NA,NA,27,8.2,2023_07
-111.213,56.651,FORT MCMURRAY CS,3062696,AB,17.2,0,NA,29.4,0,5,0,NA,NA,NA,64.6,0,NA,NA,5,NA,NA,NA,42.5,18.4,2023_07
-111.223,56.653,FORT MCMURRAY A,3062697,AB,17.3,0,NA,29.5,0,5.6,0,NA,NA,NA,81,0,NA,NA,9,NA,NA,NA,40.5,20,2023_07
-118.447,53.795,HENDRICKSON CREEK,3063135,AB,11.7,0,NA,26,0,-1.8,0,NA,NA,NA,85.2,0,NA,1,13,NA,NA,NA,194.9,0,2023_07
-116.479,55.396,HIGH PRAIRIE AGDM,3063165,AB,17.3,8,NA,32.3,8,3.9,8,NA,NA,NA,126.8,8,NA,NA,6,NA,NA,NA,28.9,13.4,2023_07
-113.543,54.821,ISLAND LAKE SOUTH,3063600,AB,16.9,0,NA,29.8,0,6.1,0,NA,NA,NA,139.8,0,NA,NA,11,NA,NA,NA,52.2,16.8,2023_07
-112.981,54.563,KINIKINIK,3063640,AB,17.6,8,NA,29.8,8,8.5,8,NA,NA,NA,129.2,8,NA,NA,10,NA,NA,NA,27.2,17.7,2023_07
-112.024,54.769,LAC LA BICHE CLIMATE,3063686,AB,17.3,0,NA,28.6,0,5.9,0,NA,NA,NA,120.3,0,NA,NA,12,NA,NA,NA,40.8,18.4,2023_07
-113.321,54.964,PLEASANT VIEW,3065200,AB,17.5,8,NA,29.7,8,8.3,8,NA,NA,NA,137.6,8,NA,NA,8,NA,NA,NA,28.5,17.6,2023_07
-111.7,54.5,RICH LAKE AGDM,3065475,AB,17.1,8,NA,32.3,8,5.7,8,NA,NA,NA,66.2,8,NA,NA,9,NA,NA,NA,34.5,13.6,2023_07
-111.835,53.851,ISPAS,3065712,AB,17.4,8,NA,28.6,8,7.2,8,NA,NA,NA,61.2,8,NA,NA,8,NA,NA,NA,28.9,15.8,2023_07
-114.777,55.293,SLAVE LAKE,3065995,AB,17.1,0,NA,28.7,0,6.2,0,NA,NA,NA,102.4,0,NA,NA,10,NA,NA,NA,44.5,17.7,2023_07
-114.777,55.293,SLAVE LAKE RCS,3065997,AB,16.9,0,NA,29,0,5.8,0,NA,NA,NA,89.2,0,NA,NA,8,NA,NA,NA,50.1,14.9,2023_07
-113.52,54.3,TAWATINAW AGCM,3066367,AB,17.1,8,NA,28,8,8.2,8,NA,NA,NA,70.3,8,NA,NA,7,NA,NA,NA,33.1,12.9,2023_07
-118.348,53.386,WILLOW CREEK 1,306GE70,AB,12.6,3,NA,27.9,2,-2.4,3,NA,NA,NA,43.9,5,NA,NA,10,NA,NA,NA,151.6,0,2023_07
-113.941,54.683,DUCK LAKE AGCM,306X001,AB,16.4,8,NA,29.7,8,5,8,NA,NA,NA,95.7,8,NA,NA,7,NA,NA,NA,46,9.1,2023_07
-117.236,55.577,BALLATER AGCM,3070495,AB,17.3,8,NA,31.7,8,5.7,8,NA,NA,NA,119,8,NA,NA,8,NA,NA,NA,29.6,13.9,2023_07
-119.396,55.197,BEAVERLODGE RCS,3070600,AB,16.7,2,NA,31.6,2,6.5,2,NA,NA,NA,50.7,2,NA,NA,9,NA,NA,NA,49.9,10.8,2023_07
-117.886,56.118,BROWNVALE AGCM,3070800,AB,17.9,8,NA,30,8,6.8,8,NA,NA,NA,61.8,8,NA,NA,8,NA,NA,NA,17.9,16.2,2023_07
-117.933,56.529,CLEAR HILLS AGCM,3071661,AB,18.1,8,NA,32.1,8,7.8,8,NA,NA,NA,84.8,8,NA,NA,7,NA,NA,NA,13.5,16.2,2023_07
-117.543,56.715,DEADWOOD AGCM,3071957,AB,19,8,NA,31.6,8,8.6,8,NA,NA,NA,37,8,NA,NA,6,NA,NA,NA,8.3,30.7,2023_07
-117.887,55.808,EAGLESHAM AGCM,3072151,AB,17.3,8,NA,31.1,8,7,8,NA,NA,NA,60.3,8,NA,NA,6,NA,NA,NA,26.3,11.1,2023_07
-110.439,58.981,EGG ISLAND,3072246,AB,18.9,22,NA,27.5,21,14.3,22,NA,NA,NA,NA,NA,NA,NA,NA,NA,NA,NA,2.9,10.6,2023_07
-118.439,56.081,FAIRVIEW AGDM,3072525,AB,17.8,8,NA,30.9,8,6.9,8,NA,NA,NA,90.4,8,NA,NA,9,NA,NA,NA,22.9,18.4,2023_07
-111.117,58.767,FORT CHIPEWYAN,3072655,AB,17.9,0,NA,29.2,0,3.3,0,NA,NA,NA,49.8,0,NA,NA,3,NA,NA,NA,26.7,23.2,2023_07
-111.117,58.767,FORT CHIPEWYAN RCS,3072659,AB,18,0,NA,29.6,0,3.5,0,NA,NA,NA,49.4,0,NA,NA,3,NA,NA,NA,24.7,26,2023_07
-116.04,58.382,FORT VERMILION,3072723,AB,18.7,0,NA,30.5,0,7.8,0,NA,NA,NA,74.3,0,NA,NA,9,NA,NA,NA,14.5,37.4,2023_07
-118.885,55.18,GRANDE PRAIRIE A,3072921,AB,17.1,0,NA,32.2,0,5.5,0,0,1,NA,51.7,1,NA,NA,9,NA,NA,NA,43.6,17.2,2023_07
-117.298,57.265,HAWK HILLS AGCM,3073071,AB,18.5,8,NA,30.3,8,8.3,8,NA,NA,NA,100,8,NA,NA,7,NA,NA,NA,11.2,22.2,2023_07
-117.165,58.622,HIGH LEVEL A,3073140,AB,17.9,0,NA,30.2,0,2.7,0,NA,NA,NA,59.3,0,NA,NA,4,NA,NA,NA,26.9,22.5,2023_07
-117.164,58.631,HIGH LEVEL,3073148,AB,16.6,0,NA,30.5,0,0.1,0,NA,NA,NA,63.1,0,NA,0,5,NA,NA,NA,52.3,7.6,2023_07
-117.12,55.913,JEAN COTE AGCM,3073535,AB,17.9,8,NA,29,8,8.6,8,NA,NA,NA,92.5,8,NA,NA,7,NA,NA,NA,22.8,20.4,2023_07
-117.677,57.788,KEG RIVER AGCM,3073644,AB,17.9,8,NA,31.6,8,5.9,8,NA,NA,NA,53.4,8,NA,NA,5,NA,NA,NA,17.1,15.7,2023_07
-116.343,58.172,LA CRETE AGCM,3073730,AB,18.9,8,NA,30.3,8,9.8,8,NA,NA,NA,69.6,8,NA,NA,6,NA,NA,NA,11.4,32.6,2023_07
-119.255,55.422,LA GLACE AGCM,3073740,AB,16.6,8,NA,32,8,5.2,8,NA,NA,NA,26.2,18,NA,NA,5,NA,NA,NA,39.3,7.6,2023_07
-117.451,56.974,MANNING AGDM,3074190,AB,18.3,8,NA,30.6,8,6.8,8,NA,NA,NA,NA,NA,NA,NA,NA,NA,NA,NA,12.1,18.8,2023_07
-119.745,56.314,CLEARDALE AGDM,3074935,AB,18.1,8,NA,32.2,8,7,8,NA,NA,NA,28.6,8,NA,NA,7,NA,NA,NA,19.5,22.8,2023_07
-117.448,56.227,PEACE RIVER A,3075041,AB,17.6,0,NA,30.4,0,5.8,0,0,0,NA,91.5,0,NA,NA,5,NA,NA,NA,34.6,21.4,2023_07
-117.452,56.193,ROMA,3075043,AB,17.5,1,NA,29.7,1,6.4,1,NA,NA,NA,93.6,1,NA,NA,8,NA,NA,NA,36.3,20.7,2023_07
-118.293,55.621,PEORIA AGDM,3075160,AB,16.6,8,NA,31.3,8,5.8,8,NA,NA,NA,79.2,9,NA,NA,8,NA,NA,NA,39.2,7.8,2023_07
-115.278,56.552,RED EARTH,3075488,AB,17.3,0,NA,29.8,0,5.2,0,NA,NA,NA,53.1,11,NA,NA,6,NA,NA,NA,38.4,17.5,2023_07
-116.481,58.452,ROCKY LANE AGCM,3075550,AB,18.5,8,NA,31.1,8,6.8,8,NA,NA,NA,73.7,8,NA,NA,5,NA,NA,NA,11.3,22,2023_07
-118.668,55.777,RYCROFT AGCM,3075601,AB,17.3,8,NA,32.6,8,7,8,NA,NA,NA,94.2,8,NA,NA,7,NA,NA,NA,28,12.7,2023_07
-119.345,56.076,SAVANNA AGCM,3075770,AB,17.5,8,NA,32.1,8,8,8,NA,NA,NA,75,8,NA,NA,6,NA,NA,NA,26.7,16.3,2023_07
-111.997,58.853,SWEETGRASS LANDING,3076330,AB,NA,NA,NA,NA,NA,NA,NA,NA,NA,NA,19.8,2,NA,NA,3,NA,NA,NA,NA,NA,2023_07
-118.408,55.352,TEEPEE CREEK AGCM,3076366,AB,17.2,8,NA,31.9,8,5.6,8,NA,NA,NA,32.7,8,NA,NA,6,NA,NA,NA,28.1,9.1,2023_07
-116.848,58.021,TOMPKINS LANDING AGCM,3076530,AB,18.7,8,NA,30.7,8,8.2,8,NA,NA,NA,73.1,8,NA,NA,4,NA,NA,NA,11.8,28.9,2023_07
-117.199,55.098,VALLEYVIEW AGDM,3076680,AB,17.2,8,NA,30.4,8,6,8,NA,NA,NA,171.1,8,NA,NA,10,NA,NA,NA,30.3,12.2,2023_07
-110.283,54.417,COLD LAKE A,3081680,AB,16.9,0,-0.5,28.8,0,4.6,0,0,0,NA,64.5,0,82,NA,11,NA,NA,NA,52.7,19.4,2023_07
-110.323,54.177,BEAVERDAM AGCM,308X001,AB,17,8,NA,27.5,8,4.5,8,NA,NA,NA,43.2,8,NA,NA,7,NA,NA,NA,36.4,13,2023_07
-104.71,50.201,BRATT'S LAKE CLIMATE,4010811,SK,17.6,0,NA,35.2,0,2.3,0,NA,NA,NA,19.5,0,NA,NA,5,NA,NA,NA,52.5,40.7,2023_07
-102.571,50.368,BROADVIEW,4010879,SK,16.9,0,-1.1,33,0,0.3,0,NA,NA,NA,10.5,0,18,NA,2,NA,NA,NA,64.8,31.9,2023_07
-105.383,50.55,BUFFALO POUND LAKE,4010984,SK,20.3,28,NA,33,28,8,27,0,28,NA,1.2,28,NA,NA,1,NA,NA,NA,1.5,8.3,2023_07
-104.867,51.183,DUVAL,4012300,SK,18.1,3,-0.8,35,3,7,3,0,3,NA,32,3,NA,0,5,NA,NA,NA,38,40,2023_07
-102.966,49.21,ESTEVAN A,4012403,SK,18.8,1,NA,36.2,1,3.4,1,NA,NA,NA,8.2,1,NA,NA,5,NA,NA,NA,36,60.6,2023_07
-102.967,49.217,ESTEVAN,4012410,SK,18.7,1,NA,36,1,3.9,1,NA,NA,NA,7.3,1,NA,NA,4,NA,NA,NA,35.7,56.7,2023_07
-103.65,50.55,INDIAN HEAD CDA,4013480,SK,16.7,0,-1.6,33.9,0,2.8,0,NA,NA,NA,15.9,0,25,NA,3,NA,NA,NA,67.5,26.3,2023_07
-103.753,51.257,KELLIHER,4013660,SK,17.7,4,-0.2,32.5,4,7,4,0,4,NA,26.8,4,NA,0,6,NA,NA,NA,43.6,35.5,2023_07
-102.733,50.2,KIPLING,4014040,SK,17.8,0,-0.5,32,0,5,0,0,0,NA,22.8,0,35,0,3,NA,NA,NA,47.5,42,2023_07
-105.25,51.417,LAST MOUNTAIN CS,4014156,SK,17.3,0,-1.3,35.2,0,3.3,0,NA,NA,NA,38.4,0,72,NA,4,NA,NA,NA,53.9,32.2,2023_07
-104.633,52,LEROY,4014322,SK,16.7,1,-1.2,31.5,1,4.5,1,0,1,NA,32.4,1,NA,0,6,NA,NA,NA,63.8,26.1,2023_07
-103.889,51.152,LIPTON 2,4014481,SK,17.1,3,-0.6,33,3,4.5,3,0,3,NA,18.2,3,NA,NA,4,NA,NA,NA,52.2,25.8,2023_07
-105.538,50.332,MOOSE JAW CS,4015322,SK,17.6,2,NA,34.6,2,2.2,2,NA,NA,NA,20.5,2,NA,NA,3,NA,NA,NA,40.6,30.3,2023_07
-102.117,49.317,OXBOW,4015800,SK,18.2,0,NA,34,0,3,0,0,0,NA,10.9,0,NA,0,5,NA,NA,NA,41.9,49.4,2023_07
-103.983,50.567,QU'APPELLE 1,4016322,SK,17.7,0,-0.8,33,0,5.5,0,0,0,NA,35.4,0,47,0,7,NA,NA,NA,47.7,39.5,2023_07
-104.666,50.432,REGINA INTL A,4016566,SK,18.3,0,NA,35.1,0,4.5,0,NA,NA,NA,NA,NA,NA,NA,NA,NA,NA,NA,40.1,48.9,2023_07
-104.667,50.433,REGINA RCS,4016699,SK,18.2,0,NA,34.9,0,4.3,0,NA,NA,NA,23.1,0,NA,NA,8,NA,NA,NA,41.8,46.9,2023_07
-105.4,51.667,WATROUS EAST,4018642,SK,16.9,0,NA,34.6,0,2.5,0,NA,NA,NA,15.6,0,NA,NA,4,NA,NA,NA,63.8,29.4,2023_07
-104.183,49.817,YELLOW GRASS NORTH,4019041,SK,18.1,1,NA,36,1,4.2,1,NA,NA,NA,7.3,1,NA,NA,2,NA,NA,NA,45.4,46.9,2023_07
-102.464,51.265,YORKTON,4019073,SK,16.7,3,NA,30.3,3,3.7,3,NA,NA,NA,18,3,NA,NA,4,NA,NA,NA,57.6,20.4,2023_07
-102.462,51.265,YORKTON,4019075,SK,16.8,2,NA,30.8,2,3.9,2,NA,NA,NA,16.9,2,NA,NA,4,NA,NA,NA,58.5,24.3,2023_07
-104.2,51.767,WYNYARD (AUT),40190LN,SK,16.6,1,NA,33.6,1,4,1,NA,NA,NA,24.2,1,NA,NA,4,NA,NA,NA,67.1,24.4,2023_07
-103.8,49.7,WEYBURN,401HP5R,SK,19.1,1,NA,36.2,1,6,1,NA,NA,NA,7.4,1,NA,NA,2,NA,NA,NA,28.6,60.1,2023_07
-105.946,49.729,ASSINIBOIA AIRPORT,4020286,SK,18.6,0,NA,38.3,0,4.8,0,NA,NA,NA,3.1,0,NA,NA,1,NA,NA,NA,33.1,50.8,2023_07
-107.311,50.832,BEECHY,4020560,SK,19.5,0,0.4,39.5,0,4,0,0,0,NA,14.3,0,23,0,3,NA,NA,NA,23.2,68.5,2023_07
-106.583,51.133,ELBOW CS,4022359,SK,18.5,0,NA,34.8,0,4.3,0,NA,NA,NA,15.7,0,NA,NA,2,NA,NA,NA,32.5,46.6,2023_07
-107.15,50.95,LUCKY LAKE,4024714,SK,18.7,0,NA,36.8,0,4.5,0,NA,NA,NA,11.9,0,NA,NA,4,NA,NA,NA,30.4,52.1,2023_07
-109.466,49.903,MAPLE CREEK,4024919,SK,19.9,2,NA,38.7,2,7.1,2,NA,NA,NA,26.7,2,NA,NA,4,NA,NA,NA,12.1,66.1,2023_07
-107.263,51.154,ROCK POINT,4026847,SK,19.3,1,0.4,35,1,8,1,0,1,NA,21.2,1,NA,0,5,NA,NA,NA,20.7,60.1,2023_07
-107.691,50.292,SWIFT CURRENT,4028038,SK,18.7,0,NA,37,0,6.9,0,NA,NA,NA,45.9,0,NA,NA,4,NA,NA,NA,33.3,53.5,2023_07
-107.733,50.267,SWIFT CURRENT CDA,4028060,SK,18.4,0,-0.1,36.6,0,6.4,0,NA,NA,NA,63.3,0,120,NA,4,NA,NA,NA,35.6,49.3,2023_07
-109.501,50.909,LEADER AIRPORT,402DAF0,SK,19.4,0,NA,38.5,0,4.4,0,NA,NA,NA,13.6,0,NA,NA,4,NA,NA,NA,19.5,63.5,2023_07
-105.483,49.05,CORONACH SPC,40318MN,SK,18.7,0,-0.4,38.3,0,2.8,0,NA,NA,NA,33.6,0,60,NA,5,NA,NA,NA,32,53.8,2023_07
-109.514,49.641,CYPRESS HILLS PARK,4031999,SK,18.1,1,NA,34.8,1,5.1,1,NA,NA,NA,37,1,NA,NA,7,NA,NA,NA,43.7,46.4,2023_07
-108.989,49.438,EASTEND CYPRESS (AUT),4032322,SK,19.1,1,NA,36.3,1,6.8,1,NA,NA,NA,24.6,1,NA,NA,3,NA,NA,NA,25.1,58.9,2023_07
-107.024,49.099,MANKOTA,4034910,SK,18.6,1,-0.5,39.2,1,2.1,1,NA,NA,NA,47.1,1,NA,NA,5,NA,NA,NA,25,43.4,2023_07
-105.979,49.168,ROCKGLEN (AUT),4036844,SK,19.1,0,NA,37.8,0,4.3,0,NA,NA,NA,29.9,0,NA,NA,5,NA,NA,NA,25.2,60.7,2023_07
-107.586,49.058,VAL MARIE SOUTHEAST,4038412,SK,19.2,0,NA,39,0,2,0,NA,NA,NA,9.3,9,NA,NA,2,NA,NA,NA,21.3,58.2,2023_07
-109.2,53.45,BUTTE ST PIERRE,4041000,SK,16.9,0,0.2,30.5,0,2.5,0,0,0,NA,34.2,0,44,0,6,NA,NA,NA,54.9,21.9,2023_07
-109.181,51.515,KINDERSLEY A,4043899,SK,17.9,0,NA,36,0,3.9,0,NA,NA,NA,NA,NA,NA,NA,NA,NA,NA,NA,43.8,41.9,2023_07
-109.181,51.515,KINDERSLEY A,4043901,SK,17.9,0,NA,36,0,3.9,0,0,0,NA,27,0,NA,NA,7,NA,NA,NA,43.8,41.9,2023_07
-109.178,51.516,KINDERSLEY AIRPORT,4043902,SK,17.8,0,NA,36.1,0,3.8,0,NA,NA,NA,23.9,0,NA,NA,6,NA,NA,NA,45.8,40,2023_07
-108.256,52.772,NORTH BATTLEFORD RCS,4045607,SK,17,0,NA,32.3,0,4.1,0,NA,NA,NA,38.6,0,NA,NA,10,NA,NA,NA,55.1,25.4,2023_07
-108.244,52.769,NORTH BATTLEFORD,4045695,SK,17.2,1,NA,32.4,1,4.3,1,NA,NA,NA,38.1,1,NA,NA,9,NA,NA,NA,49.9,25.6,2023_07
-107.917,51.567,ROSETOWN EAST,4046884,SK,17.7,0,NA,35.4,0,4,0,NA,NA,NA,14.1,0,NA,NA,3,NA,NA,NA,42.9,35.1,2023_07
-108.835,52.36,SCOTT CDA,4047240,SK,17.1,0,0,33.3,0,3.3,0,NA,NA,NA,29.7,0,41,NA,7,NA,NA,NA,51.7,24.8,2023_07
-107.767,52.317,SONNINGDALE,4047644,SK,17.1,2,NA,31,2,1.5,2,0,2,NA,26,2,NA,0,7,NA,NA,NA,57,29.5,2023_07
-109.405,53.131,WASECA RCS,4048521,SK,17.3,0,NA,30.2,0,6.6,0,NA,NA,NA,22.4,0,NA,NA,4,NA,NA,NA,47.1,25.9,2023_07
-105.783,52.85,HOEY,4053264,SK,NA,NA,NA,NA,NA,NA,NA,0,28,NA,10,28,NA,NA,3,NA,NA,NA,NA,NA,2023_07
-104.6,52.817,MELFORT,4055079,SK,16.9,0,NA,31.7,0,3.8,0,NA,NA,NA,16.4,0,NA,NA,7,NA,NA,NA,57.9,24,2023_07
-107.05,51.483,OUTLOOK PFRA,4055736,SK,18.5,0,-0.4,33.9,0,5.5,0,NA,NA,NA,15.5,0,28,NA,3,NA,NA,NA,29.6,44.9,2023_07
-105.15,52.417,PILGER,4056121,SK,16.4,0,NA,31.3,0,3.8,0,NA,NA,NA,26.8,0,NA,NA,5,NA,NA,NA,72.9,22.5,2023_07
-105.673,53.214,PRINCE ALBERT A,4056241,SK,16,0,NA,28.4,0,3,0,0,0,NA,68.7,0,NA,NA,7,NA,NA,NA,71.7,11.1,2023_07
-105.677,53.21,PRINCE ALBERT GLASS FIELD,4056243,SK,16.4,0,NA,29.3,0,2.8,0,NA,NA,NA,69.1,0,NA,NA,6,NA,NA,NA,63.6,14.2,2023_07
-106.7,52.171,SASKATOON INTL A,4057152,SK,17.9,1,NA,33,1,3.4,1,NA,NA,NA,NA,NA,NA,NA,NA,NA,NA,NA,39.9,37.9,2023_07
-106.719,52.174,SASKATOON RCS,4057165,SK,17.7,0,NA,33.2,0,3,0,NA,NA,NA,19.9,0,NA,NA,4,NA,NA,NA,45.1,35.9,2023_07
-108.421,55.841,BUFFALO NARROWS (AUT),4060983,SK,18.4,0,NA,29.6,0,7.8,0,NA,NA,NA,26.4,0,NA,NA,7,NA,NA,NA,28.8,40.7,2023_07
-108.418,55.842,BUFFALO NARROWS A,4060988,SK,18.6,0,NA,29.4,0,8.4,0,NA,NA,NA,27.5,0,NA,NA,7,NA,NA,NA,28,46.2,2023_07
-104.483,58.083,CIGAR LAKE,4061570,SK,15.8,2,0,27,1,3,1,0,1,NA,50.2,1,NA,0,7,NA,NA,NA,80,15.5,2023_07
-103.678,58.229,COLLINS BAY SK,4061620,SK,14.7,0,NA,28.1,0,1.2,0,NA,NA,NA,59.2,0,NA,NA,6,NA,NA,NA,109.1,5.3,2023_07
-103.7,58.183,COLLINS BAY CAMECO,4061632,SK,15.6,4,NA,28,2,4,2,0,2,NA,55.1,2,NA,0,8,NA,NA,NA,75.3,11.6,2023_07
-102.35,55.533,ISLAND FALLS (AUT),4063605,SK,15.7,0,NA,30.1,0,3.7,0,NA,NA,NA,80.8,0,NA,NA,13,NA,NA,NA,83,13.2,2023_07
-105.6,57.25,KEY LAKE,4063753,SK,14.5,7,NA,28.5,7,0.5,7,NA,NA,NA,24.8,7,NA,NA,4,NA,NA,NA,83.8,0,2023_07
-105.618,57.256,KEY LAKE,4063757,SK,15.4,0,NA,28.4,0,3.8,0,NA,NA,NA,93,0,NA,NA,8,NA,NA,NA,87.1,7,2023_07
-105.27,55.146,LA RONGE RCS,4064149,SK,17,1,NA,29.7,1,5.3,1,NA,NA,NA,69.3,1,NA,NA,8,NA,NA,NA,48.3,17.3,2023_07
-105.267,55.151,LA RONGE A,4064155,SK,16.6,0,NA,30.2,0,3.4,0,0,0,NA,79.4,0,NA,NA,8,NA,NA,NA,58.6,15.4,2023_07
-109.138,54.02,LOON LAKE RCS,4064620,SK,16.3,0,NA,28.9,0,3.7,0,NA,NA,NA,70.8,0,NA,NA,10,NA,NA,NA,68.7,17,2023_07
-108.523,54.125,MEADOW LAKE A,4065063,SK,16.1,0,NA,29.7,0,3.7,0,NA,NA,NA,NA,NA,NA,NA,NA,NA,NA,NA,75,15,2023_07
-103.283,56.333,SOUTHEND,4067655,SK,15.4,0,NA,30.4,0,3.1,0,NA,NA,NA,64.1,0,NA,NA,9,NA,NA,NA,89.1,8.1,2023_07
-107.55,53.367,SPIRITWOOD WEST,4067723,SK,15.7,0,NA,29.1,0,2,0,NA,NA,NA,26.2,0,NA,NA,7,NA,NA,NA,81.5,9.8,2023_07
-105.841,59.25,STONY RAPIDS,4067799,SK,15.3,1,NA,28.6,1,1.5,1,NA,NA,NA,48.8,1,NA,NA,8,NA,NA,NA,84.9,3,2023_07
-106.067,53.917,WASKESIU LAKE,4068559,SK,16.4,0,NA,29,0,5.2,0,NA,NA,NA,70.2,0,NA,NA,7,NA,NA,NA,62.7,12.9,2023_07
-108.517,54.133,MEADOW LAKE,406N0NM,SK,15.9,0,NA,29.3,0,3.9,0,NA,NA,NA,68.1,0,NA,NA,9,NA,NA,NA,77.9,14.3,2023_07
-108.483,59.567,URANIUM CITY (AUT),406QLD0,SK,16.9,3,NA,26.6,3,4.6,3,NA,NA,NA,8.2,3,NA,NA,2,NA,NA,NA,44.7,12.8,2023_07
-104.008,53.333,NIPAWIN,4075525,SK,16.5,0,NA,30.9,0,2.4,0,NA,NA,NA,54.6,0,NA,NA,7,NA,NA,NA,62.9,16.2,2023_07
-104,53.333,NIPAWIN,407N51G,SK,16.5,0,NA,30.9,0,2.7,0,NA,NA,NA,49.6,0,NA,NA,6,NA,NA,NA,63.3,15.5,2023_07
-102.317,52.817,HUDSON BAY(AUT),4083324,SK,16.1,0,NA,30.8,0,2.9,0,NA,NA,NA,73.2,0,NA,NA,10,NA,NA,NA,72.2,14.3,2023_07
-99.292,49.276,BALDUR,5010140,MB,19.1,0,0.1,33,0,6,0,0,0,NA,10.2,0,14,0,3,NA,NA,NA,26.9,59.9,2023_07
-99.952,49.91,BRANDON A,5010481,MB,16.9,0,NA,30.9,0,3.7,0,0,0,NA,29.3,0,NA,NA,6,NA,NA,NA,58.3,25.2,2023_07
-99.95,49.9,BRANDON RCS,5010490,MB,17.4,0,NA,31.9,0,5,0,NA,NA,NA,25.2,0,NA,NA,5,NA,NA,NA,50.4,31.4,2023_07
-99.357,49.906,CARBERRY CS,5010547,MB,17.2,1,NA,31.9,1,4.2,1,NA,NA,NA,13.6,1,NA,NA,3,NA,NA,NA,56.1,30.6,2023_07
-99.074,49.562,CYPRESS RIVER RCS,5010641,MB,17.7,0,NA,33.3,0,3.9,0,NA,NA,NA,33,0,NA,NA,6,NA,NA,NA,46.5,36.3,2023_07
-101.203,49.927,ELKHORN 2 EAST,5010QFQ,MB,18.6,8,-0.3,33.5,8,2.5,8,0,8,NA,10.8,8,NA,0,3,NA,NA,NA,28.3,41.9,2023_07
-98.3,49.983,PORTAGE ROMANCE,5012300,MB,NA,NA,NA,NA,NA,NA,NA,0,0,NA,35.7,0,NA,0,6,NA,NA,NA,NA,NA,2023_07
-98.267,49.95,PORTAGE LA PRAIRIE CDA,5012321,MB,NA,NA,NA,NA,NA,NA,NA,0,19,NA,63.4,19,NA,NA,9,NA,NA,NA,NA,NA,2023_07
-98.284,49.903,PORTAGE SOUTHPORT,5012324,MB,18.6,0,NA,33.2,0,6.3,0,NA,NA,NA,30.1,0,NA,NA,10,NA,NA,NA,30.6,48,2023_07
-101.363,51.183,ROBLIN,5012469,MB,16,1,NA,29.6,1,2.3,1,NA,NA,NA,26.2,1,NA,NA,3,NA,NA,NA,78.2,19.1,2023_07
-100.604,50.455,SHOAL LAKE CS,5012654,MB,16.3,1,NA,30.3,1,2.3,1,NA,NA,NA,18.9,1,NA,NA,5,NA,NA,NA,70.6,19.4,2023_07
-100.934,49.842,VIRDEN WATER,5012961,MB,18.8,6,NA,33,6,4,6,0,6,NA,19.7,6,NA,0,6,NA,NA,NA,19.5,40.5,2023_07
-99.942,50.655,WASAGAMING,5013117,MB,15.3,0,-1.6,29.2,0,2.2,0,NA,NA,NA,20.6,0,31,NA,5,NA,NA,NA,97.6,15.1,2023_07
-100.986,49.281,MELITA,501A7AR,MB,18.3,0,NA,32.3,0,3.5,0,NA,NA,NA,18.6,0,NA,NA,4,NA,NA,NA,39.6,49.7,2023_07
-101.4,51.267,ROBLIN FRIESEN 3 NORTHWEST,501B4G2,MB,NA,NA,NA,NA,NA,NA,NA,0,0,NA,73.9,0,NA,0,4,NA,NA,NA,NA,NA,2023_07
-100.179,50.108,RIVERS PETTAPIECE,501BMMA,MB,NA,NA,NA,NA,NA,NA,NA,0,1,NA,22.1,1,NA,0,6,NA,NA,NA,NA,NA,2023_07
-100.817,50.75,ROSSBURN 4 NORTH,501KE01,MB,NA,NA,NA,NA,NA,NA,NA,0,2,NA,20.8,2,NA,0,6,NA,NA,NA,NA,NA,2023_07
-98.319,49.4,DEERWOOD RCS,5020725,MB,18.3,0,NA,33.5,0,6.6,0,NA,NA,NA,25.3,0,NA,NA,3,NA,NA,NA,34.4,43.2,2023_07
-97.238,49,EMERSON AUTO,5020881,MB,18.3,0,NA,32,0,4.9,0,NA,NA,NA,53.5,0,NA,NA,5,NA,NA,NA,32.6,42.2,2023_07
-97.56,49.031,GRETNA (AUT),5021220,MB,18.5,0,NA,33.4,0,5.7,0,NA,NA,NA,27.4,0,NA,NA,5,NA,NA,NA,30,44.1,2023_07
-98.875,49.606,HOLLAND,5021302,MB,NA,NA,NA,NA,NA,NA,NA,0,6,NA,30.6,6,NA,0,8,NA,NA,NA,NA,NA,2023_07
-96.901,49.518,KLEEFELD (MAFRI),5021500,MB,17.9,0,NA,30.8,0,4.8,0,NA,NA,NA,53.3,0,NA,NA,10,NA,NA,NA,39.3,34.7,2023_07
-97.807,50.013,MARQUETTE,5021695,MB,18.8,7,-0.9,32,7,9,7,0,7,NA,34,7,NA,0,6,NA,NA,NA,17.5,37.6,2023_07
-98.084,49.188,MORDEN CDA CS,5021849,MB,19.4,0,NA,35.3,0,8.2,0,NA,NA,NA,15.7,0,NA,NA,5,NA,NA,NA,20.8,64,2023_07
-98.905,49.191,PILOT MOUND (AUT),5022125,MB,16.9,0,NA,32.3,0,2.9,0,NA,NA,NA,9.3,0,NA,NA,2,NA,NA,NA,62.9,28.2,2023_07
-96.035,49.353,ST LABRE,5022575,MB,NA,NA,NA,NA,NA,NA,NA,0,0,NA,74.4,0,88,0,10,NA,NA,NA,NA,NA,2023_07
-97.033,50.056,WINNIPEG ST ANDREWS,50225DS,MB,17.7,1,NA,31.7,1,3.7,1,NA,NA,NA,NA,NA,NA,NA,NA,NA,NA,NA,42.3,32.1,2023_07
-97.95,49.133,SCHANZENFELD,5022623,MB,NA,NA,NA,NA,NA,NA,NA,0,3,NA,18.4,3,NA,NA,6,NA,NA,NA,NA,NA,2023_07
-95.598,49.024,SPRAGUE,5022759,MB,17.1,0,NA,30.8,0,4.2,0,NA,NA,NA,62.9,0,NA,NA,7,NA,NA,NA,47.2,20.2,2023_07
-97.167,50.117,STONY MOUNTAIN,5022791,MB,17.7,2,-2.2,31,2,5,2,0,2,NA,103.1,2,NA,0,10,NA,NA,NA,35.6,26.9,2023_07
-97.24,49.91,WINNIPEG INTL A,5023227,MB,17.9,0,NA,31.8,0,5.3,0,NA,NA,NA,NA,NA,NA,NA,NA,NA,NA,NA,41.6,37.8,2023_07
-97.129,49.888,WINNIPEG THE FORKS,5023262,MB,19.9,4,NA,33.3,4,10.7,4,NA,NA,NA,57.6,4,NA,NA,10,NA,NA,NA,11.4,62.3,2023_07
-98.03,49.498,CARMAN U OF M CS,502I001,MB,18.4,0,NA,34.6,0,6.1,0,NA,NA,NA,23.9,0,NA,NA,4,NA,NA,NA,31.5,42.8,2023_07
-97.249,49.917,WINNIPEG A CS,502S001,MB,17.8,0,NA,31.7,0,5,0,NA,NA,NA,66.3,0,NA,NA,12,NA,NA,NA,42,37.3,2023_07
-97.022,52.36,BERENS RIVER CS,5030203,MB,16.3,0,-1.4,29.6,0,5.4,0,NA,NA,NA,30.8,0,59,NA,8,NA,NA,NA,71.2,17.8,2023_07
-97.018,52.359,BERENS RIVER A,5030204,MB,16.4,0,NA,29.6,0,5,0,NA,NA,NA,NA,NA,NA,NA,NA,NA,NA,NA,67.8,18.9,2023_07
-97.616,52.819,GEORGE ISLAND (AUT),5030984,MB,17.4,2,NA,27,2,10.6,2,NA,NA,NA,16.9,2,NA,NA,5,NA,NA,NA,37.1,20,2023_07
-97.555,51.083,FISHER BRANCH (AUT),50309J6,MB,16.9,0,NA,30.5,0,3.9,0,NA,NA,NA,42.3,0,NA,NA,11,NA,NA,NA,58,25.4,2023_07
-96.982,50.631,GIMLI HARBOUR CS,5031041,MB,18,1,NA,29.3,1,7.8,1,NA,NA,NA,NA,NA,NA,NA,NA,NA,NA,NA,33.7,32.2,2023_07
-97.05,50.633,GIMLI CLIMATE,5031042,MB,16.9,1,NA,30.7,1,5.1,1,NA,NA,NA,19.3,1,NA,NA,5,NA,NA,NA,53.6,21,2023_07
-95.977,50.522,GREAT FALLS CLIMATE,5031201,MB,18,1,NA,31.5,1,6.5,1,NA,NA,NA,32.6,1,NA,NA,7,NA,NA,NA,34.5,35.6,2023_07
-95.197,49.624,INDIAN BAY,5031320,MB,17.5,0,-1.6,30,0,5,0,0,0,NA,87.3,0,91,0,13,NA,NA,NA,44,29,2023_07
-99.268,53.186,GRAND RAPIDS (AUT),5031A10,MB,16.3,0,NA,31.2,0,3.9,0,NA,NA,NA,35.1,0,NA,NA,9,NA,NA,NA,74.3,20.1,2023_07
-95.89,50.148,PINAWA CANWARN,5032161,MB,NA,NA,NA,NA,NA,NA,NA,0,0,NA,52.8,0,NA,0,13,NA,NA,NA,NA,NA,2023_07
-95.533,49.85,RENNIE,5032360,MB,17,16,NA,32,11,3.5,12,0,11,NA,66,11,NA,0,9,NA,NA,NA,26.8,11.5,2023_07
-96.567,50.7,VICTORIA BEACH (AUT),5032951,MB,19.3,0,NA,30.1,0,10.8,0,NA,NA,NA,NA,NA,NA,NA,NA,NA,NA,NA,13.8,55.6,2023_07
-96.065,50.177,PINAWA,503B1ER,MB,18.9,25,NA,34.3,25,7.9,24,NA,NA,NA,67.9,1,NA,NA,10,NA,NA,NA,4.5,10.1,2023_07
-98.7,50.05,BEAVER,5040166,MB,NA,NA,NA,NA,NA,NA,NA,0,29,NA,2.8,29,NA,NA,1,NA,NA,NA,NA,NA,2023_07
-100.057,51.1,DAUPHIN CS,5040681,MB,17.2,1,NA,31.1,1,4.5,1,NA,NA,NA,17.1,1,NA,NA,4,NA,NA,NA,50.4,25.1,2023_07
-100.053,51.101,DAUPHIN,5040689,MB,17.1,1,NA,30.8,1,4.6,1,NA,NA,NA,19.3,0,NA,NA,5,NA,NA,NA,52,25.4,2023_07
-101.098,52.666,MAFEKING,5041685,MB,17.5,0,-1,29.5,0,7,0,0,0,NA,144.4,0,146,0,10,NA,NA,NA,45.8,29.2,2023_07
-99.53,50.712,MCCREARY,5043158,MB,18,1,-1.2,31.5,1,6.9,1,NA,NA,NA,19,1,NA,NA,5,NA,NA,NA,39.3,38.8,2023_07
-98.037,50.499,OAKPOINT MARINE,504K0NM,MB,17.8,0,NA,29.4,0,5.9,0,NA,NA,NA,39.2,0,NA,NA,7,NA,NA,NA,43.9,38.6,2023_07
-101.233,52.115,SWAN RIVER RCS,504K80K,MB,16.3,1,NA,31.4,1,2.7,1,NA,NA,NA,32.2,1,NA,NA,6,NA,NA,NA,68.1,16.5,2023_07
-101.683,54.683,FLIN FLON,5050919,MB,17.1,0,NA,29.8,0,6.6,0,NA,NA,NA,96.8,0,NA,NA,8,NA,NA,NA,53.2,25,2023_07
-101.883,54.767,FLIN FLON,5050920,MB,17.5,20,-1.4,29,20,4.5,20,0,20,NA,48.9,20,NA,0,5,NA,NA,NA,22.6,16.6,2023_07
-101.682,54.678,FLIN FLON A,5050973,MB,17.1,0,NA,29.7,0,6.8,0,NA,NA,NA,NA,NA,NA,NA,NA,NA,NA,NA,53.3,26.2,2023_07
-101.091,53.971,THE PAS A,5052882,MB,17.3,0,NA,30.1,0,6.9,0,NA,NA,NA,67,0,NA,NA,8,NA,NA,NA,45.6,24,2023_07
-101.1,53.967,THE PAS CLIMATE,5052890,MB,17.3,1,NA,30.2,1,6.6,1,NA,NA,NA,70.4,1,NA,NA,10,NA,NA,NA,44.1,24,2023_07
-94.066,58.739,CHURCHILL A,5060595,MB,11.6,1,NA,25.6,1,2.9,1,NA,NA,NA,144.8,0,NA,NA,10,NA,NA,NA,191.1,0.3,2023_07
-94.066,58.739,CHURCHILL A,5060605,MB,11.5,0,NA,25.6,0,2.9,0,NA,NA,NA,NA,NA,NA,NA,NA,NA,NA,NA,201.5,0.3,2023_07
-94.067,58.733,CHURCHILL CLIMATE,5060608,MB,11.7,0,NA,26,0,3,0,NA,NA,NA,140,0,NA,NA,10,NA,NA,NA,197.2,0.5,2023_07
-98.03,54.54,CROSS LAKE JENPEG 2,5060622,MB,17.2,0,NA,31.9,0,7.9,0,NA,NA,NA,127.4,0,NA,NA,12,NA,NA,NA,58.4,32.8,2023_07
-94.704,56.359,GILLAM,5060999,MB,15.4,0,NA,30.9,0,5.9,0,NA,NA,NA,64.5,0,NA,NA,13,NA,NA,NA,93.9,13.3,2023_07
-94.711,56.358,GILLAM A,5061022,MB,15.6,9,NA,30.9,9,5.8,9,0,3,NA,65,3,NA,NA,15,NA,NA,NA,65.3,12.5,2023_07
-94.654,53.857,ISLAND LAKE A,5061374,MB,16.2,2,NA,30.4,2,6.9,2,NA,NA,NA,64.1,2,NA,NA,15,NA,NA,NA,71.5,18.2,2023_07
-94.654,53.856,ISLAND LAKE AIRPORT,5061378,MB,16.6,7,NA,30.9,7,7.1,7,NA,NA,NA,81.4,7,NA,NA,14,NA,NA,NA,57.8,23.1,2023_07
-96.51,56.038,KELSEY DAM CS,5061422,MB,15,0,NA,32.6,0,3.5,0,NA,NA,NA,79.5,0,NA,NA,15,NA,NA,NA,107.9,14,2023_07
-101.076,56.864,LYNN LAKE,5061645,MB,15.7,3,NA,31.2,3,5,3,NA,NA,NA,0,3,NA,NA,0,NA,NA,NA,75.9,11.3,2023_07
-101.067,56.85,LYNN LAKE RCS,5061649,MB,15.2,11,NA,31.6,11,4.1,11,NA,NA,NA,48.4,11,NA,NA,7,NA,NA,NA,65.2,8.9,2023_07
-97.844,53.958,NORWAY HOUSE,5062040,MB,16.6,0,NA,30.3,0,6.8,0,NA,NA,NA,77,0,NA,NA,13,NA,NA,NA,60.5,18.6,2023_07
-98.512,58.706,TADOULE LAKE,5062835,MB,13.4,29,NA,21.5,29,5.9,29,NA,NA,NA,0.2,29,NA,NA,0,NA,NA,NA,9.3,0,2023_07
-98.502,58.716,TADOULE LAKE CS,5062840,MB,14.4,1,NA,29.4,1,5,1,NA,NA,NA,102.1,1,NA,NA,9,NA,NA,NA,114.2,5.1,2023_07
-97.877,55.799,THOMPSON AIRPORT,5062918,MB,14.7,0,NA,30.8,0,3.7,0,NA,NA,NA,96.2,0,NA,NA,15,NA,NA,NA,110.7,9.8,2023_07
-97.863,55.805,THOMPSON A,5062921,MB,14.9,0,NA,31,0,4.6,0,0,0,NA,99.7,0,NA,NA,16,NA,NA,NA,107.1,11.4,2023_07
-82.432,52.928,ATTAWAPISKAT A,6010400,ON,16.1,0,NA,32.5,0,3.1,0,NA,NA,NA,39,0,NA,NA,7,NA,NA,NA,84.1,26.2,2023_07
-89.897,53.818,BIG TROUT LAKE A,6010735,ON,15,1,NA,31.5,1,4.5,1,NA,NA,NA,120.8,1,NA,NA,19,NA,NA,NA,104.9,13.4,2023_07
-89.892,53.816,BIG TROUT LAKE,6010740,ON,15.1,0,NA,31.9,0,4.5,0,NA,NA,NA,110.6,0,NA,NA,18,NA,NA,NA,105,14.2,2023_07
-93.221,50.631,EAR FALLS (AUT),6012199,ON,16.9,0,NA,29.7,0,5.8,0,NA,NA,NA,117.7,0,NA,NA,10,NA,NA,NA,56.2,20.8,2023_07
-87.676,56.019,FORT SEVERN A,6012501,ON,12.7,2,NA,31.8,2,3.6,2,NA,NA,NA,161.4,2,NA,NA,13,NA,NA,NA,157.9,5.6,2023_07
-87.934,52.196,LANSDOWNE HOUSE A,6014351,ON,15.7,0,NA,31.9,0,4.1,0,NA,NA,NA,64.6,0,NA,NA,9,NA,NA,NA,87,16.2,2023_07
-87.936,52.196,LANSDOWNE HOUSE (AUT),6014353,ON,15.7,2,NA,32,2,3.3,2,NA,NA,NA,48.4,2,NA,NA,8,NA,NA,NA,81.5,14.9,2023_07
-91.763,53.441,MUSKRAT DAM,6015026,ON,15.3,0,NA,31,0,5.8,0,NA,NA,NA,102.3,0,NA,NA,16,NA,NA,NA,99.5,17,2023_07
-85.433,54.983,PEAWANUCK (AUT),6016295,ON,13.8,0,NA,33.4,0,2,0,NA,NA,NA,88.4,0,NA,NA,10,NA,NA,NA,141.1,12,2023_07
-85.443,54.988,PEAWANUCK A,6016298,ON,13.9,0,NA,33.5,0,2.9,0,NA,NA,NA,97.9,0,NA,NA,10,NA,NA,NA,138.4,12.6,2023_07
-90.218,51.449,PICKLE LAKE (AUT),6016525,ON,16.9,0,NA,31.6,0,7.5,0,NA,NA,NA,62.5,0,NA,NA,15,NA,NA,NA,58.7,24,2023_07
-90.214,51.446,PICKLE LAKE A,6016528,ON,17.1,0,NA,31.6,0,7.4,0,NA,NA,NA,54.4,0,NA,NA,12,NA,NA,NA,55,25.9,2023_07
-93.793,51.067,RED LAKE A,6016971,ON,16.7,2,NA,28.9,2,5.5,2,NA,NA,NA,NA,NA,NA,NA,NA,NA,NA,NA,57.1,20.2,2023_07
-93.344,53.064,SANDY LAKE A,6017401,ON,15.7,3,NA,30.9,3,6.4,3,NA,NA,NA,45.5,3,NA,NA,11,NA,NA,NA,79.6,14.4,2023_07
-91.316,52.944,WEAGAMOW LAKE,6019400,ON,15,2,NA,31.6,2,3.3,2,NA,NA,NA,96.2,2,NA,NA,13,NA,NA,NA,101.3,13.9,2023_07
-93.967,48.633,BARWICK,6020559,ON,17.7,2,-1.3,32.5,2,4.5,2,0,2,NA,35.6,2,NA,0,7,NA,NA,NA,36.9,28.4,2023_07
-91.628,48.761,ATIKOKAN (AUT),6020LPQ,ON,17,0,NA,31.5,0,4.5,0,NA,NA,NA,60.7,0,NA,NA,11,NA,NA,NA,49.5,17.7,2023_07
-93.439,48.651,FORT FRANCES RCS,6022474,ON,16.7,0,NA,31.5,0,1.7,0,NA,NA,NA,100.1,0,NA,NA,8,NA,NA,NA,60.6,19.4,2023_07
-92.744,49.828,DRYDEN REGIONAL,6032125,ON,17.7,0,NA,28.8,0,7.7,0,NA,NA,NA,103.9,0,NA,NA,12,NA,NA,NA,40.3,31.2,2023_07
-94.378,49.791,KENORA RCS,6034073,ON,18.3,0,NA,30,0,8.7,0,NA,NA,NA,59,0,NA,NA,8,NA,NA,NA,30,38.7,2023_07
-94.363,49.788,KENORA A,6034076,ON,18.4,0,NA,29.9,0,8.8,0,0,0,NA,62,0,NA,NA,9,NA,NA,NA,28.5,39.9,2023_07
-93.717,49.65,RAWSON LAKE,6036904,ON,15.8,0,-3.6,26.2,0,7.5,0,0,0,NA,74.4,0,76,0,7,NA,NA,NA,79.5,11.1,2023_07
-93.733,49.664,RAWSON LAKE (AUT),6036907,ON,17.9,1,NA,30.1,1,7.8,1,NA,NA,NA,86.9,1,NA,NA,8,NA,NA,NA,33.3,29.2,2023_07
-91.908,50.114,SIOUX LOOKOUT A,6037776,ON,16.3,2,NA,28.1,2,3.6,2,0,0,NA,0,0,NA,NA,0,NA,NA,NA,63.5,15.5,2023_07
-91.906,50.114,SIOUX LOOKOUT AIRPORT,6037800,ON,17.1,0,NA,29.7,0,5.5,0,NA,NA,NA,53.2,0,NA,NA,8,NA,NA,NA,52.6,23.6,2023_07
-88.905,50.294,ARMSTRONG (AUT),6040325,ON,15.5,0,NA,30.2,0,2.6,0,NA,NA,NA,71.6,0,NA,NA,10,NA,NA,NA,86.5,9.9,2023_07
-88.91,50.29,ARMSTRONG A,6040327,ON,15.9,0,NA,30.1,0,3.3,0,NA,NA,NA,68,0,NA,NA,14,NA,NA,NA,77.4,12.7,2023_07
-88.345,49.154,CAMERON FALLS (AUT),6041110,ON,17,0,NA,30.9,0,6.1,0,NA,NA,NA,57,0,NA,NA,10,NA,NA,NA,48,17.1,2023_07
-85.833,47.333,CARIBOU ISLAND (AUT),6041222,ON,14,2,NA,24,2,6.2,2,NA,NA,NA,22.6,5,NA,NA,7,NA,NA,NA,117.5,0.8,2023_07
-86.989,49.779,GERALDTON A,6042718,ON,15.7,4,NA,28.4,4,3.7,4,NA,NA,NA,90.2,1,NA,NA,11,NA,NA,NA,68.6,7.8,2023_07
-86.932,49.781,GERALDTON AIRPORT,6042719,ON,16.2,0,NA,30.2,0,3.6,0,NA,NA,NA,84.2,0,NA,NA,10,NA,NA,NA,71,16,2023_07
-89.267,48.467,HAZELWOOD,6043390,ON,NA,NA,NA,NA,NA,NA,NA,0,3,NA,48.6,3,NA,0,7,NA,NA,NA,NA,NA,2023_07
-86.346,48.757,MARATHON A,6044967,ON,13.9,0,NA,25.1,0,3.2,0,NA,NA,NA,NA,NA,NA,NA,NA,NA,NA,NA,127.4,0,2023_07
-86.287,48.608,PUKASKWA (AUT),6046768,ON,14.5,0,NA,25.2,0,4.7,0,NA,NA,NA,23.9,0,NA,NA,8,NA,NA,NA,107.4,0.1,2023_07
-87.092,48.816,TERRACE BAY AIRPORT,6048232,ON,14,2,NA,25.6,2,3.2,2,NA,NA,NA,31.9,2,NA,NA,9,NA,NA,NA,116.5,0.8,2023_07
-89.322,48.372,THUNDER BAY,6048260,ON,17.4,0,NA,31.5,0,5.9,0,NA,NA,NA,39.1,0,NA,NA,10,NA,NA,NA,37.2,20.1,2023_07
-89.322,48.372,THUNDER BAY A,6048262,ON,17.1,8,NA,31.5,8,5.9,8,NA,NA,NA,NA,NA,NA,NA,NA,NA,NA,NA,33.8,12.2,2023_07
-89.327,48.369,THUNDER BAY CS,6048268,ON,17.4,0,NA,31.4,0,6,0,NA,NA,NA,35,0,NA,NA,10,NA,NA,NA,37.7,19.1,2023_07
-90.467,49.033,UPSALA (AUT),6049095,ON,15.9,0,NA,29.2,0,2.1,0,NA,NA,NA,59.6,1,NA,NA,10,NA,NA,NA,77.2,11.8,2023_07
-89.119,48.369,WELCOME ISLAND (AUT),6049443,ON,17.2,0,NA,27.2,0,9.8,0,NA,NA,NA,27.8,0,NA,NA,7,NA,NA,NA,40.1,14.4,2023_07
-88.306,49.69,LITTLE FLATLAND ISLAND (AUT),6049470,ON,17.8,0,NA,27.1,0,10.6,0,NA,NA,NA,53.2,0,NA,NA,9,NA,NA,NA,25.7,18.4,2023_07
-84.814,47.723,LAKE SUPERIOR PROVINCIAL PARK,6054425,ON,15.7,0,NA,28,0,4.1,0,NA,NA,NA,23,0,NA,NA,5,NA,NA,NA,75.1,4.7,2023_07
-84.51,46.485,SAULT STE MARIE A,6057591,ON,17.1,0,NA,30.9,0,7.4,0,0,0,NA,84.5,0,NA,NA,10,NA,NA,NA,41.2,14,2023_07
-84.517,46.478,SAULT STE. MARIE AIRPORT,6057593,ON,17.6,0,NA,30.6,0,9.7,0,NA,NA,NA,78.2,0,NA,NA,10,NA,NA,NA,30.4,18.4,2023_07
-84.786,47.967,WAWA A,6059413,ON,15.4,2,NA,26.9,2,5.4,2,NA,NA,NA,NA,NA,NA,NA,NA,NA,NA,NA,79.2,2.4,2023_07
-83.347,47.82,CHAPLEAU A,6061365,ON,16.9,0,NA,31,0,5.2,0,NA,NA,NA,NA,NA,NA,NA,NA,NA,NA,NA,49.5,14.8,2023_07
-83.356,47.819,CHAPLEAU AIRPORT,6061366,ON,16.7,3,NA,30.9,3,6,3,NA,NA,NA,38.7,3,NA,NA,6,NA,NA,NA,45.7,8.9,2023_07
-82.025,46.193,MASSEY,6065006,ON,19.6,0,0.8,31,0,9,0,0,0,NA,101,0,134,0,6,NA,NA,NA,6.7,54.8,2023_07
-80.303,46.215,MONETVILLE 2,6065252,ON,20,3,NA,32.5,3,8,3,0,3,NA,78,3,NA,0,10,NA,NA,NA,2.9,59.6,2023_07
-80.796,46.632,SUDBURY CLIMATE,6068145,ON,18.9,2,NA,31.3,2,8.9,2,NA,NA,NA,109.7,2,NA,NA,7,NA,NA,NA,17,43,2023_07
-80.798,46.626,SUDBURY A,6068153,ON,19.4,0,NA,31.3,0,8.9,0,0,1,NA,110.6,1,NA,NA,8,NA,NA,NA,14.7,57.6,2023_07
-82.124,49.383,BONNER LAKE,6070QK6,ON,18.1,4,NA,33.5,3,5,3,0,3,NA,48,3,NA,0,10,NA,NA,NA,26.3,29.2,2023_07
-79.849,47.695,EARLTON A,6072223,ON,18,7,NA,33.1,7,7.3,7,NA,NA,NA,28.9,7,NA,NA,7,NA,NA,NA,22.4,23.3,2023_07
-79.849,47.695,EARLTON CLIMATE,6072230,ON,18.8,0,NA,33.6,0,7.7,0,NA,NA,NA,62.6,0,NA,NA,11,NA,NA,NA,17,41.2,2023_07
-82.468,49.412,KAPUSKASING A,6073976,ON,17.3,0,NA,32,0,4.6,0,0,0,NA,52.2,0,NA,NA,10,NA,NA,NA,44.4,21.5,2023_07
-82.468,49.412,KAPUSKASING A,6073978,ON,17.3,0,NA,32,0,4.6,0,NA,NA,NA,NA,NA,NA,NA,NA,NA,NA,NA,44.4,21.5,2023_07
-82.444,49.406,KAPUSKASING CDA ON,6073980,ON,17.1,2,NA,32,2,3.3,2,NA,NA,NA,51,2,NA,NA,8,NA,NA,NA,43.6,18.9,2023_07
-80.061,48.088,KIRKLAND LAKE,6074207,ON,16.6,0,NA,32.6,0,3.2,0,NA,NA,NA,78.7,0,NA,NA,10,NA,NA,NA,56.2,14.2,2023_07
-80.608,51.291,MOOSONEE,6075420,ON,15.8,0,NA,33.6,0,1.5,0,NA,NA,NA,64.2,0,NA,NA,10,NA,NA,NA,91.9,24,2023_07
-80.664,51.257,MOOSONEE RCS,6075429,ON,15.6,0,NA,34.6,0,0.2,0,NA,NA,NA,77.8,0,NA,NA,9,NA,NA,NA,96.4,23.3,2023_07
-84.164,49.747,NAGAGAMI (AUT),6075543,ON,16,0,NA,31.5,0,3.9,0,NA,NA,NA,55,0,NA,NA,7,NA,NA,NA,74.4,11.3,2023_07
-85.901,51.659,OGOKI POST A,6075786,ON,17.4,7,NA,32.8,7,6.5,7,NA,NA,NA,0,7,NA,NA,0,NA,NA,NA,34.9,21.4,2023_07
-85.9,51.658,OGOKI POST,6075788,ON,17.3,0,NA,33,0,6.4,0,NA,NA,NA,29.3,0,NA,NA,10,NA,NA,NA,51.2,28.8,2023_07
-81.39,48.557,TIMMINS CLIMATE,6078282,ON,13.6,28,NA,23,28,3.7,28,NA,NA,NA,11.8,28,NA,NA,1,NA,NA,NA,13.3,0,2023_07
-81.377,48.571,TIMMINS A,6078286,ON,17.1,1,NA,31.4,1,3.3,1,0,1,NA,27.9,1,NA,NA,5,NA,NA,NA,48.6,22.9,2023_07
-78.267,45.533,ALGONQUIN PARK EAST GATE,6080192,ON,18.2,0,NA,30.7,0,5.7,0,NA,NA,NA,182.1,0,NA,NA,11,NA,NA,NA,30.8,36.5,2023_07
-79.424,46.364,NORTH BAY A,6085680,ON,18.9,0,NA,30.6,0,7.7,0,NA,NA,NA,81.9,0,NA,NA,8,NA,NA,NA,14.9,43.9,2023_07
-79.403,46.375,NORTH BAY AIRPORT,6085695,ON,18.9,1,NA,30.1,1,8.7,1,NA,NA,NA,80,1,NA,NA,8,NA,NA,NA,14.9,41.3,2023_07
-82.567,45.882,GORE BAY-MANITOULIN,6092919,ON,19.6,0,NA,30.5,0,10,0,NA,NA,NA,119.5,0,NA,NA,4,NA,NA,NA,5.3,56,2023_07
-82.567,45.883,GORE BAY CLIMATE,6092920,ON,19.5,2,NA,30.1,2,9.5,2,NA,NA,NA,139.8,2,NA,NA,3,NA,NA,NA,6.7,50.6,2023_07
-76.113,45.186,APPLETON,6100285,ON,21.6,0,NA,33,0,8.5,0,0,0,NA,150.8,0,NA,0,13,NA,NA,NA,2.4,114.6,2023_07
-75.748,44.635,BROCKVILLE CLIMATE,6100970,ON,21.5,0,NA,32.3,0,9.7,0,NA,NA,NA,102.8,0,NA,NA,11,NA,NA,NA,4.3,113,2023_07
-77.367,46.05,CHALK RIVER AECL,6101335,ON,21.9,20,1.6,33.5,20,12,20,0,20,NA,86,20,NA,NA,5,NA,NA,NA,0,42.9,2023_07
-74.749,45.016,CORNWALL,6101874,ON,22.9,1,1.1,34,1,11,1,0,1,NA,147.1,1,NA,0,14,NA,NA,NA,0,147.2,2023_07
-76.253,45.032,DRUMMOND CENTRE,6102J13,ON,21.2,1,0.9,33.5,1,8.5,1,0,1,NA,167.6,1,NA,0,16,NA,NA,NA,3.2,98.3,2023_07
-75.85,44.417,GRENADIER ISLAND,6103024,ON,22.7,1,NA,33.8,1,12.3,1,NA,NA,NA,107.8,1,NA,NA,10,NA,NA,NA,0.5,140.6,2023_07
-76.69,44.428,HARTINGTON IHD,6103367,ON,21.5,0,0.7,31.5,0,10.5,0,0,0,NA,126.6,0,186,0,12,NA,NA,NA,2.4,110.2,2023_07
-75.633,45,KEMPTVILLE CS,6104027,ON,21.9,0,NA,33.9,0,9.1,0,NA,NA,NA,125.6,0,NA,NA,10,NA,NA,NA,5.9,126.9,2023_07
-76.599,44.223,KINGSTON CLIMATE,6104142,ON,21.1,0,NA,30.1,0,10.8,0,NA,NA,NA,102.7,0,NA,NA,6,NA,NA,NA,2.6,99.2,2023_07
-76.597,44.226,KINGSTON A,6104152,ON,21.2,0,NA,29.6,0,11,0,NA,NA,NA,NA,NA,NA,NA,NA,NA,NA,NA,1.6,100.4,2023_07
-74.963,45.251,MOOSE CREEK WELLS,6105397,ON,21.1,0,NA,32.8,0,7.3,0,NA,NA,NA,115.7,0,NA,NA,14,NA,NA,NA,8.5,105.1,2023_07
-76.784,45.054,OMPAH-SEITZ,6105762,ON,20.8,4,NA,31.5,4,9.5,4,0,4,NA,105.8,4,NA,0,14,NA,NA,NA,4.1,79,2023_07
-75.717,45.383,OTTAWA CDA,6105976,ON,22.5,0,1.3,33,0,12,0,0,0,NA,184.2,0,218,0,14,NA,NA,NA,0.7,138.9,2023_07
-75.717,45.383,OTTAWA CDA RCS,6105978,ON,21.8,0,NA,32.6,0,10.2,0,NA,NA,NA,163,0,NA,NA,14,NA,NA,NA,5.4,122.2,2023_07
-75.667,45.317,OTTAWA INTL A,6106001,ON,21.7,0,NA,33.7,0,8.5,0,0,0,NA,142.4,0,NA,NA,14,NA,NA,NA,5.9,120.7,2023_07
-77.252,45.86,PEMBROKE CLIMATE,6106367,ON,20.4,0,NA,32.8,0,7.7,0,NA,NA,NA,108.6,0,NA,NA,9,NA,NA,NA,9.3,84.3,2023_07
-75.064,45.287,ST. ALBERT,6107276,ON,22.1,0,1.7,33.5,0,8,0,0,0,NA,234.8,0,236,0,18,NA,NA,NA,2.2,128,2023_07
-77.25,45.883,PETAWAWA HOFFMAN,610FC98,ON,21.6,1,NA,34.5,1,10,1,0,1,NA,130.2,1,NA,0,14,NA,NA,NA,0.9,109.5,2023_07
-79.319,44.267,BALDWIN,6110480,ON,20.5,1,NA,32,1,9,1,0,1,NA,98,1,NA,0,11,NA,NA,NA,1.4,77.6,2023_07
-79.736,44.385,BARRIE LANDFILL,6110556,ON,22.5,16,NA,32,11,12,12,0,11,NA,151.8,11,NA,0,11,NA,NA,NA,0.5,68,2023_07
-79.403,45.14,BEATRICE CLIMATE,6110607,ON,18.3,0,NA,29.8,0,6.4,0,NA,NA,NA,140.2,0,NA,NA,10,NA,NA,NA,27,36.1,2023_07
-79.539,44.631,COLDWATER WARMINSTER,6111769,ON,21.1,0,NA,31,0,11,0,0,0,NA,184.4,0,NA,0,13,NA,NA,NA,1.4,98.4,2023_07
