Long,Lat,Stn_Name,Clim_ID,Prov_or_Ter,Tm,DwTm,D,Tx,DwTx,Tn,DwTn,S,DwS,S%N,P,DwP,P%N,S_G,Pd,BS,DwBS,BS%,HDD,CDD,YYYY_MM
-123.742,48.935,CHEMAINUS,1011500,BC,16.5,0,NA,31.5,0,7.5,0,0,0,NA,21.3,0,NA,0,2,NA,NA,NA,66.4,19.7,2023_05
-124.052,48.829,LAKE COWICHAN,1012055,BC,18.1,18,6.1,35,12,5,12,0,12,NA,6.5,12,NA,NA,2,NA,NA,NA,19.2,20.7,2023_05
-123.226,48.425,DISCOVERY ISLAND,1012475,BC,13.1,1,NA,25.9,1,8.4,1,NA,NA,NA,NA,NA,NA,NA,NA,NA,NA,NA,150.5,2.5,2023_05
-123.439,48.432,ESQUIMALT HARBOUR,1012710,BC,14,4,NA,28.4,4,7.9,4,NA,NA,NA,12.6,4,NA,NA,2,NA,NA,NA,111,3.7,2023_05
-123.53,48.575,MALAHAT,1014820,BC,15.2,1,NA,28.9,1,5.6,1,NA,NA,NA,14,1,NA,NA,2,NA,NA,NA,101.6,17,2023_05
-123.561,48.374,METCHOSIN,1015105,BC,NA,NA,NA,NA,NA,NA,NA,0,19,NA,14.4,19,NA,0,2,NA,NA,NA,NA,NA,2023_05
-123.718,48.824,NORTH COWICHAN,1015628,BC,NA,NA,NA,NA,NA,NA,NA,0,0,NA,12.8,0,25,0,4,NA,NA,NA,NA,NA,2023_05
-123.719,48.824,NORTH COWICHAN,1015630,BC,15.9,0,NA,32.7,0,4.6,0,NA,NA,NA,10.5,0,NA,NA,2,NA,NA,NA,82.9,17.8,2023_05
-123.287,48.764,NORTH PENDER ISLAND,1015638,BC,16.7,2,NA,32.5,2,7.5,2,0,2,NA,6.6,2,NA,0,1,NA,NA,NA,60.7,21.9,2023_05
-123.531,48.298,RACE ROCKS,1016640,BC,12.5,0,NA,26.3,0,7.8,0,NA,NA,NA,NA,NA,NA,NA,NA,NA,NA,NA,175.2,3.7,2023_05
-123.419,48.622,SAANICHTON CFIA,1016943,BC,14.5,0,NA,28.4,0,7.5,0,NA,NA,NA,9.9,0,NA,NA,1,NA,NA,NA,117.3,7.9,2023_05
-123.427,48.598,SAANICHTON MT NEWTON,1016RM0,BC,NA,NA,NA,NA,NA,NA,NA,0,0,NA,10.8,0,27,0,3,NA,NA,NA,NA,NA,2023_05
-123.128,48.775,SATURNA CAPMON CS,1017099,BC,14.4,3,NA,28.1,3,7.2,3,NA,NA,NA,19.7,3,NA,NA,3,NA,NA,NA,111,9.4,2023_05
-123.045,48.784,SATURNA ISLAND CS,1017101,BC,14.5,3,NA,23.5,3,8.1,3,NA,NA,NA,21.8,3,NA,NA,2,NA,NA,NA,102.7,3.3,2023_05
-123.626,48.647,SHAWNIGAN LAKE,1017230,BC,15.7,0,3.6,31.5,0,6,0,0,0,NA,14.6,0,29,0,3,NA,NA,NA,86.4,15.8,2023_05
-123.921,48.377,SHERINGHAM POINT,1017254,BC,11.8,0,NA,24.4,0,7.5,0,NA,NA,NA,8.8,0,NA,NA,1,NA,NA,NA,192.5,1.2,2023_05
-123.305,48.457,VICTORIA UNIVERSITY CS,1018598,BC,14.7,0,NA,29.4,0,5.1,0,NA,NA,NA,14.7,0,NA,NA,2,NA,NA,NA,109.5,7.2,2023_05
-123.325,48.413,VICTORIA GONZALES CS,1018611,BC,14.3,1,NA,30.7,1,7.3,1,NA,NA,NA,14.2,1,NA,NA,2,NA,NA,NA,124.3,12.6,2023_05
-123.426,48.647,VICTORIA INTL A,1018621,BC,14.9,1,NA,29.5,1,6.7,1,0,0,NA,11.6,0,NA,NA,2,NA,NA,NA,101.5,8.1,2023_05
-123.388,48.423,VICTORIA HARBOUR A,1018633,BC,14,2,NA,30.7,2,7.7,2,NA,NA,NA,NA,NA,NA,NA,NA,NA,NA,NA,121.7,5.6,2023_05
-124.16,49.35,BALLENAS ISLAND,1020590,BC,15.9,0,NA,25.9,0,7.5,0,NA,NA,NA,19.2,0,NA,NA,1,NA,NA,NA,76.8,10.9,2023_05
-125.273,49.952,CAMPBELL RIVER A,1021261,BC,15.2,0,3.6,33,0,3.5,0,0,0,NA,33.1,0,48,0,3,NA,NA,NA,96.9,8.9,2023_05
-125.273,49.952,CAMPBELL RIVER A,1021270,BC,15.1,0,NA,33.3,0,3.5,0,NA,NA,NA,NA,NA,NA,NA,NA,NA,NA,NA,99,8.6,2023_05
-125.195,49.998,CAPE MUDGE,1021330,BC,15.6,1,3.5,31.5,1,7,1,0,1,NA,34.8,1,NA,0,3,NA,NA,NA,82.1,10.6,2023_05
-125.446,50.333,CHATHAM POINT,1021480,BC,14.3,0,2.6,29.5,0,7,0,0,0,NA,31.4,0,24,0,4,NA,NA,NA,120.5,6.3,2023_05
-124.9,49.717,COMOX A,1021830,BC,16.1,0,3.8,31.9,0,7.6,0,0,0,NA,26.2,0,57,NA,2,NA,NA,NA,75.9,17.3,2023_05
-125.033,49.686,COURTENAY PUNTLEDGE,1021989,BC,15.8,6,NA,34,4,5,4,0,4,NA,29.1,4,NA,0,2,NA,NA,NA,67.4,12.7,2023_05
-123.811,49.209,ENTRANCE ISLAND,1022689,BC,15.4,0,NA,26.5,0,8.1,0,NA,NA,NA,10.4,0,NA,NA,1,NA,NA,NA,89.5,8.2,2023_05
-125.993,50.454,FANNY ISLAND,1022795,BC,12.1,0,NA,27.3,0,6.9,0,NA,NA,NA,10.8,0,NA,NA,1,NA,NA,NA,182.4,0.6,2023_05
-124.512,49.353,LITTLE QUALICUM HATCHERY,1024638,BC,14.8,0,3.3,31.5,0,2,0,0,0,NA,18.2,0,37,0,2,NA,NA,NA,103.5,4.1,2023_05
-123.87,49.054,NANAIMO A,1025365,BC,15.7,0,NA,32,0,4.7,0,NA,NA,NA,NA,NA,NA,NA,NA,NA,NA,NA,87.1,15.4,2023_05
-123.988,49.199,NANAIMO CITY YARD,10253G0,BC,NA,NA,NA,NA,NA,NA,NA,0,0,NA,26.4,0,50,0,2,NA,NA,NA,NA,NA,2023_05
-127.367,50.681,PORT HARDY A,1026271,BC,11.3,1,NA,27.2,1,2,1,0,0,NA,8.9,0,NA,NA,3,NA,NA,NA,202.1,0,2023_05
-127.377,50.684,PORT HARDY AIRPORT,1026273,BC,11.4,0,NA,27.4,0,3.1,0,NA,NA,NA,7.4,0,NA,NA,2,NA,NA,NA,206.1,0,2023_05
-124.394,49.337,QUALICUM BEACH AIRPORT,1026562,BC,15.5,1,NA,32.3,1,3.7,1,NA,NA,NA,21.7,1,NA,NA,1,NA,NA,NA,85.7,12.1,2023_05
-124.617,49.394,QUALICUM R FISH RESEARCH,1026565,BC,16,3,4,30,3,6.5,3,0,3,NA,17.2,3,NA,NA,3,NA,NA,NA,66.6,9.8,2023_05
-125.304,50.016,QUINSAM RIVER HATCHERY,1026639,BC,15.5,1,3.5,33,0,4.5,1,0,0,NA,35.4,0,49,0,3,NA,NA,NA,85.8,10.1,2023_05
-124.435,49.487,SISTERS ISLAND,1027403,BC,17,0,NA,28.8,0,9.3,0,NA,NA,NA,NA,NA,NA,NA,NA,NA,NA,NA,54.8,25.1,2023_05
-123.809,49.209,ENTRANCE ISLAND,102BFHH,BC,15.8,8,NA,25,8,9,8,0,8,NA,12.2,8,NA,0,1,NA,NA,NA,53.8,3.8,2023_05
-124.982,49.337,ALBERNI ROBERTSON CREEK,1030230,BC,16.4,2,4.1,36,2,4,2,0,2,NA,20.2,2,NA,0,4,NA,NA,NA,69.9,23.4,2023_05
-125.216,48.786,CAPE BEALE LIGHT,1031316,BC,12.7,0,1.9,28,0,7,0,0,0,NA,4,0,3,0,1,NA,NA,NA,166.4,2.3,2023_05
-128.427,50.782,CAPE SCOTT,1031353,BC,10.7,0,1.2,19,0,5,0,0,0,0.0,13.4,0,11,0,5,NA,NA,NA,225.7,0,2023_05
-126.543,49.383,ESTEVAN POINT,1032730,BC,12.6,2,1.9,26.5,2,5,2,0,2,NA,6.8,2,NA,0,1,NA,NA,NA,157.5,1.8,2023_05
-126.543,49.383,ESTEVAN POINT CS,1032731,BC,11.7,2,NA,23.7,2,5,2,NA,NA,NA,17,4,NA,NA,3,NA,NA,NA,181.8,0,2023_05
-125.923,49.111,LENNARD ISLAND,1034600,BC,12.1,0,NA,25,0,6,0,0,0,NA,9.6,0,6,0,2,NA,NA,NA,186,1.8,2023_05
-124.655,48.859,NITINAT RIVER HATCHERY,1035612,BC,14.5,0,2.9,34.5,0,3,0,0,0,NA,14.8,0,9,0,3,NA,NA,NA,117.5,9.4,2023_05
-126.617,49.6,NOOTKA LIGHTSTATION,1035614,BC,13.3,0,1.9,31,0,6,0,0,0,NA,7.2,0,4,0,2,NA,NA,NA,149.7,5.5,2023_05
-125.097,48.723,PACHENA POINT,1035940,BC,12.4,0,1.8,26,0,3.5,0,0,0,NA,3.8,0,2,0,2,NA,NA,NA,174.7,1.3,2023_05
-127.653,50.534,QUATSINO,1036570,BC,12.7,0,1.7,29,0,4,0,0,0,NA,8.8,0,9,0,2,NA,NA,NA,168,2.3,2023_05
-128.033,50.441,QUATSINO LIGHTSTATION,1036572,BC,12.6,0,1.9,29.5,0,5,0,0,0,0.0,11.6,0,9,0,1,NA,NA,NA,172,5.8,2023_05
-124.927,49.317,PORT ALBERNI (AUT),1036B06,BC,15.7,0,NA,34.3,0,2.6,0,NA,NA,NA,17,0,NA,NA,2,NA,NA,NA,84.8,14.4,2023_05
-128.908,50.821,SARTINE ISLAND (AUT),1037090,BC,10.2,3,NA,18.8,3,6.3,3,NA,NA,NA,9.8,3,NA,NA,2,NA,NA,NA,218.6,0,2023_05
-127.94,50.112,SOLANDER ISLAND (AUT),1037553,BC,10.9,3,NA,25.5,3,6.1,3,NA,NA,NA,7.6,3,NA,NA,1,NA,NA,NA,200.7,1.1,2023_05
-126.654,49.932,TAHSIS VILLAGE NORTH,1037899,BC,15.2,17,NA,24,17,8,17,0,28,NA,0,28,NA,NA,0,NA,NA,NA,40,0.5,2023_05
-125.773,49.082,TOFINO A,1038205,BC,12.7,0,2.2,28.5,0,4,0,0,0,NA,4.2,0,3,0,1,NA,NA,NA,167.8,2.8,2023_05
-125.773,49.082,TOFINO A,1038210,BC,12.6,0,NA,28.3,0,4.1,0,NA,NA,NA,NA,NA,NA,NA,NA,NA,NA,NA,169.1,2.7,2023_05
-125.527,48.945,UCLUELET KENNEDY CAMP,1038332,BC,13.1,0,2.2,28.5,0,3.5,0,0,0,NA,9.8,0,6,0,2,NA,NA,NA,155.7,3.8,2023_05
-126.779,50.053,ZEBALLOS MURAUDE CREEK,1039035,BC,14.1,7,NA,36,7,4,7,0,7,NA,7.5,7,NA,NA,3,NA,NA,NA,98.7,5,2023_05
-123.402,49.36,BOWEN ISLAND SUNSET PARK,104091B,BC,NA,NA,NA,NA,NA,NA,NA,0,0,NA,23.4,0,NA,0,2,NA,NA,NA,NA,NA,2023_05
-123.541,49.386,GIBSONS GOWER POINT,1043152,BC,15.7,0,3,28.5,0,8,0,0,0,NA,17.8,0,22,0,2,NA,NA,NA,83.9,11.3,2023_05
-123.913,49.468,MERRY ISLAND LIGHTSTATION,1045100,BC,16.3,0,3.3,29.5,0,8,0,0,0,0.0,17,0,27,0,2,NA,NA,NA,66,13.2,2023_05
-123.299,49.488,HOWE SOUND - PAM ROCKS,10459NN,BC,16.1,0,NA,27.4,0,8.5,0,NA,NA,NA,14,0,NA,NA,2,NA,NA,NA,69.8,12.3,2023_05
-124.032,49.634,PENDER HARBOUR,1046115,BC,NA,NA,NA,NA,NA,NA,NA,0,0,NA,13.2,0,NA,0,2,NA,NA,NA,NA,NA,2023_05
-123.496,49.526,PORT MELLON,1046332,BC,16.5,0,NA,32.2,0,6.8,0,NA,NA,NA,27,0,NA,NA,4,NA,NA,NA,73.9,27.5,2023_05
-124.5,49.834,POWELL RIVER A,1046391,BC,14.9,0,3.1,30.5,0,3.5,0,0,0,NA,28.2,0,37,0,3,NA,NA,NA,103.7,9.1,2023_05
-124.497,49.835,POWELL RIVER,1046392,BC,15.1,0,NA,30.9,0,4,0,NA,NA,NA,30.1,0,NA,NA,5,NA,NA,NA,100,11.4,2023_05
-124.5,49.834,POWELL RIVER A,1046396,BC,15,0,NA,30.6,0,3.3,0,NA,NA,NA,NA,NA,NA,NA,NA,NA,NA,NA,103.5,9.2,2023_05
-123.715,49.458,SECHELT AUT,1047172,BC,15.6,0,NA,31.1,0,5.5,0,NA,NA,NA,23,0,NA,NA,3,NA,NA,NA,91,17,2023_05
-123.161,49.783,SQUAMISH AIRPORT,10476F0,BC,16.7,0,NA,35.8,0,5.6,0,NA,NA,NA,11.6,0,NA,NA,2,NA,NA,NA,66.3,24.5,2023_05
-122.955,50.129,WHISTLER,1048898,BC,13.9,17,3.8,28.5,17,4.5,17,0,17,NA,2.9,17,NA,NA,1,NA,NA,NA,57.1,0.3,2023_05
-132.772,53.316,KINDAKUN ROCKS (AUT),1054222,BC,9.4,4,NA,21,4,4.8,4,NA,NA,NA,NA,NA,NA,NA,NA,NA,NA,NA,232.8,0,2023_05
-133.058,54.255,LANGARA,1054500,BC,9.7,2,1.1,21.5,2,4,2,0,2,NA,43.6,2,NA,0,9,NA,NA,NA,242,0,2023_05
-133.058,54.255,LANGARA ISLAND RCS,1054503,BC,9.6,0,NA,21.6,0,4.2,0,NA,NA,NA,NA,NA,NA,NA,NA,NA,NA,NA,261.1,0,2023_05
-132.125,54.027,MASSET A,1054929,BC,9.7,0,NA,21.6,0,0.3,0,NA,NA,NA,NA,NA,NA,NA,NA,NA,NA,NA,256.1,0,2023_05
-131.661,54.159,ROSE SPIT (AUT),1056869,BC,10,12,NA,19.7,12,3.4,12,NA,NA,NA,NA,NA,NA,NA,NA,NA,NA,NA,151.8,0,2023_05
-131.813,53.249,SANDSPIT AIRPORT AUTO,1057051,BC,10.5,0,NA,20.6,0,3.4,0,NA,NA,NA,18.1,0,NA,NA,7,NA,NA,NA,232.7,0,2023_05
-131.814,53.254,SANDSPIT,1057052,BC,10.6,1,NA,20.1,1,4.5,1,NA,NA,NA,21.6,1,NA,NA,7,NA,NA,NA,221.3,0,2023_05
-127.864,51.604,ADDENBROKE ISLAND,1060080,BC,12.9,0,2.3,26,0,6.5,0,0,0,NA,17.8,0,11,0,2,NA,NA,NA,159.9,2.6,2023_05
-128.157,52.185,BELLA BELLA,1060815,BC,11.7,0,NA,30.7,0,0.9,0,NA,NA,NA,12.3,0,NA,NA,4,NA,NA,NA,197.7,2.7,2023_05
-126.587,52.389,BELLA COOLA AIRPORT,1060844,BC,15.3,0,NA,30.4,0,4,0,NA,NA,NA,13,0,NA,NA,2,NA,NA,NA,86.9,3.7,2023_05
-126.596,52.388,BELLA COOLA A,1060848,BC,15.2,0,NA,29.9,0,4,0,NA,NA,NA,NA,NA,NA,NA,NA,NA,NA,NA,88.8,2.6,2023_05
-128.524,52.643,BOAT BLUFF,1060901,BC,13,1,2.6,26.5,1,1,1,0,1,NA,32,1,NA,0,5,NA,NA,NA,150.8,1.1,2023_05
-130.638,53.493,BONILLA ISLAND,1060902,BC,10.5,0,1,17,0,6,0,0,0,0.0,53,0,43,0,6,NA,NA,NA,232.1,0,2023_05
-130.639,53.493,BONILLA ISLAND (AUT),1060R0K,BC,10.2,5,NA,17.1,5,5.9,5,NA,NA,NA,44.2,5,NA,NA,4,NA,NA,NA,203.4,0,2023_05
-127.471,52.187,CATHEDRAL POINT (AUT),1061458,BC,14,5,NA,26.6,5,6.7,5,NA,NA,NA,12,5,NA,NA,1,NA,NA,NA,106.9,3.6,2023_05
-131.602,53.03,CUMSHEWA ISLAND,1062251,BC,10.7,3,NA,20.8,3,6.9,3,NA,NA,NA,NA,NA,NA,NA,NA,NA,NA,NA,205.7,0,2023_05
-128.112,52.185,DRYAD POINT,1062544,BC,12.9,1,1.9,26,1,5.5,1,0,1,NA,14.4,1,NA,0,6,NA,NA,NA,154.6,1,2023_05
-127.835,51.247,EGG ISLAND,1062646,BC,11.3,0,1.3,20,0,6.5,0,0,0,0.0,5,0,4,0,2,NA,NA,NA,208.3,0,2023_05
-130.708,54.569,GREEN ISLAND,1063298,BC,11.7,2,1.5,22,2,6.5,2,0,2,NA,73,2,NA,0,10,NA,NA,NA,183.3,0,2023_05
-127.632,50.94,HERBERT ISLAND (AUT),1063461,BC,11,0,NA,21.3,0,6,0,NA,NA,NA,5,0,NA,NA,1,NA,NA,NA,217.3,0,2023_05
-130.361,54.172,HOLLAND ROCK,1063496,BC,10,0,NA,18.6,0,4.5,0,NA,NA,NA,31.2,0,NA,NA,8,NA,NA,NA,249.4,0,2023_05
-128.407,52.27,IVORY ISLAND,1063690,BC,11.5,0,1.2,19,0,4.5,0,0,0,0.0,19.4,0,13,0,7,NA,NA,NA,202.1,0,2023_05
-127.943,53.563,KEMANO,1064020,BC,13.4,0,2.2,30,0,-0.5,0,0,0,0.0,18,0,26,0,6,NA,NA,NA,143.3,0,2023_05
-128.634,54.054,KITIMAT FOREST AVE,1064324,BC,13.9,0,NA,29.7,0,1.2,0,NA,NA,NA,25.4,0,NA,NA,6,NA,NA,NA,133.2,5.1,2023_05
-130.609,54.296,LUCY ISLAND LIGHTSTATION,1064728,BC,10.7,0,NA,21.1,0,5.9,0,NA,NA,NA,NA,NA,NA,NA,NA,NA,NA,NA,225.3,0,2023_05
-128.719,52.262,MCINNES ISLAND,1065010,BC,11.4,0,1.1,20,0,6,0,0,0,0.0,7,0,5,0,4,NA,NA,NA,205.5,0,2023_05
-130.445,54.286,PRINCE RUPERT,1066482,BC,11.1,1,NA,24.3,1,3,1,NA,NA,NA,87.3,0,NA,NA,9,NA,NA,NA,208.3,0,2023_05
-130.29,54.32,PRINCE RUPERT MONT CIRC,1066488,BC,NA,NA,NA,NA,NA,NA,NA,0,27,NA,57.4,27,NA,0,4,NA,NA,NA,NA,NA,2023_05
-129.983,55.933,STEWART A,1067748,BC,12.1,0,NA,25.2,0,2.5,0,NA,NA,NA,NA,NA,NA,NA,NA,NA,NA,NA,183.9,0,2023_05
-128.625,54.502,TERRACE PCC,1068131,BC,16,14,4.7,31,14,2,14,0,14,NA,0.8,14,NA,NA,0,NA,NA,NA,40.2,5.5,2023_05
-128.578,54.469,TERRACE A,1068134,BC,13.8,0,NA,29.6,0,-0.3,0,0,2,NA,26.6,2,NA,NA,5,NA,NA,NA,137.1,8,2023_05
-130.88,54.295,TRIPLE ISLAND,1068250,BC,10.4,0,NA,16.5,0,6.5,0,0,0,NA,48.2,0,NA,0,11,NA,NA,NA,235.3,0,2023_05
-128.682,54.044,KITIMAT HATCHERY,106D289,BC,15.6,24,NA,30,24,5,24,0,24,NA,0.2,24,NA,NA,0,NA,NA,NA,18.7,1.8,2023_05
-126.668,54.396,HOUSTON,1073615,BC,13.7,8,NA,34,8,-2,8,0,12,NA,0,12,NA,0,0,NA,NA,NA,103.7,4,2023_05
-127.183,54.825,SMITHERS,1077499,BC,12.9,1,NA,30.2,1,-2.2,1,NA,NA,NA,9.3,1,NA,NA,3,NA,NA,NA,153.6,0.6,2023_05
-127.189,54.824,SMITHERS AIRPORT AUTO,1077501,BC,13.2,0,NA,29.6,0,-0.6,0,NA,NA,NA,8,0,NA,NA,3,NA,NA,NA,150.3,1,2023_05
-127.171,55.289,SUSKWA VALLEY,107G879,BC,12.6,2,3.6,30.5,2,-1.5,2,0,2,NA,31.8,2,NA,0,3,NA,NA,NA,157.5,0.3,2023_05
-122.738,50.302,PEMBERTON AIRPORT (WIND),1086081,BC,16.9,0,NA,34.4,0,5,0,NA,NA,NA,NA,NA,NA,NA,NA,NA,NA,NA,54.5,21.8,2023_05
-122.734,50.306,PEMBERTON AIRPORT CS,1086082,BC,17.4,0,NA,35.9,0,5.2,0,NA,NA,NA,28.5,0,NA,NA,5,NA,NA,NA,48.4,29.2,2023_05
-124.136,52.114,PUNTZI MOUNTAIN (AUT),1086558,BC,12.1,3,NA,31.7,3,-2.3,3,NA,NA,NA,15.8,3,NA,NA,4,NA,NA,NA,167,0.7,2023_05
-121.515,53.069,BARKERVILLE,1090660,BC,10.2,3,4,28,3,-3.5,3,0,3,NA,88.5,3,NA,0,8,NA,NA,NA,218.6,0,2023_05
-125.959,54.383,BURNS LAKE DECKER LAKE,1091174,BC,11.1,0,NA,31.9,0,-5,0,NA,NA,NA,9.1,0,NA,NA,4,NA,NA,NA,214.3,0,2023_05
-124.286,54.455,FORT ST JAMES AUTO,1092975,BC,13.4,0,NA,29.1,0,0.1,0,NA,NA,NA,11.1,0,NA,NA,2,NA,NA,NA,144.6,0.8,2023_05
-124.293,54.459,FORT ST JAMES GOLF CLUB,1092977,BC,14.2,18,NA,25,18,0.6,18,NA,NA,NA,1,18,NA,NA,1,NA,NA,NA,49.7,0,2023_05
-122.286,52.531,MCLEESE LAKE GRANITE MT,1095018,BC,11.3,21,NA,25,16,1,16,0,16,NA,29.1,16,NA,0,5,NA,NA,NA,67.4,0,2023_05
-122.678,53.884,PRINCE GEORGE,1096439,BC,13.7,1,NA,30.6,1,-0.2,1,NA,NA,NA,NA,NA,NA,NA,NA,NA,NA,NA,131.1,0.6,2023_05
-122.672,53.889,PRINCE GEORGE AIRPORT AUTO,1096453,BC,13.5,1,NA,30.7,1,-1.2,1,NA,NA,NA,26.5,1,NA,NA,6,NA,NA,NA,134.7,0.5,2023_05
-122.791,53.9,PRINCE GEORGE MASSEY AUTO,1096454,BC,16,1,NA,32.4,1,2.6,1,NA,NA,NA,23.2,1,NA,NA,5,NA,NA,NA,79.1,18,2023_05
-122.768,53.88,PRINCE GEORGE STP,1096468,BC,NA,NA,NA,NA,NA,NA,NA,0,8,NA,21.2,8,NA,0,4,NA,NA,NA,NA,NA,2023_05
-122.51,53.026,QUESNEL,1096629,BC,14.5,0,NA,31.9,0,0.8,0,NA,NA,NA,27.6,0,NA,NA,5,NA,NA,NA,108.9,1.8,2023_05
-122.506,53.027,QUESNEL AIRPORT AUTO,1096631,BC,14.6,0,NA,32.2,0,0.6,0,NA,NA,NA,25.3,0,NA,NA,5,NA,NA,NA,107.5,2.3,2023_05
-121.686,52.184,SPOKIN LAKE 4E,1097646,BC,11,0,3,27.5,0,-2.5,0,0,0,0.0,40.4,0,80,0,8,NA,NA,NA,217.2,0,2023_05
-122.054,52.183,WILLIAMS LAKE A,1098941,BC,14.4,0,NA,28.8,0,2.5,0,0,0,NA,39.3,0,NA,NA,5,NA,NA,NA,117.1,5.3,2023_05
-122.36,49.025,ABBOTSFORD A,1100031,BC,16.1,0,NA,33.6,0,5.5,0,0,0,NA,27.5,0,NA,NA,6,NA,NA,NA,85.1,25.1,2023_05
-122.36,49.025,ABBOTSFORD A,1100032,BC,16.1,0,NA,33.6,0,5.5,0,NA,NA,NA,NA,NA,NA,NA,NA,NA,NA,NA,85.1,25.1,2023_05
-121.76,49.243,AGASSIZ RCS,1100119,BC,17.1,0,3.2,34.7,0,5.2,0,NA,NA,NA,42.7,0,NA,NA,5,NA,NA,NA,69.9,41.8,2023_05
-121.76,49.243,AGASSIZ CDA,1100120,BC,18.7,13,5.1,35,3,7,12,0,3,NA,46.5,3,NA,0,7,NA,NA,NA,31.7,44,2023_05
-122.955,50.129,WHISTLER - NESTERS,1100875,BC,14.5,0,NA,31.7,0,3.3,0,NA,NA,NA,14.6,0,NA,NA,4,NA,NA,NA,113.1,5,2023_05
-123.008,49.073,VANCOUVER BOUNDARY BAY,1100909,BC,15.2,0,NA,30.3,0,4.2,0,NA,NA,NA,NA,NA,NA,NA,NA,NA,NA,NA,92.5,5.5,2023_05
-123.111,50.144,CALLAGHAN VALLEY,1101300,BC,11.7,0,NA,28.8,0,0.9,0,NA,NA,NA,22,0,NA,0,8,NA,NA,NA,196.5,0,2023_05
-122.698,49.109,CLOVERDALE EAST,1101708,BC,16.6,0,NA,32,0,5.5,0,0,0,NA,15.9,0,NA,0,4,NA,NA,NA,71.6,27.8,2023_05
-121.979,49.079,CULTUS LAKE,1102221,BC,16.9,1,NA,35.8,1,5.5,1,NA,NA,NA,42.4,1,NA,NA,4,NA,NA,NA,72.9,39,2023_05
-123.002,49.126,DELTA BURNS BOG,1102415,BC,15.1,0,NA,32.1,0,3.2,0,NA,NA,NA,13.1,0,NA,NA,1,NA,NA,NA,97.3,6,2023_05
-123.093,49.011,DELTA TSAWWASSEN BEACH,1102425,BC,16.1,7,2.7,27.5,0,9,7,0,0,NA,16,0,31,0,2,NA,NA,NA,54.8,8.2,2023_05
-122.551,49.145,FORT LANGLEY TELEGRAPH TRAIL,1102912,BC,16.2,1,NA,32.5,1,5.5,1,0,1,NA,24.6,1,NA,0,5,NA,NA,NA,78.4,25.6,2023_05
-122.573,49.264,HANEY UBC RF ADMIN,1103332,BC,16.2,2,3.9,34,2,5.5,2,0,2,NA,29.9,2,NA,0,5,NA,NA,NA,76.9,24.8,2023_05
-122.631,49.101,LANGLEY REGIONAL,1104570,BC,15.6,0,NA,32,0,3,0,NA,NA,NA,NA,NA,NA,NA,NA,NA,NA,NA,88.2,14.9,2023_05
-122.271,49.153,MISSION WEST ABBEY,1105192,BC,16.3,0,3.6,33,0,4,0,0,0,NA,50.2,0,39,0,6,NA,NA,NA,87.3,34.4,2023_05
-123.078,49.381,N VANC GROUSE MTN RESORT,1105658,BC,12.2,4,5.3,25,4,2,4,0,4,NA,36.4,4,NA,0,6,NA,NA,NA,164.9,7.9,2023_05
-123.115,49.315,N VANCOUVER WHARVES,1105669,BC,NA,NA,NA,NA,NA,NA,NA,0,0,0.0,21.1,0,21,0,4,NA,NA,NA,NA,NA,2023_05
-122.69,49.208,PITT MEADOWS CS,1106178,BC,16.9,0,NA,33.2,0,5.9,0,NA,NA,NA,19.1,0,NA,NA,3,NA,NA,NA,64.3,31.4,2023_05
-122.713,49.216,PITT MEADOWS,110617P,BC,16.2,1,NA,33.1,1,4.4,1,NA,NA,NA,NA,NA,NA,NA,NA,NA,NA,NA,75.4,20.6,2023_05
-123.265,49.33,POINT ATKINSON,1106200,BC,15.9,0,NA,28.6,0,8.9,0,NA,NA,NA,24.9,0,NA,NA,6,NA,NA,NA,78.6,12.9,2023_05
-123.087,49.179,RICHMOND DALLYN 2,1106764,BC,NA,NA,NA,NA,NA,NA,NA,0,0,NA,15.6,0,NA,0,2,NA,NA,NA,NA,NA,2023_05
-122.881,49.279,PORT MOODY GLENAYRE,1106CL2,BC,16.1,1,3.6,31,1,6,1,0,1,NA,17,1,NA,0,2,NA,NA,NA,78.7,20.7,2023_05
-123.093,49.171,RICHMOND NATURE PARK,1106PF7,BC,16.4,8,3.1,30.5,8,6.5,8,0,8,NA,1,8,NA,0,0,NA,NA,NA,47.3,10.4,2023_05
-123.303,49.106,SANDHEADS CS,1107010,BC,14.9,0,NA,26.8,0,9.3,0,NA,NA,NA,NA,NA,NA,NA,NA,NA,NA,NA,101.3,5.8,2023_05
-122.11,49.113,SUMAS CANAL,1107785,BC,17.5,16,NA,34,10,8,11,0,10,NA,43,10,NA,0,4,NA,NA,NA,25,18,2023_05
-123.187,49.183,VANCOUVER SEA ISLAND CCG,1108380,BC,15,0,NA,25.6,0,6,0,NA,NA,NA,13.9,0,NA,NA,1,NA,NA,NA,94.6,2.6,2023_05
-123.184,49.195,VANCOUVER INTL A,1108395,BC,14.7,2,NA,25.4,2,5.1,2,0,0,NA,16.1,0,NA,NA,1,NA,NA,NA,97.8,2.3,2023_05
-123.122,49.295,VANCOUVER HARBOUR CS,1108446,BC,16.4,0,NA,29.3,0,7.2,0,NA,NA,NA,14.3,0,NA,NA,1,NA,NA,NA,64.9,16.6,2023_05
-123.193,49.347,WEST VANCOUVER AUT,1108824,BC,16.2,3,NA,31.7,3,7.2,3,NA,NA,NA,21.6,3,NA,NA,1,NA,NA,NA,77.3,25.7,2023_05
-122.784,49.018,WHITE ROCK CAMPBELL SCIENTIFIC,1108910,BC,15.2,0,NA,30.7,0,5.8,0,NA,NA,NA,9.6,0,NA,NA,1,NA,NA,NA,97.7,9.9,2023_05
-123.111,49.294,VANCOUVER HARBOUR,110Q44V,BC,16.6,0,NA,30.5,0,7.9,0,NA,NA,NA,NA,NA,NA,NA,NA,NA,NA,NA,75.2,32,2023_05
-121.498,49.368,HOPE A,1113542,BC,17.1,7,NA,34.9,7,6,7,NA,NA,NA,19.6,7,NA,NA,4,NA,NA,NA,51,29.5,2023_05
-121.493,49.37,HOPE AIRPORT,1113543,BC,16.9,2,NA,34.9,2,5.8,2,NA,NA,NA,34.4,2,NA,NA,5,NA,NA,NA,67.3,34.9,2023_05
-121.233,49.267,HOPE SLIDE,1113581,BC,13.5,0,4.1,30.5,0,1.5,0,0,0,0.0,53.6,0,78,0,11,NA,NA,NA,142.8,3.9,2023_05
-121.934,50.684,LILLOOET,1114619,BC,19.8,9,NA,34.9,9,7.1,9,NA,NA,NA,30.6,9,NA,NA,4,NA,NA,NA,16.7,55.8,2023_05
-121.582,50.224,LYTTON A,1114738,BC,18.7,0,NA,36,0,7.7,0,NA,NA,NA,36.5,0,NA,NA,6,NA,NA,NA,45.8,67.5,2023_05
-121.582,50.224,LYTTON RCS,1114746,BC,19,0,NA,36.5,0,7.8,0,NA,NA,NA,11.8,7,NA,NA,4,NA,NA,NA,42.3,73.3,2023_05
-120.333,49.673,JELLICOE,1123721,BC,13.3,0,NA,30,0,-0.5,0,0,0,NA,79.8,0,NA,0,13,NA,NA,NA,148.6,1.6,2023_05
-119.378,49.957,KELOWNA,1123939,BC,16.8,0,NA,32.2,0,3.1,0,NA,NA,NA,23.6,0,NA,NA,4,NA,NA,NA,57.3,21.4,2023_05
-119.4,49.941,KELOWNA UBCO,1123996,BC,18.1,0,NA,33.1,0,5.4,0,NA,NA,NA,20.5,0,NA,NA,4,NA,NA,NA,42.3,45.4,2023_05
-120.778,50.113,MERRITT,1125073,BC,15.5,2,NA,33.7,2,0.5,2,NA,NA,NA,18.8,2,NA,NA,5,NA,NA,NA,85.3,13.6,2023_05
-120.801,50.114,MERRITT STP,1125079,BC,16,0,3.7,33,0,2,0,0,0,0.0,16.2,0,54,0,4,NA,NA,NA,87.1,24.2,2023_05
-119.441,49.028,OSOYOOS CS,1125852,BC,19.6,0,4.1,33.3,0,6.7,0,NA,NA,NA,40.3,0,NA,NA,5,NA,NA,NA,21.2,71.2,2023_05
-119.717,49.783,PEACHLAND,1126070,BC,18.3,1,4,32,1,8,1,0,1,NA,30.4,1,NA,0,7,NA,NA,NA,39.7,47.8,2023_05
-119.602,49.463,PENTICTON A,1126146,BC,17.5,0,NA,32.3,0,4.1,0,0,0,NA,47.2,0,NA,NA,7,NA,NA,NA,44.8,28.8,2023_05
-120.513,49.468,PRINCETON A,1126510,BC,15.5,4,4.2,32,3,1.5,4,0,0,0.0,43.2,0,146,0,10,NA,NA,NA,77,9.7,2023_05
-120.513,49.468,PRINCETON A,1126518,BC,15.4,5,NA,31.9,5,1.4,5,NA,NA,NA,NA,NA,NA,NA,NA,NA,NA,NA,77.2,9.8,2023_05
-119.194,50.223,VERNON AUTO,1128582,BC,17.9,0,NA,32.4,0,6.9,0,NA,NA,NA,27.1,0,NA,NA,6,NA,NA,NA,44.6,41,2023_05
-119.056,50.359,VERNON SILVER STAR LODGE,1128584,BC,10.9,12,NA,23,12,1.5,12,0,12,NA,33.3,12,NA,0,4,NA,NA,NA,134.4,0,2023_05
-120.51,49.465,PRINCETON CS,112FN0M,BC,15,0,NA,32,0,1.5,0,NA,NA,NA,40.3,0,NA,NA,11,NA,NA,NA,104,10.2,2023_05
-119.649,49.563,SUMMERLAND CS,112G8L1,BC,17.6,0,3.6,30.6,0,6.9,0,NA,NA,NA,58.8,0,NA,NA,6,NA,NA,NA,46.6,34.9,2023_05
-118.772,49.004,MIDWAY,1135126,BC,17.6,0,5.1,32.5,0,5,0,0,0,NA,131.6,0,187,0,12,NA,NA,NA,39.1,25.2,2023_05
-118.228,49.017,BILLINGS,1140876,BC,17.2,0,4.1,33,0,5,0,0,0,NA,72,0,112,0,10,NA,NA,NA,53.8,30,2023_05
-117.633,49.296,CASTLEGAR A,1141455,BC,17.7,0,4.4,32,0,4,0,0,0,0.0,101,0,144,0,10,NA,NA,NA,45.9,35.5,2023_05
-117.774,49.343,CASTLEGAR BCHPA DAM,1141457,BC,16.8,0,3.5,30.5,0,5,0,0,0,0.0,70.8,0,98,0,11,NA,NA,NA,65.5,26.9,2023_05
-117.633,49.296,CASTLEGAR A,1141460,BC,17.3,0,NA,31.9,0,3,0,NA,NA,NA,NA,NA,NA,NA,NA,NA,NA,NA,52.4,32,2023_05
-116.972,50.239,DUNCAN LAKE DAM,1142574,BC,16.3,2,4.8,31.5,1,3.5,1,0,1,NA,34.6,1,NA,0,8,NA,NA,NA,52.4,4.4,2023_05
-117.817,50.269,NAKUSP CS,1145297,BC,16.4,1,NA,30.3,1,3.9,1,NA,NA,NA,42.7,1,NA,NA,7,NA,NA,NA,60.3,12.1,2023_05
-117.206,49.586,NELSON NE,1145442,BC,17.1,0,NA,32,0,4.5,0,0,0,NA,36.6,0,NA,0,9,NA,NA,NA,48.8,21,2023_05
-117.37,49.996,NEW DENVER,1145460,BC,16.8,0,4.3,30.5,0,5,0,0,0,0.0,39.6,0,60,0,9,NA,NA,NA,56.4,19.4,2023_05
-117.305,49.491,NELSON CS,1145M29,BC,16.8,0,NA,31.1,0,4.5,0,NA,NA,NA,69.1,0,NA,NA,11,NA,NA,NA,53.2,16,2023_05
-117.739,49.112,WARFIELD RCS,1148705,BC,18,1,NA,32.3,1,4,1,NA,NA,NA,76.1,1,NA,NA,11,NA,NA,NA,45.7,45.7,2023_05
-116.501,49.082,CRESTON CAMPBELL SCIENTIFIC,114B1F0,BC,17.6,0,NA,29.9,0,4.5,0,NA,NA,NA,44,0,NA,NA,6,NA,NA,NA,45.3,33.6,2023_05
-117.399,49.512,NELSON RIXEN CREEK,114EMDM,BC,16.2,0,NA,30.5,0,3.5,0,0,0,NA,73.4,0,NA,0,13,NA,NA,NA,71.4,15.8,2023_05
-115.782,49.612,CRANBROOK A,1152105,BC,15.7,1,NA,30.1,1,2.5,1,0,1,NA,30,1,NA,NA,7,NA,NA,NA,73.9,4.6,2023_05
-115.789,49.618,CRANBROOK AIRPORT AUTO,1152106,BC,15.6,0,NA,30.3,0,2.1,0,NA,NA,NA,30.6,0,NA,NA,7,NA,NA,NA,80.7,4.9,2023_05
-115.073,49.489,FERNIE,1152850,BC,14.3,6,4.5,28.5,6,-1,6,0,6,NA,21.4,6,NA,0,6,NA,NA,NA,92.9,1.3,2023_05
-115.461,49.524,FT STEELE DANDY CRK,1153034,BC,16,21,NA,29,14,2,14,0,14,NA,48.4,14,NA,0,6,NA,NA,NA,20.9,0.5,2023_05
-115.962,49.632,KIMBERLEY PCC,1154203,BC,15.4,12,4.4,29,12,2,12,0,12,NA,17,12,NA,0,3,NA,NA,NA,49,0.5,2023_05
-114.884,49.745,SPARWOOD CS,1157631,BC,13.9,10,NA,28.4,10,-0.1,10,NA,NA,NA,23.9,10,NA,NA,5,NA,NA,NA,85.2,0,2023_05
-114.883,49.833,SPARWOOD A,1157635,BC,13.5,0,NA,28.6,0,-0.2,0,NA,NA,NA,NA,NA,NA,NA,NA,NA,NA,NA,140.5,0,2023_05
-121.281,50.708,ASHCROFT,1160515,BC,19.2,1,NA,36.7,1,6.5,1,NA,NA,NA,31.6,1,NA,NA,6,NA,NA,NA,34.5,71.2,2023_05
-119.29,52.129,BLUE RIVER A,1160899,BC,14.3,0,4.1,32,0,-1,0,0,0,0.0,74.8,0,99,0,6,NA,NA,NA,117.1,1.8,2023_05
-119.293,52.125,BLUE RIVER A,1160902,BC,14.3,0,NA,31.9,0,-0.9,0,NA,NA,NA,NA,NA,NA,NA,NA,NA,NA,NA,116.2,1.5,2023_05
-119.29,52.129,BLUE RIVER CS,1160H99,BC,14.5,0,NA,32.4,0,-0.9,0,NA,NA,NA,67.5,9,NA,NA,6,NA,NA,NA,110.5,2.7,2023_05
-120.082,51.653,CLEARWATER AUTO,1161650,BC,16.7,0,NA,34,0,4.2,0,NA,NA,NA,NA,NA,NA,NA,NA,NA,NA,NA,62.8,22.8,2023_05
-121.685,51.266,CLINTON A,1161662,BC,11.5,1,NA,28.4,1,-2.5,1,NA,NA,NA,40.5,1,NA,NA,6,NA,NA,NA,193.6,0,2023_05
-121.505,51.144,CLINTON RCS,1161663,BC,13.4,0,NA,29.6,0,2.1,0,NA,NA,NA,51.2,0,NA,NA,8,NA,NA,NA,144.8,1.8,2023_05
-120.449,50.703,KAMLOOPS A,1163781,BC,17.9,0,NA,34.4,0,4.9,0,0,0,NA,20,0,NA,NA,5,NA,NA,NA,45.8,43,2023_05
-120.442,50.702,KAMLOOPS AUT,1163842,BC,18,0,NA,34.1,0,6.1,0,NA,NA,NA,18.6,1,NA,NA,5,NA,NA,NA,42.9,42.8,2023_05
-121.217,51.681,100 MILE HOUSE 6NE,1165793,BC,12.9,0,NA,32,0,-1.5,0,0,0,NA,62.6,0,NA,0,9,NA,NA,NA,157.1,0,2023_05
-119.778,51.576,VAVENBY,1168520,BC,16.4,0,4.1,33.5,0,3,0,0,0,0.0,40.8,0,93,0,7,NA,NA,NA,64.1,14.9,2023_05
-120.172,50.63,KAMLOOPS PRATT ROAD,116C8P0,BC,16.2,2,NA,30,2,6,2,0,2,NA,38.8,2,NA,NA,8,NA,NA,NA,76,24.6,2023_05
-119.291,50.703,SALMON ARM CS,116FRMN,BC,16.9,0,2.9,30.8,0,6.1,0,NA,NA,NA,21.8,0,NA,NA,5,NA,NA,NA,49.7,16.8,2023_05
-116.982,51.299,GOLDEN A,1173210,BC,15.9,0,4.6,30,0,4,0,0,0,0.0,48.9,0,142,0,6,NA,NA,NA,72.7,6.4,2023_05
-116.982,51.299,GOLDEN A,1173214,BC,15.8,0,NA,29.9,0,3.7,0,NA,NA,NA,NA,NA,NA,NA,NA,NA,NA,NA,72.9,5.6,2023_05
-116.984,51.3,GOLDEN AIRPORT,1173220,BC,15.8,0,NA,29.7,0,3.7,0,NA,NA,NA,49,0,NA,NA,9,NA,NA,NA,73.4,5.2,2023_05
-118.585,52.053,MICA DAM,1175122,BC,14.3,5,3.4,29,3,0,3,0,3,NA,46.9,3,NA,0,8,NA,NA,NA,101.5,4,2023_05
-118.183,50.967,REVELSTOKE A,1176745,BC,16.5,1,NA,31.5,1,3.9,1,NA,NA,NA,33.7,1,NA,NA,7,NA,NA,NA,56.3,12.4,2023_05
-118.176,50.958,REVELSTOKE AIRPORT AUTO,1176755,BC,16.6,0,NA,31.7,0,4.7,0,NA,NA,NA,34.5,0,NA,NA,7,NA,NA,NA,56.2,13,2023_05
-116.345,51.443,YOHO PARK,11790J1,BC,12.9,10,NA,28.6,10,-2.2,10,NA,NA,NA,3.9,10,NA,0,2,NA,NA,NA,107.8,0,2023_05
-121.627,55.687,CHETWYND A,1181508,BC,14.5,0,5,32.5,0,-1,0,0,0,0.0,47.8,0,129,0,4,NA,NA,NA,115.6,6.6,2023_05
-121.627,55.687,CHETWYND A,1181513,BC,14.5,0,NA,32.6,0,-0.9,0,NA,NA,NA,NA,NA,NA,NA,NA,NA,NA,NA,114.3,6.5,2023_05
-120.183,55.742,DAWSON CREEK A,1182289,BC,14.1,0,NA,31.3,0,0.3,0,NA,NA,NA,50.4,0,NA,NA,2,NA,NA,NA,122.1,1.2,2023_05
-120.74,56.238,FORT ST. JOHN A,1183001,BC,15,1,NA,30.9,1,4.1,1,0,0,NA,65.7,0,NA,NA,3,NA,NA,NA,96.6,7.5,2023_05
-120.75,56.248,FORT ST JOHN AIRPORT,1183002,BC,14.9,1,NA,31,1,3.8,1,NA,NA,NA,67.2,1,NA,NA,2,NA,NA,NA,99.2,6.2,2023_05
-123.133,55.299,MACKENZIE,1184791,BC,13.1,0,NA,32,0,-1.9,0,NA,NA,NA,22.5,0,NA,NA,3,NA,NA,NA,153,2.3,2023_05
-123.138,55.305,MACKENZIE AIRPORT AUTO,1184793,BC,13.7,0,NA,32.5,0,-1.4,0,NA,NA,NA,22.5,0,NA,NA,3,NA,NA,NA,136.7,3.4,2023_05
-130.031,58.422,DEASE LAKE A,1192341,BC,9.6,0,NA,29.2,0,-5.9,0,NA,NA,NA,17.6,0,NA,NA,5,NA,NA,NA,259.8,0,2023_05
-122.597,58.836,FORT NELSON A,1192946,BC,14.5,2,NA,29.9,2,-0.1,2,0,1,NA,19.1,1,NA,NA,2,NA,NA,NA,105.8,3.3,2023_05
-122.574,58.841,FORT NELSON,1192948,BC,15,5,NA,29.7,5,2.2,5,NA,NA,NA,18,5,NA,0,3,NA,NA,NA,82.4,4.8,2023_05
-130.025,58.426,DEASE LAKE (AUT),119BLM0,BC,9.6,0,NA,29.3,0,-6,0,NA,NA,NA,18.2,0,NA,NA,6,NA,NA,NA,258.9,0,2023_05
-140.869,62.41,BEAVER CREEK A,2100155,YT,6.6,0,NA,24.1,0,-7.8,0,NA,NA,NA,NA,NA,NA,NA,NA,NA,NA,NA,352.9,0,2023_05
-139.04,61.371,BURWASH A,2100181,YT,6,0,NA,22.5,0,-8.9,0,NA,NA,NA,10.8,0,NA,NA,3,NA,NA,NA,371.1,0,2023_05
-139.017,61.367,BURWASH AIRPORT AUTO,2100184,YT,6,0,NA,22.7,0,-8.7,0,NA,NA,NA,22.3,0,NA,NA,3,NA,NA,NA,373.5,0,2023_05
-136.192,62.115,CARMACKS CS,2100301,YT,9.1,0,NA,26.8,0,-6.2,0,NA,NA,NA,4.7,0,NA,NA,2,NA,NA,NA,276.4,0,2023_05
-139.13,64.042,DAWSON CITY A,2100407,YT,8.7,3,NA,24.6,3,-4,3,NA,NA,NA,NA,NA,NA,NA,NA,NA,NA,NA,259.9,0,2023_05
-133.376,62.208,FARO (AUT),2100518,YT,9.1,0,NA,27.2,0,-4.9,0,NA,NA,NA,15.4,12,NA,NA,4,NA,NA,NA,276.5,0,2023_05
-133.373,62.207,FARO A,2100527,YT,8.9,0,NA,27,0,-5.2,0,NA,NA,NA,NA,NA,NA,NA,NA,NA,NA,NA,283.5,0,2023_05
-137.58,60.773,HAINES JUNCTION,2100630,YT,6.3,0,NA,25.5,0,-7,0,NA,NA,NA,NA,NA,NA,NA,NA,NA,NA,NA,363.5,0,2023_05
-140.15,69.164,IVVAVIK NAT. PARK,2100660,YT,3.5,5,NA,20,5,-12.4,5,NA,NA,NA,14.3,5,NA,0,6,NA,NA,NA,377.4,0,2023_05
-140.197,69.612,KOMAKUK BEACH,2100682,YT,-0.9,1,NA,15.1,1,-14.2,1,NA,NA,NA,NA,NA,NA,NA,NA,NA,NA,NA,568,0,2023_05
-130.037,63.244,MACMILLAN PASS,2100693,YT,5.6,5,NA,18.7,5,-3.9,5,NA,NA,NA,35.1,5,NA,NA,9,NA,NA,NA,323.2,0,2023_05
-140.848,68.801,MARGARET LAKE,2100697,YT,4.2,7,NA,18.8,7,-11.4,7,NA,NA,NA,7.2,24,NA,NA,2,NA,NA,NA,331.7,0,2023_05
-135.868,63.616,MAYO A,2100701,YT,9.7,2,NA,24.5,2,-3.5,2,1.2,1,NA,47.2,1,NA,NA,9,NA,NA,NA,241.7,0,2023_05
-135.869,63.617,MAYO A,2100702,YT,9.5,0,NA,24.5,0,-3.5,0,NA,NA,NA,NA,NA,NA,NA,NA,NA,NA,NA,262.7,0,2023_05
-139.839,67.571,OLD CROW RCS,2100805,YT,6.5,1,NA,22.6,1,-7.2,1,NA,NA,NA,20.3,1,NA,NA,6,NA,NA,NA,345.2,0,2023_05
-139.84,67.57,OLD CROW A,2100807,YT,5.3,7,NA,19.9,7,-7.3,7,NA,NA,NA,NA,NA,NA,NA,NA,NA,NA,NA,304.3,0,2023_05
-137.05,61.033,OTTER FALLS NCPC,2100840,YT,8.9,6,3,25,6,-5,6,0,6,NA,3.2,6,NA,NA,1,NA,NA,NA,227.1,0,2023_05
-137.367,62.817,PELLY RANCH FORT SELKIRK,2100881,YT,9.7,6,NA,28.4,6,-2.9,6,NA,NA,NA,NA,NA,NA,2,NA,NA,NA,NA,206.7,0,2023_05
-136.218,66.981,ROCK RIVER,2100935,YT,5.7,7,NA,18,7,-4.7,7,NA,NA,NA,10.8,17,NA,NA,2,NA,NA,NA,295.5,0,2023_05
-139.127,64.061,DAWSON,2100LRP,YT,9.1,0,NA,24.7,0,-3.9,0,NA,NA,NA,54.9,0,NA,NA,8,NA,NA,NA,275,0,2023_05
-132.733,60.167,TESLIN (AUT),2101102,YT,8,0,NA,26.8,0,-5.7,0,NA,NA,NA,22.6,0,NA,NA,5,NA,NA,NA,309.7,0,2023_05
-132.742,60.173,TESLIN A,2101106,YT,8.1,0,NA,26.6,0,-5.5,0,NA,NA,NA,NA,NA,NA,NA,NA,NA,NA,NA,306.6,0,2023_05
-128.823,60.116,WATSON LAKE A,2101201,YT,10.7,1,NA,29,1,-4,1,NA,NA,NA,NA,NA,NA,NA,NA,NA,NA,NA,219.8,0,2023_05
-128.823,60.116,WATSON LAKE A,2101202,YT,10.5,1,NA,29,1,-4,1,NA,NA,NA,NA,NA,NA,NA,NA,NA,NA,NA,223.9,0,2023_05
-128.832,60.116,WATSON LAKE (AUT),2101204,YT,10.8,0,NA,29.2,0,-3.8,0,NA,NA,NA,8.7,0,NA,NA,4,NA,NA,NA,224.7,0,2023_05
-135.067,60.709,WHITEHORSE A,2101303,YT,9,0,NA,26.4,0,-4.8,0,NA,NA,NA,NA,NA,NA,NA,NA,NA,NA,NA,279.8,0,2023_05
-135.098,60.733,WHITEHORSE AUTO,2101310,YT,8.7,0,NA,26.3,0,-5.6,0,NA,NA,NA,1.7,0,NA,NA,0,NA,NA,NA,287.5,0,2023_05
-135.006,68.223,AKLAVIK A,2200105,NT,3.6,1,NA,21.5,1,-12.7,1,NA,NA,NA,NA,NA,NA,NA,NA,NA,NA,NA,431,0,2023_05
-124.717,70.167,CAPE PARRY A,2200675,NT,-1.3,0,NA,11.8,0,-11.9,0,NA,NA,NA,NA,NA,NA,NA,NA,NA,NA,NA,599.7,0,2023_05
-126.123,67.021,COLVILLE LAKE,2200824,NT,NA,NA,NA,NA,NA,NA,NA,NA,NA,NA,75,0,NA,NA,23,NA,NA,NA,NA,NA,2023_05
-126.129,67.021,COLVILLE LAKE A,2200827,NT,6.1,0,NA,20.6,0,-6.5,0,NA,NA,NA,24,0,NA,NA,4,NA,NA,NA,368.7,0,2023_05
-123.433,65.209,DELINE CS,2201022,NT,8.2,0,NA,24.8,0,-3.7,0,NA,NA,NA,17.4,0,NA,NA,5,NA,NA,NA,302.7,0,2023_05
-123.436,65.211,DELINE A,2201023,NT,8.3,0,NA,24.7,0,-3.3,0,NA,NA,NA,NA,NA,NA,NA,NA,NA,NA,NA,301.4,0,2023_05
-124.468,61.257,DEADMEN VALLEY,22010H0,NT,13.1,4,NA,32.3,4,-4,4,NA,NA,NA,4.8,13,NA,NA,1,NA,NA,NA,133.2,0,2023_05
-128.648,66.241,FORT GOOD HOPE A,2201406,NT,8.5,7,NA,23.1,7,-4.8,7,NA,NA,NA,NA,NA,NA,NA,NA,NA,NA,NA,227.7,0,2023_05
-128.644,66.242,FORT GOOD HOPE CS,2201450,NT,8.9,0,NA,23,0,-4.6,0,NA,NA,NA,25.1,0,NA,0,4,NA,NA,NA,281.5,0,2023_05
-123.467,60.233,FORT LIARD,2201579,NT,14.1,1,NA,27.8,1,-0.6,1,NA,NA,NA,4.2,1,NA,NA,1,NA,NA,NA,116.8,0,2023_05
-123.47,60.236,FORT LIARD A,2201581,NT,14.2,2,NA,27.8,2,-0.2,2,NA,NA,NA,NA,NA,NA,NA,NA,NA,NA,NA,111.3,0.2,2023_05
-134.86,67.407,FORT MCPHERSON A,2201606,NT,6.4,0,NA,22.3,0,-9.1,0,NA,NA,NA,NA,NA,NA,NA,NA,NA,NA,NA,360.4,0,2023_05
-125.569,64.91,TULITA A,2201705,NT,10.8,2,NA,26.3,2,-1.4,2,NA,NA,NA,NA,NA,NA,NA,NA,NA,NA,NA,207.9,0,2023_05
-117.602,61.317,FORT PROVIDENCE,2201799,NT,13.6,0,NA,28.4,0,-0.2,0,NA,NA,NA,NA,NA,NA,NA,NA,NA,NA,NA,137.3,1.9,2023_05
-109.168,62.711,FORT RELIANCE (AUT),2201903,NT,9.7,4,NA,26,4,-3.2,4,NA,NA,NA,NA,NA,NA,NA,NA,NA,NA,NA,224.2,0,2023_05
-113.69,61.181,FORT RESOLUTION A,2202010,NT,12.9,0,NA,26.4,0,-2.3,0,NA,NA,NA,NA,NA,NA,NA,NA,NA,NA,NA,158.7,0,2023_05
-121.237,61.76,FORT SIMPSON CLIMATE,2202102,NT,14.5,0,NA,28.9,0,1.4,0,NA,NA,NA,22.3,0,NA,NA,2,NA,NA,NA,115.2,7.8,2023_05
-121.237,61.76,FORT SIMPSON A,2202103,NT,14.6,6,NA,29,6,1.6,6,11.1,2,NA,22.9,2,NA,NA,2,NA,NA,NA,92.9,8.2,2023_05
-121.237,61.76,FORT SIMPSON A,2202104,NT,14.7,0,NA,29,0,1.6,0,NA,NA,NA,NA,NA,NA,NA,NA,NA,NA,NA,111.6,8.2,2023_05
-111.962,60.02,FORT SMITH A,2202201,NT,15,0,NA,29.9,0,-0.2,0,0,0,NA,5.3,0,NA,NA,2,NA,NA,NA,100.2,8.4,2023_05
-111.929,60.026,FORT SMITH CLIMATE,2202202,NT,14.9,0,NA,30.4,0,1,0,NA,NA,NA,4.8,0,NA,NA,2,NA,NA,NA,103.3,8.3,2023_05
-111.962,60.02,FORT SMITH A,2202203,NT,15,0,NA,29.9,0,-0.2,0,NA,NA,NA,NA,NA,NA,NA,NA,NA,NA,NA,100.2,8.4,2023_05
-105.133,63.6,HANBURY RIVER,2202351,NT,5.7,5,NA,20.1,4,-3.8,5,NA,NA,NA,4.5,5,NA,NA,2,NA,NA,NA,320.9,0,2023_05
-115.783,60.84,HAY RIVER A,2202401,NT,13.7,13,NA,31,13,-0.4,13,0,13,NA,0,13,NA,NA,0,NA,NA,NA,85,7,2023_05
-115.777,60.839,HAY RIVER CLIMATE,2202402,NT,13.5,0,NA,30.6,0,0.7,0,NA,NA,NA,8.7,0,NA,NA,4,NA,NA,NA,148.9,10.9,2023_05
-115.783,60.84,HAY RIVER A,2202403,NT,13.3,0,NA,31,0,-0.4,0,NA,NA,NA,NA,NA,NA,NA,NA,NA,NA,NA,154.6,7.9,2023_05
-113.726,61.92,INNER WHALEBACKS,2202560,NT,5.2,4,NA,14.1,4,-0.4,4,NA,NA,NA,5.2,4,NA,NA,2,NA,NA,NA,346.5,0,2023_05
-133.483,68.304,INUVIK A,2202571,NT,5.1,0,NA,21.8,0,-8.1,0,NA,NA,NA,NA,NA,NA,NA,NA,NA,NA,NA,401.3,0,2023_05
-133.517,68.317,INUVIK CLIMATE,2202578,NT,5,0,NA,21.5,0,-8.2,0,NA,NA,NA,15.8,0,NA,NA,6,NA,NA,NA,404.2,0,2023_05
-117.245,63.134,WHATI,2202678,NT,11.1,1,NA,26.6,1,-4,1,NA,NA,NA,4.6,1,NA,NA,2,NA,NA,NA,207,0,2023_05
-110.682,62.418,LUTSELK'E A,2202690,NT,10.5,0,NA,28.2,0,-6.3,0,NA,NA,NA,NA,NA,NA,NA,NA,NA,NA,NA,233.8,0,2023_05
-128.974,69.925,NICHOLSON PENINSULA 2,2202751,NT,1.5,15,NA,15.8,15,-7,15,NA,NA,NA,NA,NA,NA,NA,NA,NA,NA,NA,263.3,0,2023_05
-126.799,65.281,NORMAN WELLS A,2202801,NT,10.3,0,NA,25.8,0,-2.8,0,0,0,NA,18.8,0,NA,NA,3,NA,NA,NA,240,0,2023_05
-126.753,65.288,NORMAN WELLS CLIMATE,2202810,NT,10.2,1,NA,26,1,-2.7,1,NA,NA,NA,16.1,1,NA,NA,3,NA,NA,NA,232.7,0,2023_05
-124.076,69.361,PAULATUK A,2203055,NT,1.9,0,NA,17.3,0,-14.6,0,NA,NA,NA,NA,NA,NA,NA,NA,NA,NA,NA,497.8,0,2023_05
-124.083,69.358,PAULATUK,2203058,NT,2.1,0,NA,17.3,0,-14.4,0,NA,NA,NA,15.8,0,NA,NA,3,NA,NA,NA,491.8,0,2023_05
-135.444,69.633,PELLY ISLAND,2203095,NT,-1.5,6,NA,11.4,6,-10.6,6,NA,NA,NA,NA,NA,NA,NA,NA,NA,NA,NA,487.2,0,2023_05
-127.209,61.963,RABBIT KETTLE,2203342,NT,10.6,6,NA,29.9,6,-2.8,6,NA,NA,NA,9.1,17,NA,NA,1,NA,NA,NA,185.5,0,2023_05
-117.328,64.112,GAMETI,2203359,NT,10.4,1,NA,23.9,1,-3,1,NA,NA,NA,5.5,1,NA,NA,2,NA,NA,NA,229.1,0,2023_05
-117.31,64.116,GAMETI A,2203365,NT,10.4,0,NA,24.2,0,-3,0,NA,NA,NA,NA,NA,NA,NA,NA,NA,NA,NA,236.6,0,2023_05
-133.026,69.433,TUKTOYAKTUK A,2203911,NT,0.6,0,NA,17.5,0,-11.9,0,NA,NA,NA,NA,NA,NA,NA,NA,NA,NA,NA,538.9,0,2023_05
-133.017,69.433,TUKTOYAKTUK,2203914,NT,0.8,0,NA,17.3,0,-12.4,0,NA,NA,NA,NA,NA,NA,3,NA,NA,NA,NA,534.3,0,2023_05
-122.359,69.199,TUKTUT NOGAIT,2203918,NT,0.3,6,NA,13.1,6,-7.8,6,NA,NA,NA,NA,NA,NA,NA,NA,NA,NA,NA,442.2,0,2023_05
-114.077,64.191,WEKWEETI A,2203980,NT,9.5,1,NA,25.2,1,-2.4,1,NA,NA,NA,8.3,1,NA,NA,4,NA,NA,NA,254.2,0,2023_05
-123.437,63.21,WRIGLEY A,2204005,NT,12.8,0,NA,28.9,0,-3,0,NA,NA,NA,NA,NA,NA,NA,NA,NA,NA,NA,165.4,3.4,2023_05
-114.44,62.463,YELLOWKNIFE A,2204101,NT,11.8,0,NA,25,0,-0.1,0,0,0,NA,14.5,0,NA,NA,3,NA,NA,NA,192,0,2023_05
-114.449,62.474,YELLOWKNIFE AIRPORT,2204108,NT,11.9,1,NA,25,1,0,1,NA,NA,NA,14.1,1,NA,1,3,NA,NA,NA,182.9,0,2023_05
-123.742,61.242,YOHIN,2204300,NT,13.5,16,NA,29,15,-2.2,16,NA,NA,NA,0,19,NA,NA,0,NA,NA,NA,67.9,1.1,2023_05
-130.228,67.179,LITTLE CHICAGO,220B6Q3,NT,8.5,7,NA,22.6,7,-4.2,7,NA,NA,NA,NA,NA,NA,NA,NA,NA,NA,NA,228.6,0,2023_05
-121.239,60.441,SAMBAA K'E,220CQHR,NT,12.2,0,NA,29.1,0,-2,0,NA,NA,NA,1.7,0,NA,NA,1,NA,NA,NA,179.3,0,2023_05
-122.851,61.125,LINDBURG LANDING,220N003,NT,13.6,6,NA,29.4,6,-2.1,6,NA,NA,NA,NA,NA,NA,NA,NA,NA,NA,NA,109.3,0.5,2023_05
-133.502,68.746,TRAIL VALLEY,220N005,NT,3.2,6,NA,21,6,-13.8,6,NA,NA,NA,3.1,6,NA,NA,1,NA,NA,NA,369.4,0,2023_05
-94.072,61.094,ARVIAT A,2300427,NU,2.4,1,NA,14.9,1,-5.5,1,NA,NA,NA,15.6,1,NA,NA,3,NA,NA,NA,467.9,0,2023_05
-96,64.317,BAKER LAKE CLIMATE,2300501,NU,0.9,0,NA,13.9,0,-7.2,0,NA,NA,NA,13.2,0,NA,NA,5,NA,NA,NA,530.1,0,2023_05
-96.078,64.299,BAKER LAKE A,2300503,NU,1.6,11,NA,17.1,11,-6.8,11,7.8,8,NA,19.3,8,NA,NA,5,NA,NA,NA,327.3,0,2023_05
-96.078,64.299,BAKER LAKE A,2300504,NU,1.2,0,NA,17.1,0,-7.3,0,NA,NA,NA,NA,NA,NA,NA,NA,NA,NA,NA,520.1,0,2023_05
-108.015,66.838,BATHURST INLET,2300551,NU,3.3,9,NA,18.1,9,-7.2,7,NA,NA,NA,6.8,20,NA,0,3,NA,NA,NA,323.3,0,2023_05
-90.731,63.347,CHESTERFIELD INLET A,2300710,NU,-0.4,0,NA,18,0,-10.3,0,NA,NA,NA,NA,NA,NA,NA,NA,NA,NA,NA,571,0,2023_05
-115.144,67.817,KUGLUKTUK A,2300903,NU,1.5,0,NA,15.7,0,-16.6,0,10.8,0,NA,28.1,0,NA,NA,4,NA,NA,NA,511.9,0,2023_05
-115.135,67.817,KUGLUKTUK CLIMATE,2300904,NU,1.5,0,NA,15.6,0,-16.5,0,NA,NA,NA,25.2,0,NA,0,4,NA,NA,NA,510,0,2023_05
-115.144,67.817,KUGLUKTUK A,2300905,NU,1.5,0,NA,15.7,0,-16.6,0,NA,NA,NA,NA,NA,NA,NA,NA,NA,NA,NA,510.9,0,2023_05
-83.359,64.193,CORAL HARBOUR A,2301002,NU,-3.3,7,NA,7.3,7,-14.3,7,1.8,5,NA,1.6,5,NA,36,0,NA,NA,NA,512,0,2023_05
-83.359,64.193,CORAL HARBOUR A,2301004,NU,-3,0,NA,11.3,0,-14.3,0,NA,NA,NA,NA,NA,NA,NA,NA,NA,NA,NA,650.3,0,2023_05
-83.35,64.183,CORAL HARBOUR RCS,2301010,NU,-4,0,NA,4,0,-14.3,0,NA,NA,NA,19.5,0,NA,5,5,NA,NA,NA,682.5,0,2023_05
-100.884,61.132,ENNADAI LAKE (AUT),2301102,NU,6.9,3,NA,21.1,3,-3.3,3,NA,NA,NA,11.3,4,NA,0,5,NA,NA,NA,311,0,2023_05
-94.067,61.1,ARVIAT CLIMATE,2301153,NU,2.8,0,NA,21.2,0,-5.4,0,NA,NA,NA,15.6,0,NA,NA,2,NA,NA,NA,472,0,2023_05
-95.85,68.636,GJOA HAVEN A,2302337,NU,-4.4,0,NA,3.2,0,-13.9,0,NA,NA,NA,28.8,0,NA,NA,5,NA,NA,NA,693.8,0,2023_05
-95.85,68.636,GJOA HAVEN CLIMATE,2302340,NU,-4.3,0,NA,3.3,0,-13.9,0,NA,NA,NA,10,0,NA,NA,3,NA,NA,NA,691.4,0,2023_05
-100.087,68.318,HAT ISLAND,2302370,NU,-3.3,0,NA,6.6,0,-12.8,0,NA,NA,NA,NA,NA,NA,NA,NA,NA,NA,NA,661.3,0,2023_05
-89.796,68.538,KUGAARUK CLIMATE,2303094,NU,-3.9,0,NA,6.5,0,-12,0,NA,NA,NA,NA,NA,NA,0,NA,NA,NA,NA,677.4,0,2023_05
-89.805,68.536,KUGAARUK A,2303095,NU,-4,0,NA,6,0,-12.1,0,NA,NA,NA,NA,NA,NA,NA,NA,NA,NA,NA,683.1,0,2023_05
-92.115,62.811,RANKIN INLET A,2303405,NU,0.1,0,NA,13.6,0,-9.3,0,0,17,NA,4.2,17,NA,NA,2,NA,NA,NA,555.5,0,2023_05
-102.429,65.1,ROBERTSON LAKE (AUT),2303610,NU,NA,NA,NA,NA,NA,NA,NA,NA,NA,NA,7.1,4,NA,NA,3,NA,NA,NA,NA,NA,2023_05
-79.25,56.537,SANIKILUAQ A,2303660,NU,0.2,0,NA,16.4,0,-5.9,0,NA,NA,NA,NA,NA,NA,NA,NA,NA,NA,NA,550.8,0,2023_05
-79.26,56.537,SANIKILUAQ,2303668,NU,0.1,4,NA,16.1,4,-6.1,4,NA,NA,NA,NA,NA,NA,NA,NA,NA,NA,NA,483.7,0,2023_05
-92.598,62.24,WHALE COVE A,2303990,NU,0.1,1,NA,10.4,1,-11.8,1,NA,NA,NA,NA,NA,NA,NA,NA,NA,NA,NA,538,0,2023_05
-111.246,65.755,LUPIN CS,230N002,NU,3.7,9,NA,20,9,-10,9,NA,NA,NA,13.1,15,NA,NA,4,NA,NA,NA,314.4,0,2023_05
-62.333,82.5,ALERT CLIMATE,2400305,NU,-11.3,0,NA,-0.2,0,-19.1,0,NA,NA,NA,14.9,0,NA,35,4,NA,NA,NA,908.3,0,2023_05
-62.333,82.5,ALERT UA,2400306,NU,NA,NA,NA,NA,NA,NA,NA,35.8,2,NA,11.4,2,NA,45,4,NA,NA,NA,NA,NA,2023_05
-85.047,73.006,ARCTIC BAY,2400399,NU,-7,0,NA,1.8,0,-17.7,0,NA,NA,NA,NA,NA,NA,NA,NA,NA,NA,NA,776.4,0,2023_05
-85.012,72.993,ARCTIC BAY CS,2400404,NU,-7.9,3,NA,1.9,3,-18.9,3,NA,NA,NA,2.9,3,NA,NA,1,NA,NA,NA,724.2,0,2023_05
-64.146,63.34,BREVOORT ISLAND,2400565,NU,-4.1,9,NA,8.9,9,-12.5,9,NA,NA,NA,NA,NA,NA,NA,NA,NA,NA,NA,486,0,2023_05
-64.033,67.547,QIKIQTARJUAQ CLIMATE,2400573,NU,-6.1,0,NA,4.4,0,-17.7,0,NA,NA,NA,13.3,0,NA,38,4,NA,NA,NA,747.2,0,2023_05
-64.032,67.547,QIKIQTARJUAQ A,2400577,NU,-6.2,0,NA,4.2,0,-16.7,0,NA,NA,NA,0,0,NA,NA,0,NA,NA,NA,750.8,0,2023_05
-105.137,69.108,CAMBRIDGE BAY A,2400601,NU,-3.9,13,NA,4.1,13,-17.5,13,0.2,11,NA,0.8,11,NA,23,0,NA,NA,NA,393.9,0,2023_05
-105.138,69.108,CAMBRIDGE BAY GSN,2400602,NU,-4,0,NA,3.7,0,-17.9,0,NA,NA,NA,5.7,0,NA,0,3,NA,NA,NA,681.1,0,2023_05
-105.137,69.108,CAMBRIDGE BAY A,2400603,NU,-4,0,NA,4.1,0,-17.5,0,NA,NA,NA,NA,NA,NA,NA,NA,NA,NA,NA,682.6,0,2023_05
-76.53,64.231,KINNGAIT,2400636,NU,-4,1,NA,2.8,1,-8.9,1,NA,NA,NA,21.5,1,NA,NA,7,NA,NA,NA,659.5,0,2023_05
-76.525,64.23,KINNGAIT AIRPORT,2400637,NU,-4,1,NA,2.6,1,-8.9,1,NA,NA,NA,16.7,1,NA,NA,2,NA,NA,NA,659.8,0,2023_05
-78.293,73.668,CAPE LIVERPOOL,2400675,NU,-6.5,6,NA,3.9,6,-17.1,6,NA,NA,NA,18.2,9,NA,47,8,NA,NA,NA,612.8,0,2023_05
-68.517,70.483,CLYDE RIVER CLIMATE,2400802,NU,-5.7,0,NA,3.7,0,-13.5,0,NA,NA,NA,19.2,0,NA,13,7,NA,NA,NA,734.7,0,2023_05
-68.517,70.486,CLYDE RIVER A,2400804,NU,-5.9,0,NA,2.4,0,-13.6,0,NA,NA,NA,10.5,0,NA,NA,3,NA,NA,NA,742.1,0,2023_05
-71.167,68.65,DEWAR LAKES,2401030,NU,-9.2,0,NA,-1.5,0,-17.3,0,NA,NA,NA,NA,NA,NA,NA,NA,NA,NA,NA,842.7,0,2023_05
-85.934,79.989,EUREKA CLIMATE,2401199,NU,-11.2,0,NA,-0.8,0,-21.9,0,NA,NA,NA,5,0,NA,7,1,NA,NA,NA,904.2,0,2023_05
-85.812,79.994,EUREKA A,2401208,NU,-11.1,0,NA,-0.4,0,-20.4,0,NA,NA,NA,NA,NA,NA,NA,NA,NA,NA,NA,901.1,0,2023_05
-94.198,72.018,FORT ROSS,2402051,NU,-6.7,2,NA,1.4,2,-13.7,2,NA,NA,NA,NA,NA,NA,69,NA,NA,NA,NA,717.2,0,2023_05
-82.902,76.423,GRISE FIORD CLIMATE,2402351,NU,-8.2,0,NA,1,0,-17.7,0,NA,NA,NA,15.6,0,NA,6,6,NA,NA,NA,811.6,0,2023_05
-81.244,68.776,SANIRAJAK,2402353,NU,-7.1,0,NA,1.7,0,-15.6,0,NA,NA,NA,3.7,0,NA,44,1,NA,NA,NA,776.7,0,2023_05
-81.243,68.776,SANIRAJAK AIRPORT,2402354,NU,-7,0,NA,1.6,0,-15.6,0,NA,NA,NA,17.6,1,NA,NA,3,NA,NA,NA,775.8,0,2023_05
-82.908,76.426,GRISE FIORD A,2402360,NU,-8,0,NA,1.5,0,-16.8,0,NA,NA,NA,NA,NA,NA,NA,NA,NA,NA,NA,805.7,0,2023_05
-81.816,69.365,IGLOOLIK A,2402546,NU,-7.1,0,NA,1.3,0,-15.2,0,NA,NA,NA,NA,NA,NA,NA,NA,NA,NA,NA,777,0,2023_05
-68.544,63.747,IQALUIT CLIMATE,2402592,NU,-3.5,0,NA,4.7,0,-11,0,NA,NA,NA,10,0,NA,10,3,NA,NA,NA,665.5,0,2023_05
-68.556,63.757,IQALUIT A,2402596,NU,-3.5,0,NA,7.4,0,-11.1,0,NA,NA,NA,NA,NA,NA,NA,NA,NA,NA,NA,665.8,0,2023_05
-103.554,78.792,ISACHSEN (AUT),2402604,NU,-10.1,13,NA,-2,13,-17.4,13,NA,NA,NA,NA,NA,NA,28,NA,NA,NA,NA,505.6,0,2023_05
-69.877,62.848,KIMMIRUT A,2402673,NU,-1.9,3,NA,5,3,-8.4,3,NA,NA,NA,NA,NA,NA,NA,NA,NA,NA,NA,557.6,0,2023_05
-75.141,68.899,LONGSTAFF BLUFF,2402684,NU,-7.3,0,NA,3.9,0,-15.1,0,NA,NA,NA,NA,NA,NA,NA,NA,NA,NA,NA,784.6,0,2023_05
-65.714,66.145,PANGNIRTUNG A,2403054,NU,-3.5,0,NA,4.6,0,-9,0,NA,NA,NA,NA,NA,NA,NA,NA,NA,NA,NA,667.9,0,2023_05
-77.958,72.693,POND INLET CLIMATE,2403204,NU,-7.4,0,NA,1.4,0,-16.1,0,NA,NA,NA,37,0,NA,49,8,NA,NA,NA,786.8,0,2023_05
-77.969,72.689,POND INLET A,2403206,NU,-7.9,0,NA,-0.6,0,-16.3,0,NA,NA,NA,19.4,0,NA,NA,5,NA,NA,NA,803.4,0,2023_05
-86.225,66.521,NAUJAAT A,2403495,NU,-3.6,1,NA,3.9,1,-11.3,1,NA,NA,NA,NA,NA,NA,NA,NA,NA,NA,NA,648.1,0,2023_05
-94.969,74.717,RESOLUTE BAY A,2403497,NU,-8.5,0,NA,-0.5,0,-16.4,0,NA,NA,NA,NA,NA,NA,NA,NA,NA,NA,NA,820.2,0,2023_05
-94.969,74.717,RESOLUTE BAY A,2403498,NU,-8.5,5,NA,-0.5,5,-16.4,5,7.7,2,NA,7.7,2,NA,NA,1,NA,NA,NA,688,0,2023_05
-94.983,74.716,RESOLUTE CS,2403505,NU,-8.4,0,NA,-0.4,0,-16.4,0,NA,NA,NA,24,0,NA,11,6,NA,NA,NA,818.5,0,2023_05
-79.033,69.083,ROWLEY ISLAND,2403625,NU,-5.9,14,NA,1.2,14,-11.8,14,NA,NA,NA,NA,NA,NA,NA,NA,NA,NA,NA,405.8,0,2023_05
-105.296,73.766,STEFANSSON ISLAND,2403756,NU,-6.9,6,NA,4.5,6,-21.1,6,NA,NA,NA,1.3,6,NA,21,0,NA,NA,NA,621.5,0,2023_05
-91.816,81.161,SVARTEVAEG,2403833,NU,-11.7,1,NA,0,1,-19.9,1,NA,NA,NA,17.2,1,NA,64,5,NA,NA,NA,889.8,0,2023_05
-93.577,69.547,TALOYOAK A,2403855,NU,-5.9,20,NA,1.7,20,-14,20,5.6,16,NA,5.6,16,NA,4,2,NA,NA,NA,262.8,0,2023_05
-93.577,69.547,TALOYOAK A,2403856,NU,-5.2,0,NA,2.8,0,-14,0,NA,NA,NA,NA,NA,NA,NA,NA,NA,NA,NA,718.3,0,2023_05
-89.446,65.879,WAGER BAY (AUT),2403945,NU,-1.1,3,NA,6.8,3,-11.2,3,NA,NA,NA,20.1,3,NA,NA,4,NA,NA,NA,534.7,0,2023_05
-112.161,74.457,CAPE PROVIDENCE,2501419,NT,-9.5,28,NA,-3.7,28,-14.6,28,NA,NA,NA,0.9,28,NA,NA,0,NA,NA,NA,82.4,0,2023_05
-117.806,70.763,ULUKHAKTOK A,2502503,NT,-3,1,NA,6.2,1,-12.8,1,NA,NA,NA,NA,NA,NA,NA,NA,NA,NA,NA,629.5,0,2023_05
-117.8,70.761,HOLMAN CS,2502505,NT,-2.7,0,NA,7.8,0,-12.7,0,NA,NA,NA,0.2,29,NA,0,0,NA,NA,NA,640.4,0,2023_05
-125.254,71.993,SACHS HARBOUR CLIMATE,2503648,NT,-3.7,0,NA,5.7,0,-16,0,NA,NA,NA,12.5,0,NA,24,3,NA,NA,NA,671.7,0,2023_05
-125.241,71.994,SACHS HARBOUR A,2503649,NT,-4,0,NA,5.3,0,-16,0,NA,NA,NA,NA,NA,NA,NA,NA,NA,NA,NA,682.3,0,2023_05
-119.538,73.231,THOMSEN RIVER,2503886,NT,-4.2,12,NA,6.7,12,-13.4,12,NA,NA,NA,0.5,13,NA,14,0,NA,NA,NA,421.6,0,2023_05
-119.347,76.238,MOULD BAY CS,250M001,NT,-6.4,3,NA,2.5,3,-15.1,3,NA,NA,NA,5.7,4,NA,104,2,NA,NA,NA,684.3,0,2023_05
-112.967,54.283,ABEE AGDM,3010010,AB,14,0,NA,30.4,0,-3.9,0,NA,NA,NA,38.4,15,NA,NA,4,NA,NA,NA,126,3.4,2023_05
-111.779,52.315,ALLIANCE AGCM,3010162,AB,14.6,0,NA,30,0,-3,0,NA,NA,NA,5.2,0,NA,NA,3,NA,NA,NA,113.6,6.7,2023_05
-112.279,53.917,ANDREW AGDM,3010237,AB,15.2,1,NA,30.9,1,-2.1,1,NA,NA,NA,29.5,5,NA,NA,7,NA,NA,NA,89.1,4.7,2023_05
-111.465,52.582,BELLSHILL AGCM,3010650,AB,15.6,1,NA,30.6,1,1,1,NA,NA,NA,18.1,2,NA,NA,1,NA,NA,NA,82.3,11,2023_05
-110.101,52.124,BODO AGDM,3010730,AB,15.2,1,NA,30.8,1,2.6,1,NA,NA,NA,32.9,1,NA,NA,3,NA,NA,NA,92.5,8.4,2023_05
-114.441,53.089,BRETON PLOTS,3010816,AB,14.6,0,NA,29.7,0,1.1,0,NA,NA,NA,41.3,0,NA,NA,8,NA,NA,NA,114.1,7.3,2023_05
-113.922,53.931,BUSBY AGCM,3010979,AB,15.1,1,NA,30.6,1,0.5,1,NA,NA,NA,35.7,1,NA,NA,5,NA,NA,NA,92,5.6,2023_05
-110.51,52.334,CADOGAN AGCM,3010992,AB,15.5,0,NA,30.9,0,2.2,0,NA,NA,NA,19,0,NA,NA,3,NA,NA,NA,86.4,7.9,2023_05
-112.817,53.05,CAMROSE,3011240,AB,14.7,0,4.2,30,0,-2.2,0,NA,NA,NA,20.8,0,50,NA,6,NA,NA,NA,107.3,3.8,2023_05
-110.713,51.937,CONSORT AGDM,3011815,AB,15,0,NA,30.2,0,0,0,NA,NA,NA,13.7,1,NA,NA,3,NA,NA,NA,101.6,7.7,2023_05
-111.449,52.074,CORONATION CLIMATE,3011887,AB,14.2,0,NA,29.7,0,-1.9,0,NA,NA,NA,12.8,0,NA,0,4,NA,NA,NA,122.6,3.9,2023_05
-113.903,52.733,CRESTOMERE AGCM,3011892,AB,13.7,0,NA,29.7,0,-1.7,0,NA,NA,NA,33.7,0,NA,NA,4,NA,NA,NA,133.4,1,2023_05
-113.176,52.183,DELBURNE AGCM,3012050,AB,15.1,1,NA,29.1,1,1.2,1,NA,NA,NA,30.8,1,NA,NA,4,NA,NA,NA,93.3,5,2023_05
-110.588,53.659,DEWBERRY AGCM,3012073,AB,15.4,0,NA,30.3,0,0,0,NA,NA,NA,8.5,2,NA,NA,3,NA,NA,NA,89.7,9.8,2023_05
-110.433,52.778,EDGERTON AGCM,3012192,AB,15.4,0,NA,30.6,0,0,0,NA,NA,NA,30,1,NA,NA,5,NA,NA,NA,90.1,9.3,2023_05
-113.606,53.307,EDMONTON INTERNATIONAL CS,3012206,AB,15.5,4,NA,31.1,4,-0.1,4,NA,NA,NA,14.4,4,NA,NA,3,NA,NA,NA,75,8.3,2023_05
-113.517,53.573,EDMONTON BLATCHFORD,3012209,AB,17.2,0,NA,30.8,0,4.5,0,NA,NA,NA,36,0,NA,NA,5,NA,NA,NA,54,28,2023_05
-113.579,53.31,EDMONTON INTL A,3012216,AB,15.2,0,NA,31.2,0,0.4,0,0,0,NA,20.7,0,NA,NA,5,NA,NA,NA,96.3,9.5,2023_05
-113.538,53.49,EDMONTON SOUTH CAMPUS,3012220,AB,16.6,3,NA,30,3,4.1,3,NA,NA,NA,28.2,3,NA,NA,5,NA,NA,NA,55.4,17,2023_05
-113.856,53.668,EDMONTON VILLENEUVE A,3012229,AB,15.3,0,NA,30.7,0,1,0,NA,NA,NA,22.9,0,NA,NA,4,NA,NA,NA,87.7,5.4,2023_05
-114.108,53.548,EDMONTON STONY PLAIN,301222F,AB,16.3,0,5.4,31,0,2.5,0,0,0,0.0,70.3,0,133,0,9,NA,NA,NA,68,13.9,2023_05
-112.868,53.683,ELK ISLAND NAT PARK,3012275,AB,15.5,0,4.9,28.2,0,2.9,0,NA,NA,NA,40,0,81,NA,7,NA,NA,NA,86.4,8.3,2023_05
-111,52.967,FABYAN,3012515,AB,15.3,0,5.1,29.5,0,2.5,0,0,0,0.0,26.8,0,60,0,7,NA,NA,NA,89,5.2,2023_05
-112.858,52.744,FERINTOSH AGCM,3012590,AB,14.8,0,NA,30.2,0,-0.8,0,NA,NA,NA,28.7,1,NA,NA,3,NA,NA,NA,104.8,5.6,2023_05
-111.813,52.041,FLEET AGCM,3012635,AB,13.9,1,NA,29.1,1,-2.5,1,NA,NA,NA,6.4,2,NA,NA,2,NA,NA,NA,124.3,2.3,2023_05
-112.12,52.467,FORESTBURG PLANT SITE,3012652,AB,16.1,9,4.4,32,4,1,9,0,2,NA,13.7,2,NA,0,4,NA,NA,NA,54.2,12.4,2023_05
-112.123,52.548,FORESTBURG AGCM,3012653,AB,15.1,0,NA,31,0,-3,0,NA,NA,NA,10.5,0,NA,NA,3,NA,NA,NA,97.5,7.5,2023_05
-113.183,53.717,FORT SASKATCHEWAN,3012710,AB,NA,NA,NA,NA,NA,5,16,0,16,NA,19.2,16,NA,NA,4,NA,NA,NA,NA,NA,2023_05
-110.621,53.071,GILT EDGE NORTH AGCM,3012790,AB,15.8,0,NA,30,0,2.9,0,NA,NA,NA,21.9,1,NA,NA,5,NA,NA,NA,79.5,12.6,2023_05
-114.32,53.295,ST. FRANCIS,3012799,AB,15.8,1,NA,29.6,1,2.9,1,NA,NA,NA,30,2,NA,NA,6,NA,NA,NA,75.6,11,2023_05
-112.278,52.987,GLADSTONE AGCM,3012810,AB,14.7,0,NA,30.4,0,-3.1,0,NA,NA,NA,14.4,2,NA,NA,4,NA,NA,NA,107.4,3.7,2023_05
-114.539,53.833,GLENEVIS AGCM,3012818,AB,15.2,0,NA,30.3,0,2.6,0,NA,NA,NA,NA,NA,NA,NA,NA,NA,NA,NA,96.4,9.6,2023_05
-110.803,52.113,GOOSEBERRY LAKE AGCM,3012871,AB,14.6,0,NA,30.5,0,-0.2,0,NA,NA,NA,11.1,2,NA,NA,2,NA,NA,NA,112.7,8.2,2023_05
-112.164,52.116,HALKIRK AGCM,3012999,AB,14.2,2,NA,28.8,2,-1.7,2,NA,NA,NA,10.8,3,NA,NA,4,NA,NA,NA,114.3,3.5,2023_05
-111.212,51.78,HEMARUKA AGCM,3013140,AB,14.3,0,NA,29.2,0,-11.6,0,NA,NA,NA,4.9,3,NA,NA,2,NA,NA,NA,118.9,5.7,2023_05
-112.246,53.185,HOLDEN AGDM,3013340,AB,14.4,0,NA,30.2,0,-4,0,NA,NA,NA,26.3,2,NA,NA,6,NA,NA,NA,112.2,1.5,2023_05
-110.784,52.578,HUGHENDEN AGCM,3013362,AB,15.7,1,NA,30.1,1,1.5,1,NA,NA,NA,18.5,2,NA,NA,4,NA,NA,NA,80,9.8,2023_05
-111.872,52.848,KILLAM AGDM,3013640,AB,14.9,0,NA,30.9,0,-3.2,0,NA,NA,NA,NA,NA,NA,NA,NA,NA,NA,NA,103.4,6.5,2023_05
-111.113,52.29,KESSLER AGCM,3013644,AB,15.2,1,NA,30.2,1,-0.4,1,NA,NA,NA,NA,NA,NA,NA,NA,NA,NA,NA,91.1,5.7,2023_05
-111.548,53.047,KINSELLA RESEARC STATION,3013647,AB,14.9,1,NA,30,1,-2.4,1,NA,NA,NA,23.1,1,NA,NA,5,NA,NA,NA,99.6,5.4,2023_05
-110.416,53.353,KITSCOTY AGCM,3013660,AB,15.5,1,NA,29.4,1,-13.9,1,NA,NA,NA,12.4,2,NA,NA,3,NA,NA,NA,86.3,12,2023_05
-113.474,54.003,LEGAL AGCM,3013790,AB,15.4,1,NA,30.4,1,-0.3,1,NA,NA,NA,30.3,2,NA,NA,5,NA,NA,NA,85.6,9,2023_05
-110.579,53.943,LINDBERGH AGDM,3013921,AB,14.7,2,NA,29.6,1,1,2,NA,NA,NA,5.1,2,NA,NA,2,NA,NA,NA,103.4,7,2023_05
-110.073,53.309,LLOYDMINSTER,3013959,AB,15.3,0,NA,29.7,0,1.9,0,NA,NA,NA,7.3,0,NA,NA,2,NA,NA,NA,93.3,8.9,2023_05
-110.073,53.309,LLOYDMINSTER A,3013961,AB,15.6,0,5.5,29.5,0,2,0,0,0,0.0,8,0,18,0,3,NA,NA,NA,83.4,10.4,2023_05
-111.255,53.456,MANNVILLE AGCM,3014195,AB,15.6,1,NA,30,1,1.3,1,NA,NA,NA,34.3,2,NA,NA,6,NA,NA,NA,79.4,8.3,2023_05
-110.55,52.017,MONITOR,3014600,AB,NA,NA,NA,NA,NA,NA,NA,0,0,0.0,23,0,62,0,6,NA,NA,NA,NA,NA,2023_05
-113.165,53.262,NEW SAREPTA AGCM,3014795,AB,15.1,1,NA,30.1,1,0,1,NA,NA,NA,13.7,4,NA,NA,4,NA,NA,NA,93.7,7,2023_05
-113.35,53.65,OLIVER AGDM,3014921,AB,15.8,2,NA,31.2,2,1.4,2,NA,NA,NA,NA,NA,NA,NA,NA,NA,NA,NA,72.9,8.8,2023_05
-111.726,53.425,RANFURLY AUTO,3015401,AB,15.9,0,NA,30.7,0,1.3,0,NA,NA,NA,36.1,0,NA,NA,6,NA,NA,NA,77.2,13.5,2023_05
-110.343,52.587,RIBSTONE SOUTH AGCM,3015480,AB,15.2,1,NA,30.5,1,3.1,1,NA,NA,NA,24.9,2,NA,NA,4,NA,NA,NA,90.4,7.6,2023_05
-110.102,53.019,RIVERCOURSE AGCM,3015501,AB,15.4,1,NA,29.9,1,2.9,1,NA,NA,NA,16.8,2,NA,NA,3,NA,NA,NA,85.1,6.2,2023_05
-114.912,52.421,ROCKY MTN HOUSE (AUT),3015523,AB,13.3,1,NA,29,1,-0.9,1,NA,NA,NA,76.3,1,NA,NA,9,NA,NA,NA,141,0,2023_05
-112.422,52.792,ROSALIND AGCM,3015600,AB,15,1,NA,30.6,1,-2.4,1,NA,NA,NA,12.4,5,NA,NA,2,NA,NA,NA,98.2,7.3,2023_05
-111.453,54.282,ST. LINA AGCM,3015673,AB,14.7,1,NA,31.9,1,-1.7,1,NA,NA,NA,20.9,9,NA,NA,4,NA,NA,NA,107.6,9.2,2023_05
-111.272,54.011,ST. PAUL AGCM,3015676,AB,15.2,1,NA,30,1,0,1,NA,NA,NA,36.8,2,NA,NA,5,NA,NA,NA,93,8.6,2023_05
-110.755,51.59,SEDALIA AGCM,3015797,AB,15.1,1,NA,29.3,1,0.8,1,NA,NA,NA,5.1,11,NA,NA,1,NA,NA,NA,94.1,7.4,2023_05
-112.539,53.333,SHONTS AGCM,3015900,AB,14.6,1,NA,31.1,1,-3.8,1,NA,NA,NA,18.8,1,NA,NA,5,NA,NA,NA,104.2,0.8,2023_05
-112.499,54.278,SMOKY LAKE AGDM,3016022,AB,15.1,1,NA,30.2,1,-1.4,1,NA,NA,NA,39.4,1,NA,NA,6,NA,NA,NA,92.5,6.5,2023_05
-111.683,51.816,SPONDIN AGCM,3016070,AB,14.2,1,NA,29,1,-2.3,1,NA,NA,NA,23.6,3,NA,NA,4,NA,NA,NA,119.3,4.1,2023_05
-112.596,52.347,STETTLER AGDM,3016124,AB,15.3,1,NA,30.2,1,-2.3,1,NA,NA,NA,9,5,NA,NA,2,NA,NA,NA,88.5,7.7,2023_05
-113.895,53.217,THORSBY AGCM,3016441,AB,14.8,2,NA,30.4,2,1.2,2,NA,NA,NA,16.3,4,NA,NA,3,NA,NA,NA,97.8,3.8,2023_05
-114.718,53.439,TOMAHAWK AGDM,3016505,AB,14.7,3,NA,30,3,1.4,3,NA,NA,NA,31.9,6,NA,NA,6,NA,NA,NA,99,6.3,2023_05
-110.081,53.664,TULLIBY LAKE AGCM,3016593,AB,15.1,1,NA,29.3,1,-15.8,1,NA,NA,NA,3.6,4,NA,NA,1,NA,NA,NA,96.7,10.1,2023_05
-113.033,53.5,UNCAS,3016650,AB,NA,NA,NA,NA,NA,NA,NA,0,0,NA,52.2,0,NA,0,7,NA,NA,NA,NA,NA,2023_05
-111.678,53.625,TWO HILLS AGDM,3016655,AB,15.9,2,NA,30.5,2,1.4,2,NA,NA,NA,36.3,2,NA,NA,6,NA,NA,NA,71.3,11.6,2023_05
-110.882,53.344,VERMILION AGDM,3016802,AB,15.6,2,NA,30.1,2,3,2,NA,NA,NA,9.7,3,NA,NA,2,NA,NA,NA,77,8.1,2023_05
-111.732,53.182,VIKING AGCM,3016841,AB,15.6,2,NA,30,2,-0.6,2,NA,NA,NA,15.7,2,NA,NA,4,NA,NA,NA,80,9.5,2023_05
-111.921,54.13,VILNA AGCM,3016852,AB,14.7,1,NA,30.3,1,-3.3,1,NA,NA,NA,15,2,NA,NA,4,NA,NA,NA,106.3,6.4,2023_05
-112.098,53.505,VEGREVILLE,3016GF0,AB,15,2,4.7,31.1,2,-2.7,2,NA,NA,NA,15.1,2,NA,NA,4,NA,NA,NA,91.2,5.2,2023_05
-113.444,52.98,WETASKIWIN AGCM,3017282,AB,14.8,2,NA,29.2,1,1,2,NA,NA,NA,21.3,3,NA,NA,3,NA,NA,NA,94.7,2.5,2023_05
-111.224,51.491,YOUNGSTOWN AGCM,3017705,AB,14.9,1,NA,29.5,1,-1.5,1,NA,NA,NA,8.6,3,NA,NA,1,NA,NA,NA,99.2,7.4,2023_05
-114.108,53.547,EDMONTON STONY PLAIN CS,301A001,AB,15.8,0,NA,30.4,0,2,0,NA,NA,NA,66.2,0,NA,NA,8,NA,NA,NA,78.3,9.9,2023_05
-110.206,51.67,ESTHER 1,301B460,AB,15.2,0,NA,30.9,0,0.2,0,NA,NA,NA,18,0,NA,NA,5,NA,NA,NA,94.4,8.8,2023_05
-111.096,52.829,WAINWRIGHT CFB AIRFIELD 21,301S001,AB,15.8,0,NA,30.7,0,1.2,0,NA,NA,NA,17.7,0,NA,NA,4,NA,NA,NA,79.8,12.4,2023_05
-113.821,54.308,PIBROCH AGCM,301X001,AB,14.6,1,NA,30.8,1,0,1,NA,NA,NA,31.2,3,NA,0,5,NA,NA,NA,104.8,3.9,2023_05
-110.025,53.358,LLOYDMINSTER LITE,301X003,AB,16.7,24,NA,30.4,24,6.1,24,NA,NA,NA,3.1,24,NA,0,1,NA,NA,NA,12.1,2.8,2023_05
-110.317,51.066,ACADIA VALLEY,3020035,AB,16.1,0,NA,33.3,0,1.9,0,NA,NA,NA,13.5,23,NA,NA,2,NA,NA,NA,76.5,16.9,2023_05
-111.006,50.81,ATLEE AGCM,3020405,AB,15.7,0,NA,30.7,0,0,0,NA,NA,NA,14,2,NA,NA,4,NA,NA,NA,83.9,11.2,2023_05
-113.357,51.379,BEISEKER AGCM,3020610,AB,13.9,0,NA,29.8,0,-1.8,0,NA,NA,NA,29.2,0,NA,NA,6,NA,NA,NA,127.3,0.8,2023_05
-112.803,51.998,BIG VALLEY AGCM,3020679,AB,15.2,0,NA,28.5,0,1.3,0,NA,NA,NA,31.2,3,NA,NA,4,NA,NA,NA,93.2,7.5,2023_05
-110.686,50.798,BUFFALO AGCM,3020950,AB,15.8,0,NA,31.3,0,0.4,0,NA,NA,NA,16.7,2,NA,NA,4,NA,NA,NA,80.7,12.5,2023_05
-111.221,51.024,CABIN LAKE AGCM,3021000,AB,15.2,0,NA,31,0,-0.8,0,NA,NA,NA,NA,NA,NA,NA,NA,NA,NA,NA,96,8.9,2023_05
-110.797,51.067,CAPPON,3021200,AB,15.3,0,NA,30.8,0,-0.2,0,NA,NA,NA,27.1,1,NA,NA,6,NA,NA,NA,93.1,8.6,2023_05
-110.824,51.276,CEREAL AGCM,3021463,AB,15.5,0,NA,30.5,0,-0.1,0,NA,NA,NA,10.3,7,NA,NA,2,NA,NA,NA,88.8,10,2023_05
-112.252,51.775,CRAIGMYLE AGCM,3021912,AB,13.9,1,NA,29.1,1,-11.6,1,NA,NA,NA,27.8,3,NA,NA,2,NA,NA,NA,126.5,3.9,2023_05
-112.677,51.445,DRUMHELLER EAST,30221LG,AB,16.9,0,NA,31.4,0,2.1,0,NA,NA,NA,15.4,0,NA,NA,1,NA,NA,NA,55.8,20.4,2023_05
-112.097,51.053,FINNEGAN AGCM,3022650,AB,14.6,0,NA,30.5,0,-1,0,NA,NA,NA,NA,NA,NA,NA,NA,NA,NA,NA,110.3,5.3,2023_05
-112.135,51.453,HAND HILLS AGCM,3022990,AB,14.3,0,NA,28.9,0,-1.9,0,NA,NA,NA,14,0,NA,NA,2,NA,NA,NA,121.6,6.8,2023_05
-114.486,52.31,HESPERO AGCM,3023200,AB,13.7,3,NA,28.9,3,-0.2,3,NA,NA,NA,20.4,6,NA,NA,3,NA,NA,NA,120.4,0,2023_05
-112.5,51.183,HUSSAR AGDM,3023402,AB,14.4,1,NA,28.7,1,0.7,1,NA,NA,NA,11,1,NA,NA,4,NA,NA,NA,112,3.3,2023_05
-110.359,51.913,KIRRIEMUIR AGCM,3023660,AB,15.4,1,NA,29.6,1,1.1,1,NA,NA,NA,10,9,NA,NA,3,NA,NA,NA,87.3,8.9,2023_05
-113.756,52.449,LACOMBE CDA 2,3023722,AB,14.6,0,NA,29.6,0,0,0,NA,NA,NA,26.9,0,NA,NA,3,NA,NA,NA,110.7,4.2,2023_05
-114.473,52.553,LEEDALE AGDM,3023740,AB,13.1,1,NA,28.9,1,-2.5,1,NA,NA,NA,24.6,2,NA,NA,4,NA,NA,NA,146,0.1,2023_05
-113.656,51.619,LINDEN AGCM,3023850,AB,13.6,2,NA,28.8,2,-2.1,2,NA,NA,NA,28.4,2,NA,NA,5,NA,NA,NA,127.7,0,2023_05
-110.341,49.458,LODGE CREEK,3023900,AB,13,1,NA,27.5,1,0.2,1,NA,NA,NA,29.3,2,NA,NA,6,NA,NA,NA,149.2,0,2023_05
-112.675,51.66,MORRIN AGDM,3024668,AB,15.1,1,NA,29.4,1,-1.1,1,NA,NA,NA,18.5,2,NA,NA,2,NA,NA,NA,94.1,5.6,2023_05
-114.085,51.759,OLDS AGDM,3024925,AB,13.9,2,NA,28.2,1,-0.6,2,NA,NA,NA,31.3,3,NA,NA,5,NA,NA,NA,119,0,2023_05
-110.35,51.383,OYEN AGDM,3024965,AB,15.3,1,NA,30.7,1,1.2,1,NA,NA,NA,13.6,5,NA,NA,2,NA,NA,NA,91.4,11.7,2023_05
-111.621,50.74,PATRICIA AGCM,3025013,AB,15.6,1,NA,31.5,1,-0.2,1,NA,NA,NA,14.3,3,NA,NA,3,NA,NA,NA,84.7,11.9,2023_05
-111.705,51.125,POLLOCKVILLE AGDM,3025243,AB,14.9,2,NA,30.8,2,-2.8,2,NA,NA,NA,2.8,2,NA,NA,1,NA,NA,NA,92.6,3.5,2023_05
-113.6,52.433,PRENTISS,3025297,AB,14.3,6,NA,27.6,6,0.4,6,NA,NA,NA,24.6,7,NA,NA,6,NA,NA,NA,94.1,1.1,2023_05
-113.894,52.182,RED DEER REGIONAL A,3025484,AB,14.4,0,NA,29.1,0,0.1,0,NA,NA,NA,26.6,0,NA,NA,6,NA,NA,NA,113.4,1.2,2023_05
-113.62,53.692,ST. ALBERT RESEARCH STATION,3025750,AB,15.6,0,NA,31,0,0,0,NA,NA,NA,23.2,0,NA,NA,3,NA,NA,NA,87.8,14.2,2023_05
-110.091,50.307,SCHULER AGDM,3025768,AB,15.1,1,NA,30.6,1,1.4,1,NA,NA,NA,26.2,2,NA,NA,5,NA,NA,NA,96.1,10.1,2023_05
-111.646,51.463,SHEERNESS AGCM,3025890,AB,15.1,1,NA,29,1,-1,1,NA,NA,NA,10,4,NA,NA,3,NA,NA,NA,94.6,8.5,2023_05
-111.388,51.301,SUNNYNOOK AGCM,3026264,AB,14.4,1,NA,29.7,1,-3.9,1,NA,NA,NA,6.2,2,NA,NA,2,NA,NA,NA,112.7,3.2,2023_05
-113.206,51.768,THREE HILLS,3026479,AB,13.9,1,NA,29.6,1,-4.5,1,NA,NA,NA,18.6,1,NA,NA,3,NA,NA,NA,125.1,2.6,2023_05
-111.955,50.895,VERGER,3026800,AB,15,2,NA,30.7,2,0,2,NA,NA,NA,14.5,8,NA,NA,3,NA,NA,NA,93.4,5.4,2023_05
-114.683,51.778,SUNDRE A,3026KNQ,AB,12.9,4,NA,28.2,4,-2.1,4,NA,NA,NA,0.8,26,NA,0,0,NA,NA,NA,138.5,0,2023_05
-113.591,51.936,WIMBORNE AGCM,3027582,AB,14,1,NA,28.9,1,-2.7,1,NA,NA,NA,27.3,1,NA,NA,6,NA,NA,NA,120.7,0.8,2023_05
-113.434,49.528,ARDENVILLE,3030200,AB,14.1,0,NA,29,0,1.3,0,NA,NA,NA,22.3,0,NA,NA,5,NA,NA,NA,126.6,4.5,2023_05
-114.013,50.512,AZURE,3030450,AB,14.1,0,NA,29.6,0,0.7,0,NA,NA,NA,13,0,NA,NA,3,NA,NA,NA,126,3.6,2023_05
-112.3,49.8,BARNWELL AGDM,3030525,AB,15.3,0,NA,32.4,0,0,0,NA,NA,NA,11.1,1,NA,NA,3,NA,NA,NA,92.9,9.3,2023_05
-113.224,50.026,BARONS AGCM,3030529,AB,14.7,1,NA,30.9,1,1,1,NA,NA,NA,13.1,1,NA,NA,2,NA,NA,NA,101.5,3.7,2023_05
-112.465,50.893,BASSANO AGCM,3030540,AB,14.5,0,NA,30.3,0,-0.5,0,NA,NA,NA,21,3,NA,NA,2,NA,NA,NA,112.8,4.2,2023_05
-114.152,50.707,BLACK DIAMOND,3030680,AB,13.3,0,NA,29.1,0,-0.4,0,NA,NA,NA,15.3,0,NA,NA,4,NA,NA,NA,146.2,0,2023_05
-113.64,50.546,BLACKIE AGCM,3030690,AB,13.3,0,NA,30,0,-1,0,NA,NA,NA,8.5,0,NA,NA,3,NA,NA,NA,145.3,0.7,2023_05
-113.05,49.567,BLOOD TRIBE AGDM,3030720,AB,14.2,0,NA,30,0,-0.5,0,NA,NA,NA,14.4,6,NA,NA,3,NA,NA,NA,121.4,3.3,2023_05
-111.45,49.734,BOW ISLAND,3030768,AB,16,0,NA,30.9,0,2.4,0,NA,NA,NA,42.2,0,NA,NA,4,NA,NA,NA,78.6,16,2023_05
-113.817,49.617,BROCKET AGDM,3030830,AB,NA,NA,NA,NA,NA,NA,NA,NA,NA,NA,6.5,0,NA,NA,2,NA,NA,NA,NA,NA,2023_05
-110.484,50.339,BULL SPRINGS AGCM,3030879,AB,15.8,1,NA,30.3,1,1.3,1,NA,NA,NA,8.7,9,NA,NA,2,NA,NA,NA,81.5,14.9,2023_05
-111.849,50.555,BROOKS,3030QLP,AB,15.5,0,NA,31.8,0,-0.8,0,NA,NA,NA,12.6,0,NA,NA,2,NA,NA,NA,88.7,10.4,2023_05
-114.013,51.123,CALGARY INTL A,3031092,AB,14.9,0,NA,29.7,0,3,0,0,0,NA,30.4,0,NA,NA,2,NA,NA,NA,100.8,3.6,2023_05
-114,51.109,CALGARY INT'L CS,3031094,AB,14.3,0,NA,29.5,0,1.9,0,NA,NA,NA,25,0,NA,0,2,NA,NA,NA,116.5,1.7,2023_05
-114.371,51.105,CALGARY SPRINGBANK A,3031109,AB,12.6,0,NA,27.9,0,-1.3,0,NA,NA,NA,53.7,0,NA,NA,7,NA,NA,NA,167.1,0,2023_05
-113.286,49.201,CARDSTON,3031322,AB,14.2,2,NA,29.2,2,2,2,NA,NA,NA,18.4,2,NA,NA,2,NA,NA,NA,116.6,5.6,2023_05
-113.376,49.001,CARWAY,3031402,AB,12.7,12,NA,26.4,12,1.6,12,NA,NA,NA,21,12,NA,NA,4,NA,NA,NA,100.9,0,2023_05
-113.35,50.282,CHAMPION AGDM,3031480,AB,14.4,0,NA,30.7,0,-0.5,0,NA,NA,NA,6.9,0,NA,NA,4,NA,NA,NA,114.7,1.7,2023_05
-113.639,50.004,CLARESHOLM,3031640,AB,14.7,0,NA,30.5,0,0.1,0,NA,NA,NA,7,0,NA,NA,1,NA,NA,NA,110.3,7.6,2023_05
-114.222,51.076,COP UPPER,3031875,AB,15.1,0,NA,29.3,0,3.6,0,NA,NA,NA,14.4,0,NA,NA,3,NA,NA,NA,98.6,8.1,2023_05
-112.433,50.183,ENCHANT AGDM,3032422,AB,14.9,0,NA,30.3,0,1.6,0,NA,NA,NA,10,0,NA,NA,2,NA,NA,NA,102.5,5.1,2023_05
-112.033,49.8,FINCASTLE AGDM,3032550,AB,16.3,2,NA,32.7,2,1.8,2,NA,NA,NA,12.3,4,NA,NA,4,NA,NA,NA,65.4,15,2023_05
-111.486,49.483,FOREMOST AGDM,3032642,AB,14.9,0,NA,29.9,0,1.8,0,NA,NA,NA,34.7,2,NA,NA,4,NA,NA,NA,100.5,4.4,2023_05
-113.379,49.786,FORT MACLEOD AGCM,3032683,AB,14.6,1,NA,30.5,1,0.8,1,NA,NA,NA,4.2,2,NA,NA,1,NA,NA,NA,107.6,4.8,2023_05
-112.941,50.934,GLEICHEN AGCM,3032801,AB,14.7,2,NA,29.6,2,-0.1,2,NA,NA,NA,9.9,2,NA,NA,2,NA,NA,NA,98.2,2.4,2023_05
-111.733,49.874,GRASSY LAKE,3032927,AB,16.3,0,NA,32.4,0,0.4,0,NA,NA,NA,14.7,0,NA,NA,3,NA,NA,NA,70.4,17.6,2023_05
-112.733,49.9,IRON SPRINGS AGDM,3033498,AB,14,18,NA,29.2,18,3.5,18,NA,NA,NA,3,20,NA,NA,1,NA,NA,NA,52.4,0,2023_05
-114.292,50.869,PRIDDIS OBSERVATORY,3033505,AB,13.9,2,NA,28,2,1.9,2,NA,NA,NA,23.4,2,NA,NA,4,NA,NA,NA,121,2.7,2023_05
-110.261,49.989,IRVINE AGCM,3033550,AB,15.7,2,NA,31.1,2,2.3,2,NA,NA,NA,22.1,4,NA,NA,4,NA,NA,NA,79.4,14.1,2023_05
-113.631,51.191,KEOMA AGCM,3033620,AB,13.9,2,NA,30,2,-2.5,2,NA,NA,NA,12.6,11,NA,NA,1,NA,NA,NA,121.7,2.5,2023_05
-112.299,50.6,LATHOM AGCM,3033770,AB,14.7,0,NA,30.7,0,-1.6,0,NA,NA,NA,4.9,16,NA,NA,2,NA,NA,NA,108.3,7.2,2023_05
-112.799,49.63,LETHBRIDGE,3033875,AB,14.4,2,NA,30.6,2,0.7,2,NA,NA,NA,15.6,2,NA,NA,4,NA,NA,NA,108.4,2.8,2023_05
-112.763,49.647,LETHBRIDGE AGTECH AGCM,3033877,AB,14.9,0,NA,30.5,0,0,0,NA,NA,NA,15.3,16,NA,NA,4,NA,NA,NA,102.7,6.6,2023_05
-112.768,49.695,LETHBRIDGE CDA,3033890,AB,15.6,2,NA,32,2,2.3,2,NA,NA,NA,NA,NA,NA,NA,NA,NA,NA,NA,78.6,10.3,2023_05
-112.783,49.7,LETHBRIDGE CDA 2,3033892,AB,NA,NA,NA,NA,NA,NA,NA,0,0,NA,25,0,NA,0,6,NA,NA,NA,NA,NA,2023_05
-112.75,49.683,LETHBRIDGE DEMO FARM AGDM,3033897,AB,15.6,1,NA,31.7,1,2.2,1,NA,NA,NA,8,15,NA,NA,3,NA,NA,NA,82,10.1,2023_05
-110.721,50.019,MEDICINE HAT,3034479,AB,16.2,0,NA,31.8,0,2.7,0,NA,NA,NA,61,4,NA,NA,2,NA,NA,NA,76.1,19.6,2023_05
-110.717,50.025,MEDICINE HAT RCS,3034485,AB,16.4,0,NA,32.1,0,3.5,0,NA,NA,NA,NA,NA,NA,NA,NA,NA,NA,NA,71.4,21.1,2023_05
-113.349,50.673,MOSSLEIGH AGCM,3034577,AB,14.3,1,NA,30.2,1,-2.1,1,NA,NA,NA,5.7,1,NA,NA,2,NA,NA,NA,114.5,3.9,2023_05
-114.099,51.369,NIER AGDM,3034795,AB,13.6,1,NA,27.8,1,0.2,1,NA,NA,NA,30.5,2,NA,NA,5,NA,NA,NA,133.1,0.3,2023_05
-113.997,49.521,PINCHER CREEK,3035198,AB,13.6,4,NA,28.3,4,0.6,4,NA,NA,NA,26,0,NA,NA,6,NA,NA,NA,118.3,0.8,2023_05
-114.005,49.522,PINCHER CREEK CLIMATE,3035208,AB,13.3,2,NA,27.8,2,0.7,2,NA,NA,NA,11.8,2,NA,NA,4,NA,NA,NA,135.5,0.4,2023_05
-112.983,50.606,QUEENSTOWN,3035340,AB,15.1,0,4.4,30,0,0,0,0,0,0.0,5.6,0,10,0,2,NA,NA,NA,99.3,8.9,2023_05
-112.803,50.598,QUEENSTOWN,3035342,AB,15.3,2,NA,30.7,2,1.4,2,NA,NA,NA,7.8,2,NA,NA,2,NA,NA,NA,84.3,7.1,2023_05
-112.117,50.367,RAINIER AGCM,3035355,AB,15.8,2,NA,31.9,2,2.1,2,NA,NA,NA,8.3,3,NA,NA,2,NA,NA,NA,73.6,10.5,2023_05
-111.213,50.099,RALSTON AGCM,3035362,AB,15.9,1,NA,31.4,1,0.1,1,NA,NA,NA,13.4,5,NA,NA,4,NA,NA,NA,79,16.2,2023_05
-112.683,49.483,RAYMOND AGDM,3035422,AB,15,1,NA,30.6,1,0.3,1,NA,NA,NA,13.2,1,NA,NA,3,NA,NA,NA,97.6,8.1,2023_05
-111.701,50.265,ROLLING HILLS AGCM,3035530,AB,15.3,1,NA,32.8,1,-1.5,1,NA,NA,NA,4.3,9,NA,NA,1,NA,NA,NA,91.1,10.2,2023_05
-112.05,50.833,ROSEMARY AGDM,3035650,AB,14.7,1,NA,31.2,1,-2.2,1,NA,NA,NA,15.6,3,NA,NA,4,NA,NA,NA,104.6,6.1,2023_05
-110.917,49.917,SEVEN PERSONS AGDM,3035845,AB,15.4,1,NA,30.6,1,0,1,NA,NA,NA,18.2,3,NA,NA,4,NA,NA,NA,87,10,2023_05
-110.215,50.732,SOCIAL PLAINS AGCM,3036040,AB,15.9,1,NA,30.9,1,0.1,1,NA,NA,NA,30.3,1,NA,NA,4,NA,NA,NA,76.9,14.6,2023_05
-112.982,51.228,STANDARD AGCM,3036086,AB,15.4,1,NA,29.4,1,2,1,NA,NA,NA,2.7,18,NA,NA,2,NA,NA,NA,85,6,2023_05
-113.883,50.183,STAVELY AAFC,3036099,AB,13.8,1,NA,26.8,1,2.3,1,NA,NA,NA,23.6,1,NA,NA,3,NA,NA,NA,128.2,2.5,2023_05
-113.283,51.033,STRATHMORE AGDM,3036205,AB,14.8,1,NA,28.5,1,0,1,NA,NA,NA,3.9,15,NA,NA,1,NA,NA,NA,97.8,2.6,2023_05
-112.124,49.792,TABER,3036360,AB,15.9,18,NA,32.5,12,3.5,12,0,12,NA,14.4,12,NA,NA,4,NA,NA,NA,31.6,4.8,2023_05
-111.321,50.456,TIDE LAKE AGCM,3036485,AB,15.8,1,NA,32.2,1,1.8,1,NA,NA,NA,10.4,3,NA,NA,3,NA,NA,NA,80.8,13.8,2023_05
-112.133,50.05,VAUXHALL CDA CS,3036682,AB,15.4,1,NA,31.9,1,1,1,NA,NA,NA,NA,NA,NA,NA,NA,NA,NA,NA,86.6,9,2023_05
-112.117,49.5,WRENTHAM AGDM,3037675,AB,14.8,1,NA,30.9,1,0,1,NA,NA,NA,16.9,1,NA,NA,4,NA,NA,NA,103.1,7.3,2023_05
-113.961,50.729,OKOTOKS,303M9JM,AB,15.4,0,5.6,30.5,0,2.5,0,0,0,0.0,47,0,67,0,6,NA,NA,NA,88,8,2023_05
-112.817,49.05,DEL BONITA AGDM,3042045,AB,12.7,0,NA,28,0,0.9,0,NA,NA,NA,32.4,1,NA,NA,6,NA,NA,NA,164.5,0,2023_05
-110.678,49.364,MANYBERRIES AGCM,3044203,AB,14.2,1,NA,28.9,1,-1.8,1,NA,NA,NA,35.5,2,NA,NA,5,NA,NA,NA,116.8,3.6,2023_05
-111.652,49.137,MASINASIN AGDM,3044232,AB,15,1,NA,30.3,1,1.2,1,NA,NA,NA,21.6,1,NA,NA,4,NA,NA,NA,96.7,7,2023_05
-112.05,49.133,MILK RIVER,3044533,AB,14.2,4,NA,29.4,4,0.6,4,NA,NA,NA,35.3,4,NA,NA,4,NA,NA,NA,106.1,2.9,2023_05
-110.467,49.117,ONEFOUR CDA,3044923,AB,14.4,3,NA,28.2,3,2.1,3,NA,NA,NA,39.8,6,NA,NA,6,NA,NA,NA,101.6,1.6,2023_05
-111.126,49.225,PAKOWKI LAKE AGCM,3045000,AB,15,1,NA,30.3,1,-10.5,1,NA,NA,NA,15.9,2,NA,NA,4,NA,NA,NA,95.6,6.4,2023_05
-111.025,49.029,PINHORN AGCM,3045100,AB,14.2,1,NA,28.9,1,0,1,NA,NA,NA,21.7,3,NA,NA,3,NA,NA,NA,119.9,6.1,2023_05
-112.16,49.283,WARNER AGCM,3046951,AB,14.7,1,NA,29.9,1,0,1,NA,NA,NA,36,4,NA,NA,6,NA,NA,NA,106,7.5,2023_05
-115.552,51.193,BANFF CS,3050519,AB,12,0,NA,27.4,0,-1,0,NA,NA,NA,31.3,0,NA,NA,6,NA,NA,NA,184.6,0,2023_05
-114.175,49.468,BEAVER MINES,3050602,AB,12.9,0,NA,27.7,0,-0.2,0,NA,NA,NA,27.8,0,NA,NA,6,NA,NA,NA,158.8,0,2023_05
-115.067,51.083,BOW VALLEY,3050778,AB,13,0,NA,28.6,0,-2.3,0,NA,NA,NA,27.5,0,NA,NA,4,NA,NA,NA,156.5,1.3,2023_05
-114.482,49.628,CROWSNEST,3051R4R,AB,11.2,0,NA,27.2,0,-2.5,0,NA,NA,NA,38.4,8,NA,NA,8,NA,NA,NA,211.3,0,2023_05
-118.03,52.926,JASPER WARDEN,3053536,AB,12.9,1,NA,30.8,1,-2.1,1,NA,NA,NA,66,1,NA,NA,5,NA,NA,NA,154.2,0.1,2023_05
-115.035,51.028,KANANASKIS,3053600,AB,12.7,0,5,28,0,-1,0,0,0,0.0,41.4,0,47,0,6,NA,NA,NA,165,0.3,2023_05
-116.04,52.492,NORDEGG CS,3054843,AB,12,1,NA,28.6,1,-2,1,NA,NA,NA,89.5,1,NA,NA,7,NA,NA,NA,180.4,0,2023_05
-114.416,50.368,PEKISKO,3055119,AB,11.5,7,NA,28.3,7,-0.5,7,NA,NA,NA,17.8,8,NA,NA,7,NA,NA,NA,155.5,0,2023_05
-113.809,49.131,WATERTON PARK GATE,3056214,AB,12.4,0,NA,28,0,-0.8,0,NA,NA,NA,25.4,0,NA,0,5,NA,NA,NA,175.4,1.1,2023_05
-115.787,54.144,WHITECOURT A,3057376,AB,14.3,0,NA,30,0,1.8,0,NA,NA,NA,NA,NA,NA,NA,NA,NA,NA,NA,119.5,3.7,2023_05
-115.19,50.943,NAKISKA RIDGETOP,305MGFF,AB,7.2,0,NA,17.8,0,-2.5,0,NA,NA,NA,NA,NA,NA,NA,NA,NA,NA,NA,334.6,0,2023_05
-113.382,54.635,ATHABASCA AGCM,3060330,AB,15.1,0,NA,30.2,0,-1,0,NA,NA,NA,46.2,0,NA,NA,7,NA,NA,NA,101.7,11.4,2023_05
-112.825,54.782,ATMORE AGDM,3060406,AB,14.5,0,NA,31.6,0,-2.8,0,NA,NA,NA,62.8,7,NA,NA,9,NA,NA,NA,114,5.9,2023_05
-114.448,54.095,BARRHEAD CS,3060535,AB,14.8,0,NA,32.2,0,1.1,0,NA,NA,NA,60,0,NA,NA,5,NA,NA,NA,102.2,4.4,2023_05
-117.867,53.35,BRULE BLACK CAT,3060903,AB,12.8,7,5,31.5,5,-1.5,5,0,4,NA,70.2,4,NA,0,12,NA,NA,NA,124.2,0,2023_05
-114.678,54.131,CAMPSIE AUTO,3061201,AB,14.2,0,NA,31.8,0,-0.4,0,NA,NA,NA,50.9,0,NA,NA,5,NA,NA,NA,120.4,1.1,2023_05
-115.894,53.623,CARROT CREEK,3061350,AB,12.7,0,NA,29.1,0,-1.6,0,NA,NA,NA,39.1,0,NA,NA,7,NA,NA,NA,164.6,0,2023_05
-116.465,53.579,EDSON,3062239,AB,12.8,2,NA,28.1,2,-1.4,2,NA,NA,NA,56.7,2,NA,NA,8,NA,NA,NA,151,0,2023_05
-116.453,53.58,EDSON CLIMATE,3062246,AB,12.5,0,NA,28.2,0,-1.2,0,NA,NA,NA,74.4,0,NA,NA,9,NA,NA,NA,169.2,0,2023_05
-114.983,53.6,ENTWISTLE,3062451,AB,15.7,9,5.4,31,9,3,9,0,9,NA,29,9,NA,0,8,NA,NA,NA,54.5,4,2023_05
-115.062,53.614,EVANSBURG2 AGCM,3062476,AB,13,0,NA,30.2,0,-2.4,0,NA,NA,NA,28.2,0,NA,NA,8,NA,NA,NA,155,0,2023_05
-114.769,54.41,FORT ASSINIBOINE AGCM,3062660,AB,14.6,1,NA,31.1,1,2.9,1,NA,NA,NA,43.8,3,NA,NA,6,NA,NA,NA,103.5,2.4,2023_05
-111.213,56.651,FORT MCMURRAY CS,3062696,AB,15.4,1,NA,32.5,1,-1,1,NA,NA,NA,4.2,1,NA,NA,1,NA,NA,NA,92.4,14.8,2023_05
-111.223,56.653,FORT MCMURRAY A,3062697,AB,15.7,0,NA,32.2,0,-1,0,NA,NA,NA,1.9,0,NA,NA,1,NA,NA,NA,89.2,16.4,2023_05
-118.447,53.795,HENDRICKSON CREEK,3063135,AB,8.7,0,NA,28.6,0,-5.1,0,NA,NA,NA,62.8,0,NA,1,10,NA,NA,NA,289.3,0,2023_05
-116.479,55.396,HIGH PRAIRIE AGDM,3063165,AB,13.7,1,NA,29.9,1,-1.5,1,NA,NA,NA,29.6,26,NA,NA,2,NA,NA,NA,131,0.8,2023_05
-113.543,54.821,ISLAND LAKE SOUTH,3063600,AB,15,0,NA,31.5,0,0.2,0,NA,NA,NA,42.2,0,NA,NA,9,NA,NA,NA,101.3,6.9,2023_05
-112.981,54.563,KINIKINIK,3063640,AB,15.6,0,NA,31.1,0,-1,0,NA,NA,NA,45.4,13,NA,NA,5,NA,NA,NA,85.9,11.3,2023_05
-112.024,54.769,LAC LA BICHE CLIMATE,3063686,AB,15.5,8,NA,31,8,3.3,8,NA,NA,NA,NA,NA,NA,NA,NA,NA,NA,NA,64.5,6.1,2023_05
-113.321,54.964,PLEASANT VIEW,3065200,AB,14.9,1,NA,30.7,1,2.4,1,NA,NA,NA,59,2,NA,NA,7,NA,NA,NA,102.3,8.6,2023_05
-111.7,54.5,RICH LAKE AGDM,3065475,AB,14.1,1,NA,30.4,1,-2.1,1,NA,NA,NA,31,3,NA,NA,5,NA,NA,NA,124.5,6.3,2023_05
-111.835,53.851,ISPAS,3065712,AB,15.5,0,NA,30.2,0,-0.3,0,NA,NA,NA,36.2,0,NA,NA,5,NA,NA,NA,88.7,10.4,2023_05
-114.777,55.293,SLAVE LAKE,3065995,AB,14.4,1,NA,31,1,3.2,1,NA,NA,NA,71.4,1,NA,NA,6,NA,NA,NA,115.9,6.4,2023_05
-114.777,55.293,SLAVE LAKE RCS,3065997,AB,13.9,0,NA,30.9,0,3.2,0,NA,NA,NA,62.5,0,NA,NA,6,NA,NA,NA,131.1,5,2023_05
-113.52,54.3,TAWATINAW AGCM,3066367,AB,15.7,1,NA,30.9,1,1.6,1,NA,NA,NA,55.4,9,NA,NA,5,NA,NA,NA,79.4,11,2023_05
-118.348,53.386,WILLOW CREEK 1,306GE70,AB,9.6,4,NA,27.2,4,-3.6,4,NA,NA,NA,45.9,4,NA,2,6,NA,NA,NA,226.2,0,2023_05
-113.941,54.683,DUCK LAKE AGCM,306X001,AB,13.5,3,NA,31.2,3,-2.4,3,NA,NA,NA,40.3,3,NA,0,6,NA,NA,NA,128.3,2.2,2023_05
-117.236,55.577,BALLATER AGCM,3070495,AB,15,1,NA,30.9,1,1.4,1,NA,NA,NA,68.1,2,NA,NA,6,NA,NA,NA,101.5,10.1,2023_05
-119.396,55.197,BEAVERLODGE RCS,3070600,AB,14.7,0,NA,29.8,0,3.1,0,NA,NA,NA,46.7,0,NA,0,3,NA,NA,NA,107.5,4.2,2023_05
-117.886,56.118,BROWNVALE AGCM,3070800,AB,13.9,0,NA,30.4,0,0.8,0,NA,NA,NA,58.1,0,NA,NA,5,NA,NA,NA,129.9,4.1,2023_05
-117.933,56.529,CLEAR HILLS AGCM,3071661,AB,13.4,0,NA,30.6,0,-0.2,0,NA,NA,NA,46.2,2,NA,NA,4,NA,NA,NA,143.2,1,2023_05
-117.543,56.715,DEADWOOD AGCM,3071957,AB,14.7,0,NA,31.3,0,2.2,0,NA,NA,NA,52.7,0,NA,NA,5,NA,NA,NA,113.6,10.2,2023_05
-117.887,55.808,EAGLESHAM AGCM,3072151,AB,14.7,1,NA,31.3,0,0.7,1,NA,NA,NA,96.2,2,NA,NA,6,NA,NA,NA,107.5,9.7,2023_05
-118.439,56.081,FAIRVIEW AGDM,3072525,AB,14.6,0,NA,30.8,0,0.3,0,NA,NA,NA,42.9,9,NA,NA,3,NA,NA,NA,113.6,9.3,2023_05
-111.117,58.767,FORT CHIPEWYAN,3072655,AB,15,0,NA,29.3,0,1.6,0,NA,NA,NA,4.3,0,NA,NA,2,NA,NA,NA,106.5,12.7,2023_05
-111.117,58.767,FORT CHIPEWYAN RCS,3072659,AB,15.1,0,NA,29.7,0,1.7,0,NA,NA,NA,3.8,0,NA,NA,2,NA,NA,NA,102.7,12.6,2023_05
-116.04,58.382,FORT VERMILION,3072723,AB,15.7,0,NA,30.7,0,2.5,0,NA,NA,NA,6.5,0,NA,NA,1,NA,NA,NA,79.8,8.7,2023_05
-118.885,55.18,GRANDE PRAIRIE A,3072921,AB,14.3,0,NA,29.9,0,2,0,0,0,NA,39.1,0,NA,NA,2,NA,NA,NA,115.5,2,2023_05
-117.298,57.265,HAWK HILLS AGCM,3073071,AB,14.2,1,NA,31.8,1,-0.5,1,NA,NA,NA,15.3,1,NA,NA,3,NA,NA,NA,122.1,8.2,2023_05
-117.165,58.622,HIGH LEVEL A,3073140,AB,14.1,0,NA,30.5,0,-1,0,NA,NA,NA,3.7,0,NA,NA,1,NA,NA,NA,125.3,4.1,2023_05
-117.164,58.631,HIGH LEVEL,3073148,AB,12.9,3,NA,30.5,3,-2.7,3,NA,NA,NA,4,3,NA,NA,1,NA,NA,NA,143.4,1.6,2023_05
-117.12,55.913,JEAN COTE AGCM,3073535,AB,15.2,0,NA,30.8,0,3.4,0,NA,NA,NA,97,0,NA,NA,8,NA,NA,NA,103,14.7,2023_05
-117.677,57.788,KEG RIVER AGCM,3073644,AB,14,1,NA,30.8,1,-2,1,NA,NA,NA,6.1,9,NA,NA,1,NA,NA,NA,127.4,6,2023_05
-116.343,58.172,LA CRETE AGCM,3073730,AB,15.8,1,NA,31.5,1,3.3,1,NA,NA,NA,8.3,1,NA,NA,1,NA,NA,NA,81.5,15.2,2023_05
-119.255,55.422,LA GLACE AGCM,3073740,AB,13.3,0,NA,30.4,0,-0.3,0,NA,NA,NA,32.8,17,NA,NA,4,NA,NA,NA,146.1,0.9,2023_05
-117.451,56.974,MANNING AGDM,3074190,AB,13.9,1,NA,32.1,1,-1.2,1,NA,NA,NA,NA,NA,NA,NA,NA,NA,NA,NA,127.4,5.6,2023_05
-119.745,56.314,CLEARDALE AGDM,3074935,AB,14.8,0,NA,30.1,0,1.8,0,NA,NA,NA,43.2,4,NA,NA,2,NA,NA,NA,106,7.2,2023_05
-117.448,56.227,PEACE RIVER A,3075041,AB,13.6,2,NA,30.1,2,-0.8,2,0,0,NA,72.4,0,NA,NA,6,NA,NA,NA,131.4,4.6,2023_05
-117.452,56.193,ROMA,3075043,AB,14.6,0,NA,30.4,0,0.6,0,NA,NA,NA,73.2,0,NA,NA,6,NA,NA,NA,112,6.4,2023_05
-118.293,55.621,PEORIA AGDM,3075160,AB,14.2,1,NA,31.1,1,0.2,1,NA,NA,NA,77,13,NA,NA,3,NA,NA,NA,118.2,4.6,2023_05
-115.278,56.552,RED EARTH,3075488,AB,14.1,0,NA,31.2,0,0,0,NA,NA,NA,38,0,NA,NA,3,NA,NA,NA,125.6,6.2,2023_05
-116.481,58.452,ROCKY LANE AGCM,3075550,AB,15.1,1,NA,30.7,1,0.1,1,NA,NA,NA,6.1,2,NA,NA,1,NA,NA,NA,91.9,5.9,2023_05
-118.668,55.777,RYCROFT AGCM,3075601,AB,14.7,1,NA,32.1,1,0.6,1,NA,NA,NA,60.4,2,NA,NA,3,NA,NA,NA,102.6,4.2,2023_05
-119.345,56.076,SAVANNA AGCM,3075770,AB,14.2,1,NA,30.7,1,-24.8,1,NA,NA,NA,44.3,4,NA,NA,2,NA,NA,NA,121.8,6.4,2023_05
-111.997,58.853,SWEETGRASS LANDING,3076330,AB,NA,NA,NA,NA,NA,NA,NA,NA,NA,NA,1,4,NA,NA,1,NA,NA,NA,NA,NA,2023_05
-118.408,55.352,TEEPEE CREEK AGCM,3076366,AB,14,2,NA,30.7,2,-0.1,2,NA,NA,NA,95.7,2,NA,NA,5,NA,NA,NA,118.9,2.8,2023_05
-116.848,58.021,TOMPKINS LANDING AGCM,3076530,AB,16,1,NA,31.5,1,0.6,1,NA,NA,NA,7.3,9,NA,NA,1,NA,NA,NA,81.6,21.6,2023_05
-117.199,55.098,VALLEYVIEW AGDM,3076680,AB,15,1,NA,29.7,1,0,1,NA,NA,NA,82.4,2,NA,NA,6,NA,NA,NA,101.6,10.1,2023_05
-113.866,58.711,GARDEN RIVER,307KPFP,AB,15.5,10,NA,31.9,10,0.6,10,NA,NA,NA,2.2,10,NA,NA,1,NA,NA,NA,59.7,7,2023_05
-110.283,54.417,COLD LAKE A,3081680,AB,14.7,0,4.3,30,0,1.5,0,0,0,0.0,9.2,0,23,NA,4,NA,NA,NA,109.4,6.6,2023_05
-110.323,54.177,BEAVERDAM AGCM,308X001,AB,14.4,2,NA,29.5,2,0,2,NA,NA,NA,11,5,NA,0,3,NA,NA,NA,115.1,11.5,2023_05
-104.71,50.201,BRATT'S LAKE CLIMATE,4010811,SK,14.5,0,NA,30.2,0,-1.5,0,NA,NA,NA,28.9,0,NA,NA,7,NA,NA,NA,117.7,8.5,2023_05
-102.571,50.368,BROADVIEW,4010879,SK,14.2,0,3.6,29,0,-2.8,0,NA,NA,NA,38.8,0,69,NA,4,NA,NA,NA,129.1,12.5,2023_05
-105.383,50.55,BUFFALO POUND LAKE,4010984,SK,15.6,0,NA,30.5,0,0.5,0,0,0,NA,26.5,0,NA,0,6,NA,NA,NA,90.7,14.8,2023_05
-104.867,51.183,DUVAL,4012300,SK,14.5,0,2.9,30,0,-1,0,0,0,0.0,34,0,69,0,7,NA,NA,NA,114.5,6,2023_05
-102.966,49.21,ESTEVAN A,4012403,SK,15.1,0,NA,28.9,0,-1.3,0,NA,NA,NA,69.2,0,NA,NA,7,NA,NA,NA,107.4,18.9,2023_05
-102.967,49.217,ESTEVAN,4012410,SK,15.1,0,NA,28.8,0,-0.5,0,NA,NA,NA,63.8,0,NA,NA,7,NA,NA,NA,107.5,18.7,2023_05
-103.65,50.55,INDIAN HEAD CDA,4013480,SK,14,0,3.2,30.5,0,-4.5,0,NA,NA,NA,12.9,0,25,NA,3,NA,NA,NA,133,9.4,2023_05
-103.753,51.257,KELLIHER,4013660,SK,14.4,0,4,30.5,0,-0.5,0,0,0,0.0,15.6,0,29,0,6,NA,NA,NA,122.8,12.6,2023_05
-102.733,50.2,KIPLING,4014040,SK,15,0,4.3,29.5,0,-0.5,0,0,0,0.0,28.6,0,49,0,6,NA,NA,NA,113,19.2,2023_05
-105.25,51.417,LAST MOUNTAIN CS,4014156,SK,14.2,0,3.2,30.1,0,-2.5,0,NA,NA,NA,37.6,0,88,NA,6,NA,NA,NA,123.6,4.6,2023_05
-104.633,52,LEROY,4014322,SK,14.2,0,3.3,29.5,0,-1,0,0,0,0.0,51.2,0,104,0,7,NA,NA,NA,127.1,9.1,2023_05
-103.889,51.152,LIPTON 2,4014481,SK,14.8,3,4.3,31,3,-5,3,0,2,NA,13.9,2,NA,0,3,NA,NA,NA,102.2,13.4,2023_05
-105.538,50.332,MOOSE JAW CS,4015322,SK,14.7,0,NA,32.2,0,-3.4,0,NA,NA,NA,16.9,0,NA,NA,5,NA,NA,NA,116.8,13.8,2023_05
-102.117,49.317,OXBOW,4015800,SK,16.5,15,NA,30,15,-1.5,15,0,15,NA,18.6,15,NA,0,3,NA,NA,NA,40.8,17.5,2023_05
-103.983,50.567,QU'APPELLE 1,4016322,SK,15.1,0,4.1,31,0,-0.5,0,0,0,0.0,39.1,0,64,0,4,NA,NA,NA,105.3,14.2,2023_05
-104.666,50.432,REGINA INTL A,4016566,SK,14.9,0,NA,29.5,0,-1,0,NA,NA,NA,NA,NA,NA,NA,NA,NA,NA,NA,102.4,7.4,2023_05
-104.667,50.433,REGINA RCS,4016699,SK,14.9,0,NA,29.7,0,-1.9,0,NA,NA,NA,37.1,0,NA,NA,6,NA,NA,NA,104,8.3,2023_05
-105.4,51.667,WATROUS EAST,4018642,SK,14.2,0,NA,32.2,0,-4.5,0,NA,NA,NA,29.6,0,NA,NA,7,NA,NA,NA,127.2,8.8,2023_05
-104.183,49.817,YELLOW GRASS NORTH,4019041,SK,14.6,0,NA,29.7,0,-2.3,0,NA,NA,NA,20.6,1,NA,NA,5,NA,NA,NA,120.2,14.9,2023_05
-102.464,51.265,YORKTON,4019073,SK,13.8,1,NA,28.4,1,-2,1,NA,NA,NA,16.8,1,NA,NA,2,NA,NA,NA,134.9,10.2,2023_05
-102.462,51.265,YORKTON,4019075,SK,14.1,0,NA,28.4,0,-2.1,0,NA,NA,NA,25.8,0,NA,NA,3,NA,NA,NA,132.4,11.4,2023_05
-104.2,51.767,WYNYARD (AUT),40190LN,SK,13.9,0,NA,29,0,-2.3,0,NA,NA,NA,33,0,NA,NA,6,NA,NA,NA,137.3,10.6,2023_05
-103.8,49.7,WEYBURN,401HP5R,SK,14.7,0,NA,28.8,0,-1.3,0,NA,NA,NA,37.2,0,NA,NA,8,NA,NA,NA,116.1,14.5,2023_05
-105.946,49.729,ASSINIBOIA AIRPORT,4020286,SK,14.7,0,NA,30.6,0,-0.5,0,NA,NA,NA,22.5,0,NA,NA,6,NA,NA,NA,113.8,10.7,2023_05
-107.311,50.832,BEECHY,4020560,SK,15.6,1,4.1,32.5,1,-1,1,0,1,NA,55.8,1,NA,0,12,NA,NA,NA,88.4,16,2023_05
-106.583,51.133,ELBOW CS,4022359,SK,15.1,1,NA,31,1,-0.4,1,NA,NA,NA,27,3,NA,NA,5,NA,NA,NA,95.5,9.7,2023_05
-107.15,50.95,LUCKY LAKE,4024714,SK,15,0,NA,31.8,0,-2,0,NA,NA,NA,24.5,0,NA,NA,6,NA,NA,NA,106.5,13.4,2023_05
-109.466,49.903,MAPLE CREEK,4024919,SK,15.1,0,NA,29.8,0,1.6,0,NA,NA,NA,46,0,NA,NA,7,NA,NA,NA,102.9,13.2,2023_05
-107.263,51.154,ROCK POINT,4026847,SK,15.6,0,4.5,30.5,0,2,0,0,0,0.0,31.4,0,60,0,6,NA,NA,NA,90.4,17.5,2023_05
-107.691,50.292,SWIFT CURRENT,4028038,SK,14.6,2,NA,30.4,2,1.1,2,NA,NA,NA,12.6,4,NA,NA,2,NA,NA,NA,107.2,7.7,2023_05
-107.733,50.267,SWIFT CURRENT CDA,4028060,SK,14.8,0,3.8,31.5,0,1.6,0,NA,NA,NA,41,0,85,NA,6,NA,NA,NA,111.2,10.5,2023_05
-109.501,50.909,LEADER AIRPORT,402DAF0,SK,16,0,NA,31.1,0,1.7,0,NA,NA,NA,24.9,0,NA,NA,4,NA,NA,NA,78.1,16.1,2023_05
-105.483,49.05,CORONACH SPC,40318MN,SK,14.1,0,2.9,29.8,0,-3.7,0,NA,NA,NA,53.4,0,104,NA,5,NA,NA,NA,130.4,9.3,2023_05
-109.514,49.641,CYPRESS HILLS PARK,4031999,SK,13,0,NA,26.3,0,0.4,0,NA,NA,NA,79.5,0,NA,NA,8,NA,NA,NA,155.9,1.8,2023_05
-108.989,49.438,EASTEND CYPRESS (AUT),4032322,SK,13.8,0,NA,27.7,0,1.5,0,NA,NA,NA,81.5,0,NA,NA,9,NA,NA,NA,134.1,2.8,2023_05
-107.024,49.099,MANKOTA,4034910,SK,13.9,3,3.1,29.9,3,-2.1,3,NA,NA,NA,23.7,3,NA,NA,5,NA,NA,NA,118.8,4.8,2023_05
-105.979,49.168,ROCKGLEN (AUT),4036844,SK,14.4,0,NA,28.7,0,0,0,NA,NA,NA,43.3,0,NA,NA,6,NA,NA,NA,117.5,6.2,2023_05
-107.586,49.058,VAL MARIE SOUTHEAST,4038412,SK,14.8,0,NA,30.5,0,0.3,0,NA,NA,NA,32,0,NA,NA,5,NA,NA,NA,107.2,8.7,2023_05
-109.2,53.45,BUTTE ST PIERRE,4041000,SK,14.7,0,4.6,31.5,0,-0.5,0,0,0,0.0,10.4,0,27,0,4,NA,NA,NA,109.8,8.1,2023_05
-109.181,51.515,KINDERSLEY A,4043899,SK,15.8,2,NA,31.2,2,1,2,NA,NA,NA,NA,NA,NA,NA,NA,NA,NA,NA,79.4,14.5,2023_05
-109.181,51.515,KINDERSLEY A,4043901,SK,15.6,1,NA,30.9,1,1,1,0,1,NA,10.3,1,NA,NA,2,NA,NA,NA,84.5,11.8,2023_05
-109.178,51.516,KINDERSLEY AIRPORT,4043902,SK,15.8,0,NA,31.2,0,1.1,0,NA,NA,NA,11.2,0,NA,NA,2,NA,NA,NA,83.7,14.3,2023_05
-108.256,52.772,NORTH BATTLEFORD RCS,4045607,SK,15,1,NA,31.8,1,-0.3,1,NA,NA,NA,30.4,1,NA,NA,5,NA,NA,NA,99.2,8.5,2023_05
-108.244,52.769,NORTH BATTLEFORD,4045695,SK,15.3,0,NA,31.5,0,1.6,0,NA,NA,NA,32.3,0,NA,NA,5,NA,NA,NA,95.2,12.7,2023_05
-107.917,51.567,ROSETOWN EAST,4046884,SK,15.4,0,NA,31.6,0,-1.5,0,NA,NA,NA,43,0,NA,NA,5,NA,NA,NA,95.1,13.1,2023_05
-108.835,52.36,SCOTT CDA,4047240,SK,14.9,1,4.2,30.3,1,1.1,1,NA,NA,NA,16.6,1,NA,NA,3,NA,NA,NA,101,9,2023_05
-107.767,52.317,SONNINGDALE,4047644,SK,14,6,NA,29,6,0.5,6,0,6,NA,30,6,NA,NA,4,NA,NA,NA,104,5.1,2023_05
-109.405,53.131,WASECA RCS,4048521,SK,15.4,2,NA,29.9,2,-0.1,2,NA,NA,NA,9.2,10,NA,NA,3,NA,NA,NA,84.7,9.7,2023_05
-105.783,52.85,HOEY,4053264,SK,NA,NA,NA,NA,NA,NA,NA,0,29,NA,21,29,NA,NA,2,NA,NA,NA,NA,NA,2023_05
-104.6,52.817,MELFORT,4055079,SK,14.1,0,NA,30.3,0,0.2,0,NA,NA,NA,31.5,0,NA,NA,5,NA,NA,NA,133.6,12.8,2023_05
-107.05,51.483,OUTLOOK PFRA,4055736,SK,15.2,0,3.7,31.5,0,-0.8,0,NA,NA,NA,17.2,0,40,NA,4,NA,NA,NA,100.1,14.7,2023_05
-105.15,52.417,PILGER,4056121,SK,14.5,6,NA,30.7,6,2,6,NA,NA,NA,12.9,6,NA,NA,4,NA,NA,NA,98.4,11.1,2023_05
-105.673,53.214,PRINCE ALBERT A,4056241,SK,13.8,0,NA,31.9,0,-2.4,0,0,0,NA,12.9,0,NA,NA,3,NA,NA,NA,135.8,5.2,2023_05
-105.677,53.21,PRINCE ALBERT GLASS FIELD,4056243,SK,13.6,0,NA,31,0,-2.5,0,NA,NA,NA,17.3,0,NA,NA,3,NA,NA,NA,140.6,3.7,2023_05
-106.7,52.171,SASKATOON INTL A,4057152,SK,15.2,0,NA,31.4,0,1.5,0,NA,NA,NA,NA,NA,NA,NA,NA,NA,NA,NA,97.9,11.5,2023_05
-106.719,52.174,SASKATOON RCS,4057165,SK,15.5,1,NA,31.7,1,1.6,1,NA,NA,NA,51.9,1,NA,NA,3,NA,NA,NA,88.2,12.8,2023_05
-108.421,55.841,BUFFALO NARROWS (AUT),4060983,SK,14.5,0,NA,28.6,0,0.1,0,NA,NA,NA,4.8,0,NA,NA,2,NA,NA,NA,118.1,9,2023_05
-108.418,55.842,BUFFALO NARROWS A,4060988,SK,14.7,1,NA,28.6,1,0.7,1,NA,NA,NA,3.9,1,NA,NA,2,NA,NA,NA,109.2,9.9,2023_05
-104.483,58.083,CIGAR LAKE,4061570,SK,11.3,0,6.4,27,0,-11,0,0,0,0.0,54.4,0,164,0,9,NA,NA,NA,208.5,1.5,2023_05
-103.678,58.229,COLLINS BAY SK,4061620,SK,10.3,0,NA,27.1,0,-3.7,0,NA,NA,NA,24.7,0,NA,NA,4,NA,NA,NA,243,4.6,2023_05
-103.7,58.183,COLLINS BAY CAMECO,4061632,SK,12.1,0,NA,27,0,-0.5,0,0,0,NA,26.2,0,NA,0,5,NA,NA,NA,185.8,4,2023_05
-102.35,55.533,ISLAND FALLS (AUT),4063605,SK,11.9,1,NA,26.7,1,-4.5,1,NA,NA,NA,7.4,1,NA,NA,2,NA,NA,NA,185.3,2.2,2023_05
-105.6,57.25,KEY LAKE,4063753,SK,11.3,8,NA,26,8,-4.7,8,NA,NA,NA,3.9,8,NA,NA,1,NA,NA,NA,156.1,1.8,2023_05
-105.618,57.256,KEY LAKE,4063757,SK,12.7,2,NA,28,2,-2.2,2,NA,NA,NA,5.7,2,NA,NA,3,NA,NA,NA,158.4,4.2,2023_05
-105.27,55.146,LA RONGE RCS,4064149,SK,13.3,0,NA,27.6,0,0.7,0,NA,NA,NA,62.8,0,NA,NA,4,NA,NA,NA,153.1,6.8,2023_05
-105.267,55.151,LA RONGE A,4064155,SK,13.2,0,NA,27.4,0,-0.4,0,0,0,NA,61.4,0,NA,NA,4,NA,NA,NA,156.5,7.1,2023_05
-109.138,54.02,LOON LAKE RCS,4064620,SK,14.2,0,NA,28.7,0,0.2,0,NA,NA,NA,9,0,NA,NA,1,NA,NA,NA,120.3,3.7,2023_05
-108.523,54.125,MEADOW LAKE A,4065063,SK,14.2,0,NA,29.1,0,0,0,NA,NA,NA,NA,NA,NA,NA,NA,NA,NA,NA,122.3,4.3,2023_05
-103.283,56.333,SOUTHEND,4067655,SK,11.4,0,NA,29,0,-4.7,0,NA,NA,NA,17.4,0,NA,NA,4,NA,NA,NA,211,5.1,2023_05
-107.55,53.367,SPIRITWOOD WEST,4067723,SK,13.5,0,NA,29.5,0,-1.1,0,NA,NA,NA,22.3,0,NA,NA,4,NA,NA,NA,141.6,1.8,2023_05
-105.841,59.25,STONY RAPIDS,4067799,SK,12.4,2,NA,30.4,2,-2,2,NA,NA,NA,1.5,2,NA,NA,1,NA,NA,NA,163.9,2.8,2023_05
-106.067,53.917,WASKESIU LAKE,4068559,SK,13.6,0,NA,29.5,0,0.2,0,NA,NA,NA,39.7,0,NA,NA,3,NA,NA,NA,143.1,6.3,2023_05
-108.517,54.133,MEADOW LAKE,406N0NM,SK,14,0,NA,29.2,0,-0.6,0,NA,NA,NA,6.5,0,NA,NA,2,NA,NA,NA,127.2,3.9,2023_05
-108.483,59.567,URANIUM CITY (AUT),406QLD0,SK,12.9,3,NA,28.6,3,-1.6,3,NA,NA,NA,2.7,3,NA,NA,1,NA,NA,NA,142.1,0,2023_05
-104.008,53.333,NIPAWIN,4075525,SK,15,0,NA,34.5,0,-2.5,0,NA,NA,NA,35.9,0,NA,NA,4,NA,NA,NA,113.9,21.3,2023_05
-104,53.333,NIPAWIN,407N51G,SK,13.8,0,NA,30.5,0,-2.7,0,NA,NA,NA,35.7,0,NA,NA,5,NA,NA,NA,142.8,12.8,2023_05
-102.317,52.817,HUDSON BAY(AUT),4083324,SK,12.9,0,NA,28.9,0,-4.5,0,NA,NA,NA,36.9,0,NA,NA,4,NA,NA,NA,159.8,2.8,2023_05
-99.292,49.276,BALDUR,5010140,MB,15.2,2,4.1,30,1,-2,1,0,1,NA,56.1,1,NA,0,8,NA,NA,NA,108,26.2,2023_05
-99.952,49.91,BRANDON A,5010481,MB,14.6,0,NA,31.3,0,-4.3,0,0,1,NA,20.1,1,NA,NA,7,NA,NA,NA,121.5,17.5,2023_05
-99.95,49.9,BRANDON RCS,5010490,MB,14.7,0,NA,31.7,0,-3.3,0,NA,NA,NA,25.7,0,NA,NA,6,NA,NA,NA,119.5,17.8,2023_05
-99.357,49.906,CARBERRY CS,5010547,MB,15,0,NA,31.7,0,-4.2,0,NA,NA,NA,18.6,0,NA,NA,5,NA,NA,NA,116.9,22.4,2023_05
-99.074,49.562,CYPRESS RIVER RCS,5010641,MB,15.5,0,NA,31.8,0,-3.9,0,NA,NA,NA,17.2,0,NA,NA,6,NA,NA,NA,105.6,29.5,2023_05
-101.203,49.927,ELKHORN 2 EAST,5010QFQ,MB,15.2,2,4,29.5,2,-2,2,0,2,NA,60.8,2,NA,0,7,NA,NA,NA,98.5,15.9,2023_05
-98.3,49.983,PORTAGE ROMANCE,5012300,MB,NA,NA,NA,NA,NA,NA,NA,0,0,NA,26.7,0,NA,0,4,NA,NA,NA,NA,NA,2023_05
-98.267,49.95,PORTAGE LA PRAIRIE CDA,5012321,MB,NA,NA,NA,NA,NA,NA,NA,0,25,NA,30.6,25,NA,NA,4,NA,NA,NA,NA,NA,2023_05
-98.284,49.903,PORTAGE SOUTHPORT,5012324,MB,15.7,0,NA,31.8,0,-0.1,0,NA,NA,NA,19.5,0,NA,NA,4,NA,NA,NA,101.6,30.8,2023_05
-101.363,51.183,ROBLIN,5012469,MB,14,0,NA,29.4,0,-3.9,0,NA,NA,NA,6.6,0,NA,NA,3,NA,NA,NA,134,10.1,2023_05
-100.604,50.455,SHOAL LAKE CS,5012654,MB,13.9,0,NA,29.1,0,-4.2,0,NA,NA,NA,17.4,0,NA,NA,6,NA,NA,NA,143.6,15.1,2023_05
-100.934,49.842,VIRDEN WATER,5012961,MB,15.8,2,NA,31,2,-6,2,0,2,NA,37.2,2,NA,NA,6,NA,NA,NA,97.5,34.5,2023_05
-99.942,50.655,WASAGAMING,5013117,MB,12.6,0,4.1,28.6,0,-5.5,0,NA,NA,NA,22.8,0,40,NA,6,NA,NA,NA,177,8.8,2023_05
-100.986,49.281,MELITA,501A7AR,MB,15.1,0,NA,30,0,-4.1,0,NA,NA,NA,43.6,0,NA,NA,7,NA,NA,NA,113.2,24.7,2023_05
-101.4,51.267,ROBLIN FRIESEN 3 NORTHWEST,501B4G2,MB,NA,NA,NA,NA,NA,NA,NA,0,0,NA,22.2,0,NA,0,7,NA,NA,NA,NA,NA,2023_05
-100.179,50.108,RIVERS PETTAPIECE,501BMMA,MB,NA,NA,NA,NA,NA,NA,NA,0,0,0.0,20,0,33,0,7,NA,NA,NA,NA,NA,2023_05
-100.817,50.75,ROSSBURN 4 NORTH,501KE01,MB,NA,NA,NA,NA,NA,NA,NA,0,2,NA,61.2,2,NA,0,8,NA,NA,NA,NA,NA,2023_05
-98.319,49.4,DEERWOOD RCS,5020725,MB,16.2,0,NA,32.4,0,0.9,0,NA,NA,NA,20.5,0,NA,NA,6,NA,NA,NA,95.5,40.1,2023_05
-97.238,49,EMERSON AUTO,5020881,MB,16.5,0,NA,32.6,0,-0.4,0,NA,NA,NA,28,0,NA,NA,7,NA,NA,NA,89.2,44,2023_05
-97.56,49.031,GRETNA (AUT),5021220,MB,16.2,0,NA,32.6,0,-0.3,0,NA,NA,NA,9.3,0,NA,NA,4,NA,NA,NA,92.1,37,2023_05
-98.875,49.606,HOLLAND,5021302,MB,NA,NA,NA,NA,NA,NA,NA,0,12,NA,7.4,12,NA,NA,3,NA,NA,NA,NA,NA,2023_05
-96.901,49.518,KLEEFELD (MAFRI),5021500,MB,15.8,0,NA,31.6,0,-1.4,0,NA,NA,NA,54.4,0,NA,NA,4,NA,NA,NA,101.4,33.6,2023_05
-97.807,50.013,MARQUETTE,5021695,MB,15.7,4,3.8,32,4,-1,4,0,4,NA,11.4,4,NA,NA,4,NA,NA,NA,87,26.2,2023_05
-98.084,49.188,MORDEN CDA CS,5021849,MB,16.6,0,NA,31.9,0,1.8,0,NA,NA,NA,21.4,0,NA,NA,5,NA,NA,NA,83.9,40.7,2023_05
-98.905,49.191,PILOT MOUND (AUT),5022125,MB,15.2,0,NA,31.1,0,-1.3,0,NA,NA,NA,20.4,0,NA,NA,6,NA,NA,NA,111.1,25,2023_05
-96.035,49.353,ST LABRE,5022575,MB,NA,NA,NA,NA,NA,NA,NA,0,0,0.0,37.2,0,57,0,6,NA,NA,NA,NA,NA,2023_05
-97.033,50.056,WINNIPEG ST ANDREWS,50225DS,MB,15.4,0,NA,32,0,-2.3,0,NA,NA,NA,NA,NA,NA,NA,NA,NA,NA,NA,112.5,31.8,2023_05
-97.95,49.133,SCHANZENFELD,5022623,MB,NA,NA,NA,NA,NA,NA,NA,0,6,NA,22.4,6,NA,0,6,NA,NA,NA,NA,NA,2023_05
-95.598,49.024,SPRAGUE,5022759,MB,14.8,0,NA,29.1,0,-0.8,0,NA,NA,NA,45.1,0,NA,NA,8,NA,NA,NA,116.7,17.5,2023_05
-97.167,50.117,STONY MOUNTAIN,5022791,MB,15.4,0,3.6,35,0,-2.5,0,0,0,0.0,23.8,0,43,0,6,NA,NA,NA,111.4,30.3,2023_05
-97.24,49.91,WINNIPEG INTL A,5023227,MB,15.8,0,NA,32.1,0,-4,0,NA,NA,NA,NA,NA,NA,NA,NA,NA,NA,NA,104.6,34.9,2023_05
-97.129,49.888,WINNIPEG THE FORKS,5023262,MB,17,0,NA,32.1,0,1.8,0,NA,NA,NA,27.6,0,NA,NA,4,NA,NA,NA,77.9,46.5,2023_05
-98.03,49.498,CARMAN U OF M CS,502I001,MB,16.1,0,NA,32.4,0,0.6,0,NA,NA,NA,17.4,0,NA,NA,5,NA,NA,NA,92.6,32.4,2023_05
-97.249,49.917,WINNIPEG A CS,502S001,MB,15.8,0,NA,32.4,0,-4.1,0,NA,NA,NA,20.5,0,NA,NA,4,NA,NA,NA,103.6,34.3,2023_05
-97.022,52.36,BERENS RIVER CS,5030203,MB,11.9,2,3.3,29.5,2,-5.3,2,NA,NA,NA,10.2,2,NA,NA,3,NA,NA,NA,186.8,10.8,2023_05
-97.018,52.359,BERENS RIVER A,5030204,MB,12.6,8,NA,29.7,8,-5.1,8,NA,NA,NA,NA,NA,NA,NA,NA,NA,NA,NA,135.3,11.8,2023_05
-97.616,52.819,GEORGE ISLAND (AUT),5030984,MB,7.1,3,NA,18,3,-2.2,3,NA,NA,NA,17.8,3,NA,NA,5,NA,NA,NA,305.2,0,2023_05
-97.555,51.083,FISHER BRANCH (AUT),50309J6,MB,14.7,0,NA,32.3,0,-2.9,0,NA,NA,NA,23.2,0,NA,NA,5,NA,NA,NA,127.1,24.1,2023_05
-96.982,50.631,GIMLI HARBOUR CS,5031041,MB,12.5,0,NA,30.8,0,0.3,0,NA,NA,NA,NA,NA,NA,NA,NA,NA,NA,NA,188,16.5,2023_05
-97.05,50.633,GIMLI CLIMATE,5031042,MB,14.1,0,NA,32.5,0,-0.8,0,NA,NA,NA,24.4,0,NA,NA,5,NA,NA,NA,143.4,21.2,2023_05
-95.977,50.522,GREAT FALLS CLIMATE,5031201,MB,15.3,0,NA,31.2,0,-1.5,0,NA,NA,NA,47.6,0,NA,NA,5,NA,NA,NA,113.4,28.8,2023_05
-95.197,49.624,INDIAN BAY,5031320,MB,14.4,0,3.5,30,0,-1.5,0,0,0,0.0,34.4,0,48,0,6,NA,NA,NA,130.4,20.2,2023_05
-99.268,53.186,GRAND RAPIDS (AUT),5031A10,MB,10.1,0,NA,27.6,0,-5.4,0,NA,NA,NA,35.9,0,NA,NA,3,NA,NA,NA,245.3,0,2023_05
-95.89,50.148,PINAWA CANWARN,5032161,MB,NA,NA,NA,NA,NA,NA,NA,0,0,NA,26,0,NA,0,4,NA,NA,NA,NA,NA,2023_05
-95.533,49.85,RENNIE,5032360,MB,13.4,13,NA,31,9,-4,9,0,9,NA,37,9,NA,0,8,NA,NA,NA,88.5,6,2023_05
-96.567,50.7,VICTORIA BEACH (AUT),5032951,MB,13.7,0,NA,29.5,0,-1.9,0,NA,NA,NA,NA,NA,NA,NA,NA,NA,NA,NA,157.2,22.5,2023_05
-96.065,50.177,PINAWA,503B1ER,MB,15,0,NA,30.3,0,-0.8,0,NA,NA,NA,15.5,0,NA,NA,5,NA,NA,NA,117.8,25.1,2023_05
-100.057,51.1,DAUPHIN CS,5040681,MB,13.7,0,NA,32,0,-3.6,0,NA,NA,NA,46.7,0,NA,NA,5,NA,NA,NA,144.5,12.3,2023_05
-100.053,51.101,DAUPHIN,5040689,MB,13.9,0,NA,32.4,0,-4.2,0,NA,NA,NA,45.8,0,NA,NA,5,NA,NA,NA,142.4,14.8,2023_05
-100.65,52.033,COWAN,5040FJ3,MB,13,13,3.4,32,13,-2,13,0,13,NA,2.8,13,NA,NA,1,NA,NA,NA,95,5.5,2023_05
-101.098,52.666,MAFEKING,5041685,MB,13.5,0,3.9,29,0,-3.5,0,0,0,0.0,34.4,0,52,0,7,NA,NA,NA,147.7,6.9,2023_05
-99.53,50.712,MCCREARY,5043158,MB,14.4,0,3.6,31.5,0,-3.2,0,NA,NA,NA,13.4,1,NA,NA,5,NA,NA,NA,131.3,20.3,2023_05
-98.037,50.499,OAKPOINT MARINE,504K0NM,MB,14.1,0,NA,26.3,0,-2.5,0,NA,NA,NA,11.2,0,NA,NA,4,NA,NA,NA,135.7,14.4,2023_05
-101.233,52.115,SWAN RIVER RCS,504K80K,MB,14,0,NA,29.4,0,-4.5,0,NA,NA,NA,18.7,0,NA,NA,4,NA,NA,NA,133.8,9.1,2023_05
-101.683,54.683,FLIN FLON,5050919,MB,12.7,0,NA,27.5,0,-3.5,0,NA,NA,NA,12.8,0,NA,NA,4,NA,NA,NA,167.8,4.5,2023_05
-101.682,54.678,FLIN FLON A,5050973,MB,12.7,0,NA,27.1,0,-3.5,0,NA,NA,NA,NA,NA,NA,NA,NA,NA,NA,NA,170,4.5,2023_05
-101.091,53.971,THE PAS A,5052882,MB,12.8,1,NA,26.7,1,-4.3,1,NA,NA,NA,42.6,1,NA,NA,3,NA,NA,NA,161.6,4.6,2023_05
-101.1,53.967,THE PAS CLIMATE,5052890,MB,11.7,5,NA,25.8,5,-4.7,5,NA,NA,NA,41.7,5,NA,NA,3,NA,NA,NA,164.1,0,2023_05
-94.066,58.739,CHURCHILL A,5060595,MB,5.5,0,NA,28,0,-5.2,0,NA,NA,NA,19.5,0,NA,NA,5,NA,NA,NA,387.5,0,2023_05
-94.066,58.739,CHURCHILL A,5060605,MB,5.5,0,NA,28,0,-5.2,0,NA,NA,NA,NA,NA,NA,NA,NA,NA,NA,NA,387.5,0,2023_05
-94.067,58.733,CHURCHILL CLIMATE,5060608,MB,5.7,0,NA,28.4,0,-4.9,0,NA,NA,NA,18.5,0,NA,NA,5,NA,NA,NA,381.8,0,2023_05
-98.03,54.54,CROSS LAKE JENPEG 2,5060622,MB,12.1,0,NA,28,0,-2.7,0,NA,NA,NA,47,2,NA,NA,7,NA,NA,NA,186.7,4.5,2023_05
-94.704,56.359,GILLAM,5060999,MB,8.3,1,NA,25,1,-4.3,1,NA,NA,NA,15.3,1,NA,NA,4,NA,NA,NA,290.7,0,2023_05
-94.711,56.358,GILLAM A,5061022,MB,7.6,6,NA,24.8,6,-4.6,6,0,2,NA,15.4,2,NA,NA,4,NA,NA,NA,259.8,0,2023_05
-94.711,56.358,GILLAM A,5061025,MB,8.2,1,NA,25.2,1,-4.6,1,NA,NA,NA,NA,NA,NA,NA,NA,NA,NA,NA,292.9,0,2023_05
-94.654,53.857,ISLAND LAKE A,5061374,MB,13.3,17,NA,30.8,17,-2,17,NA,NA,NA,32.5,17,NA,NA,6,NA,NA,NA,76.3,11.1,2023_05
-94.654,53.856,ISLAND LAKE AIRPORT,5061378,MB,11.5,1,NA,30.6,1,-2.6,1,NA,NA,NA,24.8,19,NA,NA,5,NA,NA,NA,205.6,10.9,2023_05
-96.51,56.038,KELSEY DAM CS,5061422,MB,9.2,0,NA,26.5,0,-5.1,0,NA,NA,NA,41,0,NA,NA,6,NA,NA,NA,273.8,0.7,2023_05
-101.076,56.864,LYNN LAKE,5061645,MB,11.6,0,NA,28.9,0,-2.4,0,NA,NA,NA,0,0,NA,NA,0,NA,NA,NA,201.3,3.8,2023_05
-101.067,56.85,LYNN LAKE RCS,5061649,MB,11.2,0,NA,29.3,0,-4.4,0,NA,NA,NA,15.2,0,NA,NA,3,NA,NA,NA,215.6,3.8,2023_05
-97.844,53.958,NORWAY HOUSE,5062040,MB,12,1,NA,28.6,1,-3.2,1,NA,NA,NA,26,1,NA,NA,4,NA,NA,NA,183.7,4.1,2023_05
-98.512,58.706,TADOULE LAKE,5062835,MB,8.8,0,NA,26,0,-4.1,0,NA,NA,NA,18.6,0,NA,NA,5,NA,NA,NA,285.3,0,2023_05
-98.502,58.716,TADOULE LAKE CS,5062840,MB,8.9,3,NA,25.9,3,-5.6,3,NA,NA,NA,22.4,3,NA,NA,5,NA,NA,NA,254.5,0,2023_05
-97.877,55.799,THOMPSON AIRPORT,5062918,MB,10.2,1,NA,28.9,1,-5.8,1,NA,NA,NA,50.7,1,NA,NA,6,NA,NA,NA,236.5,2.8,2023_05
-97.863,55.805,THOMPSON A,5062921,MB,10.2,0,NA,29,0,-5,0,0,0,NA,54,0,NA,NA,6,NA,NA,NA,244.9,2,2023_05
-82.432,52.928,ATTAWAPISKAT A,6010400,ON,7.1,0,NA,31.7,0,-3.2,0,NA,NA,NA,37.1,0,NA,NA,5,NA,NA,NA,343.4,6.6,2023_05
-89.897,53.818,BIG TROUT LAKE A,6010735,ON,9,0,NA,29.3,0,-4.3,0,NA,NA,NA,15.1,0,NA,NA,5,NA,NA,NA,285.5,5.9,2023_05
-89.892,53.816,BIG TROUT LAKE,6010740,ON,8.8,0,NA,30.2,0,-4.9,0,NA,NA,NA,13.2,0,NA,NA,3,NA,NA,NA,290.2,5.8,2023_05
-93.221,50.631,EAR FALLS (AUT),6012199,ON,13.4,2,NA,30.1,2,-1.4,2,NA,NA,NA,9.4,3,NA,NA,3,NA,NA,NA,151.3,17.1,2023_05
-87.676,56.019,FORT SEVERN A,6012501,ON,5.2,0,NA,32.2,0,-5.1,0,NA,NA,NA,16.7,0,NA,NA,4,NA,NA,NA,403,4.9,2023_05
-87.934,52.196,LANSDOWNE HOUSE A,6014351,ON,9.9,2,NA,32,2,-7.2,2,NA,NA,NA,21.7,2,NA,NA,4,NA,NA,NA,251.8,17,2023_05
-87.936,52.196,LANSDOWNE HOUSE (AUT),6014353,ON,9.7,0,NA,32.3,0,-7.4,0,NA,NA,NA,23.6,1,NA,NA,4,NA,NA,NA,275.1,17.1,2023_05
-91.763,53.441,MUSKRAT DAM,6015026,ON,10.3,1,NA,31,1,-4.4,1,NA,NA,NA,44.1,1,NA,NA,4,NA,NA,NA,244.1,12.4,2023_05
-85.433,54.983,PEAWANUCK (AUT),6016295,ON,5.1,0,NA,31.9,0,-6.3,0,NA,NA,NA,31.3,0,NA,NA,4,NA,NA,NA,405.7,4.9,2023_05
-85.443,54.988,PEAWANUCK A,6016298,ON,5.1,0,NA,31.6,0,-6.1,0,NA,NA,NA,33.1,0,NA,NA,3,NA,NA,NA,405.1,4.7,2023_05
-90.218,51.449,PICKLE LAKE (AUT),6016525,ON,11.3,1,NA,30.6,1,-2.9,1,NA,NA,NA,22.9,1,NA,NA,2,NA,NA,NA,228.1,27.3,2023_05
-90.214,51.446,PICKLE LAKE A,6016528,ON,11.5,1,NA,31.2,1,-3,1,NA,NA,NA,25.1,1,NA,NA,2,NA,NA,NA,222.7,28.6,2023_05
-93.793,51.067,RED LAKE A,6016971,ON,12.9,1,NA,29.4,1,-1.7,1,NA,NA,NA,NA,NA,NA,NA,NA,NA,NA,NA,168.2,15.6,2023_05
-93.344,53.064,SANDY LAKE A,6017401,ON,12.1,0,NA,32.1,0,-3.8,0,NA,NA,NA,38.9,0,NA,NA,6,NA,NA,NA,205.4,22.3,2023_05
-91.316,52.944,WEAGAMOW LAKE,6019400,ON,10.4,2,NA,29.7,2,-4.2,2,NA,NA,NA,18.3,2,NA,NA,4,NA,NA,NA,229.7,10.7,2023_05
-93.967,48.633,BARWICK,6020559,ON,14.5,0,3.1,29.5,0,-1,0,0,0,0.0,45.2,0,59,0,7,NA,NA,NA,122.6,13.2,2023_05
-91.628,48.761,ATIKOKAN (AUT),6020LPQ,ON,12.4,0,NA,29.6,0,-4,0,NA,NA,NA,39.5,0,NA,NA,6,NA,NA,NA,177.7,3.7,2023_05
-93.439,48.651,FORT FRANCES RCS,6022474,ON,13.5,0,NA,28.7,0,-2.4,0,NA,NA,NA,81.3,0,NA,NA,9,NA,NA,NA,146.4,6.5,2023_05
-92.744,49.828,DRYDEN REGIONAL,6032125,ON,13.7,0,NA,29.3,0,-1.4,0,NA,NA,NA,33.9,0,NA,NA,5,NA,NA,NA,151.6,19.5,2023_05
-94.378,49.791,KENORA RCS,6034073,ON,14.8,1,NA,28.5,1,-0.2,1,NA,NA,NA,38.1,1,NA,NA,6,NA,NA,NA,115.6,20,2023_05
-94.363,49.788,KENORA A,6034076,ON,14.7,1,NA,28.4,1,-0.2,1,0,0,NA,32.9,0,NA,NA,7,NA,NA,NA,120.5,20.4,2023_05
-93.717,49.65,RAWSON LAKE,6036904,ON,11.6,0,0.4,23.5,0,-1,0,0,0,0.0,25.4,0,34,0,4,NA,NA,NA,200,0.3,2023_05
-93.733,49.664,RAWSON LAKE (AUT),6036907,ON,14.5,5,NA,29,5,-0.9,5,NA,NA,NA,39.9,5,NA,NA,6,NA,NA,NA,104.7,13.9,2023_05
-91.908,50.114,SIOUX LOOKOUT A,6037776,ON,12.9,0,NA,29.5,0,-2.9,0,0,1,NA,2.1,0,NA,NA,1,NA,NA,NA,173,13.9,2023_05
-91.906,50.114,SIOUX LOOKOUT AIRPORT,6037800,ON,13.3,2,NA,29.9,2,-2.1,2,NA,NA,NA,23.1,2,NA,NA,4,NA,NA,NA,155.2,17.9,2023_05
-88.905,50.294,ARMSTRONG (AUT),6040325,ON,6.1,19,NA,29.3,19,-6,19,NA,NA,NA,12,20,NA,NA,4,NA,NA,NA,143.4,0,2023_05
-88.91,50.29,ARMSTRONG A,6040327,ON,9.7,1,NA,31.4,1,-5.3,1,NA,NA,NA,33.8,1,NA,NA,4,NA,NA,NA,251.4,3.8,2023_05
-88.345,49.154,CAMERON FALLS (AUT),6041110,ON,9.3,0,NA,29.9,0,-2.8,0,NA,NA,NA,8.7,0,NA,NA,3,NA,NA,NA,270.3,0,2023_05
-85.833,47.333,CARIBOU ISLAND (AUT),6041222,ON,7.2,5,NA,19.3,5,0.4,5,NA,NA,NA,32.6,8,NA,NA,5,NA,NA,NA,280.9,0,2023_05
-86.989,49.779,GERALDTON A,6042718,ON,9.7,1,NA,29.9,1,-5.9,1,NA,NA,NA,15,1,NA,NA,4,NA,NA,NA,257.4,8.3,2023_05
-86.932,49.781,GERALDTON AIRPORT,6042719,ON,9.8,0,NA,30.1,0,-5.9,0,NA,NA,NA,11.7,0,NA,NA,4,NA,NA,NA,261.2,8.3,2023_05
-89.267,48.467,HAZELWOOD,6043390,ON,NA,NA,NA,NA,NA,NA,NA,0,1,NA,34,1,NA,0,6,NA,NA,NA,NA,NA,2023_05
-86.346,48.757,MARATHON A,6044967,ON,7.8,1,NA,23.9,1,-7.2,1,NA,NA,NA,NA,NA,NA,NA,NA,NA,NA,NA,306,0.4,2023_05
-86.287,48.608,PUKASKWA (AUT),6046768,ON,8.4,1,NA,25.4,1,-4.5,1,NA,NA,NA,21.8,1,NA,NA,5,NA,NA,NA,290.4,1.1,2023_05
-87.092,48.816,TERRACE BAY AIRPORT,6048232,ON,8.1,1,NA,23.9,1,-3.9,1,NA,NA,NA,13.5,1,NA,NA,4,NA,NA,NA,296.6,0,2023_05
-89.322,48.372,THUNDER BAY,6048260,ON,9.9,1,NA,27.4,1,-3.2,1,NA,NA,NA,47.2,0,NA,NA,6,NA,NA,NA,242.2,0,2023_05
-89.322,48.372,THUNDER BAY A,6048262,ON,10.3,11,NA,27.4,11,-2.2,11,NA,NA,NA,NA,NA,NA,NA,NA,NA,NA,NA,153.7,0,2023_05
-89.327,48.369,THUNDER BAY CS,6048268,ON,10.3,2,NA,27.5,2,-3.8,2,NA,NA,NA,42.1,2,NA,NA,5,NA,NA,NA,222.6,0,2023_05
-90.467,49.033,UPSALA (AUT),6049095,ON,11.2,0,NA,29.5,0,-5,0,NA,NA,NA,31.6,0,NA,NA,6,NA,NA,NA,215.4,3.7,2023_05
-89.119,48.369,WELCOME ISLAND (AUT),6049443,ON,8.5,1,NA,23.8,1,0.7,1,NA,NA,NA,20.4,1,NA,NA,5,NA,NA,NA,284.3,0,2023_05
-84.814,47.723,LAKE SUPERIOR PROVINCIAL PARK,6054425,ON,9.3,0,NA,29.6,0,-4.5,0,NA,NA,NA,66.1,0,NA,NA,7,NA,NA,NA,269.4,1.2,2023_05
-84.51,46.485,SAULT STE MARIE A,6057591,ON,10.8,0,NA,31.8,0,-3.5,0,3.1,0,NA,51.3,0,NA,NA,7,NA,NA,NA,229.8,6,2023_05
-84.517,46.478,SAULT STE. MARIE AIRPORT,6057593,ON,11.1,0,NA,31.6,0,-2.9,0,NA,NA,NA,55.9,0,NA,NA,7,NA,NA,NA,220.3,6.8,2023_05
-84.786,47.967,WAWA A,6059413,ON,8.7,0,NA,28.5,0,-3.5,0,NA,NA,NA,NA,NA,NA,NA,NA,NA,NA,NA,289.2,0.6,2023_05
-83.347,47.82,CHAPLEAU A,6061365,ON,10.4,0,NA,31.5,0,-3.2,0,NA,NA,NA,NA,NA,NA,NA,NA,NA,NA,NA,243.9,7,2023_05
-83.356,47.819,CHAPLEAU AIRPORT,6061366,ON,10.2,1,NA,31.7,1,-2.6,1,NA,NA,NA,37.1,1,NA,NA,6,NA,NA,NA,242.3,8.2,2023_05
-82.025,46.193,MASSEY,6065006,ON,10.9,0,0,29,0,-2.5,0,10.2,0,######,76,0,99,0,7,NA,NA,NA,223.6,2.3,2023_05
-80.303,46.215,MONETVILLE 2,6065252,ON,11.7,0,NA,30,0,-2.5,0,0,0,NA,57.2,0,NA,0,7,NA,NA,NA,198.3,4,2023_05
-80.796,46.632,SUDBURY CLIMATE,6068145,ON,11.3,0,NA,30.8,0,-1.8,0,NA,NA,NA,90.5,0,NA,NA,7,NA,NA,NA,216.7,8.1,2023_05
-80.798,46.626,SUDBURY A,6068153,ON,11.5,5,NA,30.9,5,-1.4,5,0,0,NA,91.7,0,NA,NA,7,NA,NA,NA,176,7.5,2023_05
-82.124,49.383,BONNER LAKE,6070QK6,ON,10.7,1,NA,33,0,-3,1,4.6,0,NA,49,0,NA,0,5,NA,NA,NA,231.9,13,2023_05
-79.849,47.695,EARLTON A,6072223,ON,11.3,0,NA,31.8,0,-3.4,0,NA,NA,NA,64.5,0,NA,NA,6,NA,NA,NA,218.5,10.6,2023_05
-79.849,47.695,EARLTON CLIMATE,6072230,ON,11.3,0,NA,31.7,0,-3.5,0,NA,NA,NA,62.8,0,NA,NA,6,NA,NA,NA,216.6,9.9,2023_05
-82.468,49.412,KAPUSKASING A,6073976,ON,10.5,0,NA,32.9,0,-3.4,0,2,0,NA,55.6,0,NA,NA,8,NA,NA,NA,247.5,15.3,2023_05
-82.468,49.412,KAPUSKASING A,6073978,ON,10.5,0,NA,32.9,0,-3.4,0,NA,NA,NA,NA,NA,NA,NA,NA,NA,NA,NA,247.5,15.3,2023_05
-82.444,49.406,KAPUSKASING CDA ON,6073980,ON,10.7,0,NA,33.8,0,-3.6,0,NA,NA,NA,53.2,0,NA,NA,7,NA,NA,NA,244.8,19,2023_05
-80.061,48.088,KIRKLAND LAKE,6074207,ON,9.4,0,NA,31.6,0,-5.7,0,NA,NA,NA,67.8,0,NA,NA,6,NA,NA,NA,270.5,3.4,2023_05
-80.608,51.291,MOOSONEE,6075420,ON,7.7,0,NA,32.5,0,-5.8,0,NA,NA,NA,21.9,0,NA,NA,7,NA,NA,NA,328.3,7.8,2023_05
-80.664,51.257,MOOSONEE RCS,6075429,ON,7.7,0,NA,33.3,0,-6.7,0,NA,NA,NA,22.9,0,NA,NA,6,NA,NA,NA,329.2,9.2,2023_05
-84.164,49.747,NAGAGAMI (AUT),6075543,ON,10,0,NA,32.1,0,-3.8,0,NA,NA,NA,70.1,0,NA,NA,8,NA,NA,NA,259.1,12,2023_05
-85.901,51.659,OGOKI POST A,6075786,ON,9.9,1,NA,32.5,1,-4.6,1,NA,NA,NA,11.2,1,NA,NA,2,NA,NA,NA,260.7,17.9,2023_05
-85.9,51.658,OGOKI POST,6075788,ON,10,2,NA,32.6,2,-4.5,2,NA,NA,NA,34.1,3,NA,NA,5,NA,NA,NA,249,17.8,2023_05
-81.39,48.557,TIMMINS CLIMATE,6078282,ON,10.8,0,NA,32.8,0,-3.9,0,NA,NA,NA,55.8,0,NA,NA,7,NA,NA,NA,237.1,12.5,2023_05
-81.377,48.571,TIMMINS A,6078286,ON,10.9,1,NA,32.5,1,-3.6,1,0,0,NA,60.2,0,NA,NA,7,NA,NA,NA,226,12.5,2023_05
-78.267,45.533,ALGONQUIN PARK EAST GATE,6080192,ON,10,1,NA,31.7,1,-6.2,1,NA,NA,NA,79.8,1,NA,NA,5,NA,NA,NA,240.7,1.8,2023_05
-79.424,46.364,NORTH BAY A,6085680,ON,10.9,0,NA,29.8,0,-3.1,0,NA,NA,NA,58.7,0,NA,NA,6,NA,NA,NA,225.7,6.9,2023_05
-79.403,46.375,NORTH BAY AIRPORT,6085695,ON,11.2,0,NA,29.8,0,-2.5,0,NA,NA,NA,60.7,0,NA,NA,7,NA,NA,NA,219.7,8.2,2023_05
-82.567,45.882,GORE BAY-MANITOULIN,6092919,ON,10.9,0,NA,27.3,0,-2.6,0,NA,NA,NA,42.8,0,NA,NA,5,NA,NA,NA,221,1.9,2023_05
-82.567,45.883,GORE BAY CLIMATE,6092920,ON,11,0,NA,27.2,0,-2.2,0,NA,NA,NA,44.3,0,NA,NA,5,NA,NA,NA,218,1.7,2023_05
-76.113,45.186,APPLETON,6100285,ON,12.6,0,NA,32.5,0,-1.5,0,0,0,NA,56,0,NA,0,6,NA,NA,NA,171.4,5.2,2023_05
-75.748,44.635,BROCKVILLE CLIMATE,6100970,ON,12.1,1,NA,27.3,1,-1.1,1,NA,NA,NA,53.3,1,NA,NA,6,NA,NA,NA,178.1,0.9,2023_05
-77.367,46.05,CHALK RIVER AECL,6101335,ON,11.4,18,-1.1,32.5,18,-2.5,18,0,18,NA,8.6,18,NA,0,4,NA,NA,NA,90.3,4.3,2023_05
-74.749,45.016,CORNWALL,6101874,ON,14.1,0,0.2,32.5,0,0,0,0,0,0.0,33.8,0,39,0,6,NA,NA,NA,137.5,16.7,2023_05
-76.253,45.032,DRUMMOND CENTRE,6102J13,ON,12.4,0,-0.3,32.5,0,-3,0,0,0,0.0,49.4,0,64,0,7,NA,NA,NA,177,4.6,2023_05
-75.85,44.417,GRENADIER ISLAND,6103024,ON,12.9,1,NA,29,1,1.2,1,NA,NA,NA,49.4,1,NA,NA,6,NA,NA,NA,155,2.7,2023_05
-76.69,44.428,HARTINGTON IHD,6103367,ON,12.7,0,-0.3,29.5,0,-1,0,0,0,0.0,43,0,47,0,7,NA,NA,NA,169.7,4.1,2023_05
-75.633,45,KEMPTVILLE CS,6104027,ON,12.4,0,NA,31.9,0,-2.7,0,NA,NA,NA,60.7,0,NA,NA,5,NA,NA,NA,179.1,6.5,2023_05
-76.599,44.223,KINGSTON CLIMATE,6104142,ON,11.1,0,NA,25.5,0,-1.4,0,NA,NA,NA,33.9,0,NA,NA,4,NA,NA,NA,213.4,0,2023_05
-76.597,44.226,KINGSTON A,6104152,ON,11.2,0,NA,25.6,0,-1.5,0,NA,NA,NA,NA,NA,NA,NA,NA,NA,NA,NA,209.6,0,2023_05
-74.963,45.251,MOOSE CREEK WELLS,6105397,ON,11.8,1,NA,32.1,1,-4.3,1,NA,NA,NA,47,1,NA,NA,6,NA,NA,NA,193.4,6.1,2023_05
-76.784,45.054,OMPAH-SEITZ,6105762,ON,12.6,2,NA,33,2,-3,2,0,2,NA,69.8,2,NA,0,9,NA,NA,NA,161.8,6.5,2023_05
-75.717,45.383,OTTAWA CDA,6105976,ON,13.8,0,0.3,32,0,-0.5,0,0,0,0.0,51.6,0,60,0,6,NA,NA,NA,144.2,14.7,2023_05
-75.717,45.383,OTTAWA CDA RCS,6105978,ON,13.2,0,NA,31.4,0,-0.8,0,NA,NA,NA,55.3,0,NA,NA,5,NA,NA,NA,158.2,10.8,2023_05
-75.667,45.317,OTTAWA INTL A,6106001,ON,12.7,0,NA,32.5,0,-3.1,0,0,0,NA,53.9,0,NA,NA,5,NA,NA,NA,170.5,6.8,2023_05
-77.252,45.86,PEMBROKE CLIMATE,6106367,ON,11.8,1,NA,31.7,1,-3.9,1,NA,NA,NA,64.7,1,NA,NA,8,NA,NA,NA,190.1,2.9,2023_05
-75.064,45.287,ST. ALBERT,6107276,ON,12.6,0,-0.2,33,0,-5,0,0,0,0.0,46.2,0,51,0,8,NA,NA,NA,174,6.6,2023_05
-77.25,45.883,PETAWAWA HOFFMAN,610FC98,ON,13.4,0,NA,32.5,0,-2,0,0,0,NA,65.9,0,NA,0,8,NA,NA,NA,152.9,9.9,2023_05
-79.319,44.267,BALDWIN,6110480,ON,12.4,0,NA,31,0,-3,0,0,0,NA,51.8,0,NA,0,6,NA,NA,NA,179.1,4.6,2023_05
-79.736,44.385,BARRIE LANDFILL,6110556,ON,12.9,13,NA,31,9,-3,9,0,9,NA,41.7,9,NA,0,8,NA,NA,NA,99.4,8,2023_05
-79.403,45.14,BEATRICE CLIMATE,6110607,ON,10.2,1,NA,29.5,1,-4.7,1,NA,NA,NA,58.8,2,NA,NA,7,NA,NA,NA,237.2,1.9,2023_05
-79.539,44.631,COLDWATER WARMINSTER,6111769,ON,12.7,0,NA,31,0,-1.5,0,0,0,NA,60.6,0,NA,0,9,NA,NA,NA,173,9.3,2023_05
-80.217,44.5,COLLINGWOOD,6111792,ON,11.5,0,NA,28.7,0,-1.3,0,NA,NA,NA,44.9,0,NA,NA,5,NA,NA,NA,209.1,6.2,2023_05
-79.217,44.547,LAGOON CITY,6114295,ON,12.1,1,NA,31.4,1,0.2,1,NA,NA,NA,NA,NA,NA,NA,NA,NA,NA,NA,185.7,9.4,2023_05
-80.712,44.269,MARKDALE,6114979,ON,11.5,0,NA,31.5,0,-5,0,0,0,NA,55,0,NA,0,5,NA,NA,NA,208.5,6.8,2023_05
-79.303,44.975,MUSKOKA,6115529,ON,11.5,10,NA,30.7,10,-1.7,10,NA,NA,NA,13.7,10,NA,NA,2,NA,NA,NA,140.2,4.5,2023_05
-79.439,44.603,ORILLIA BRAIN,6115811,ON,13,0,NA,30.5,0,-0.5,0,0,0,NA,54.8,0,NA,0,7,NA,NA,NA,165.3,9.6,2023_05
-80.044,45.344,PARRY SOUND CCG,6116257,ON,11.6,0,NA,29.8,0,-0.6,0,NA,NA,NA,43.3,0,NA,NA,6,NA,NA,NA,206.4,9,2023_05
-79.633,44.399,SHANTY BAY,6117684,ON,12,0,-0.1,31,0,-3,0,0,0,0.0,48.6,0,61,0,7,NA,NA,NA,191.4,4.6,2023_05
-79.55,44.483,BARRIE-ORO,6117700,ON,11.4,0,NA,28.9,0,-3.2,0,NA,NA,NA,44.6,0,NA,NA,5,NA,NA,NA,209.2,4,2023_05
-80.468,44.551,THORNBURY 3,6118240,ON,NA,NA,NA,NA,NA,NA,NA,0,0,NA,59.6,0,NA,0,5,NA,NA,NA,NA,NA,2023_05
-79.161,44.263,UDORA,6119055,ON,12.3,0,0.1,31,0,-2,0,0,0,NA,49.6,0,60,0,6,NA,NA,NA,185.4,7.5,2023_05
-81.109,44.744,WIARTON A,6119498,ON,10.4,0,NA,28.3,0,-3.2,0,NA,NA,NA,NA,NA,NA,NA,NA,NA,NA,NA,240.6,4.6,2023_05
-81.109,44.744,WIARTON A,6119499,ON,10.4,0,NA,28.3,0,-3.2,0,0.2,0,NA,40.6,0,NA,NA,6,NA,NA,NA,240.6,4.6,2023_05
-79.783,44.233,EGBERT CS,611E001,ON,11.4,0,NA,30.8,0,-3.4,0,NA,NA,NA,48.1,0,NA,NA,5,NA,NA,NA,211.6,7.3,2023_05
-81.717,43.767,GODERICH,6122847,ON,11.5,0,NA,28.4,0,-3.2,0,NA,NA,NA,48,0,NA,NA,5,NA,NA,NA,210.6,8.2,2023_05
-82.309,42.999,SARNIA,6127510,ON,12.2,0,NA,30.9,0,-1.6,0,NA,NA,NA,27,0,NA,NA,4,NA,NA,NA,186.7,7.1,2023_05
-82.3,43,SARNIA CLIMATE,6127519,ON,12.2,0,NA,30.8,0,-2.1,0,NA,NA,NA,31,0,NA,NA,4,NA,NA,NA,186.6,6.6,2023_05
