Long,Lat,Stn_Name,Clim_ID,Prov_or_Ter,Tm,DwTm,D,Tx,DwTx,Tn,DwTn,S,DwS,S%N,P,DwP,P%N,S_G,Pd,BS,DwBS,BS%,HDD,CDD,YYYY_MM
-123.742,48.935,CHEMAINUS,1011500,BC,8.7,0,NA,17,0,1,0,0,0,NA,267.8,0,NA,0,22,NA,NA,NA,280,0,2016_11
-124.133,48.824,COWICHAN LAKE FORESTRY,1012040,BC,6.5,0,1.1,16.5,0,-2,0,1,0,9,524.9,0,135,0,24,NA,NA,NA,344,0,2016_11
-124.052,48.829,LAKE COWICHAN,1012055,BC,7.5,15,2.1,18,10,-1,10,0,16,NA,463.6,10,NA,NA,15,NA,NA,NA,158.2,0,2016_11
-123.226,48.425,DISCOVERY ISLAND,1012475,BC,NA,NA,NA,15.4,0,NA,NA,NA,NA,NA,NA,NA,NA,NA,NA,NA,NA,NA,NA,NA,2016_11
-123.439,48.432,ESQUIMALT HARBOUR,1012710,BC,9.8,1,NA,16.3,1,3,0,NA,NA,NA,104.4,1,NA,NA,15,NA,NA,NA,237.7,0,2016_11
-123.573,48.985,GALIANO NORTH,10130MN,BC,8.8,5,NA,15.5,5,2.5,5,0,5,NA,202.6,5,NA,0,22,NA,NA,NA,230.8,0,2016_11
-123.53,48.575,MALAHAT,1014820,BC,7.5,0,NA,15.5,0,1.6,0,NA,NA,NA,231.4,0,NA,NA,20,NA,NA,NA,315.8,0,2016_11
-123.561,48.374,METCHOSIN,1015105,BC,NA,NA,NA,NA,NA,NA,NA,0,3,NA,164.6,3,NA,0,22,NA,NA,NA,NA,NA,2016_11
-123.718,48.824,NORTH COWICHAN,1015628,BC,NA,NA,NA,NA,NA,NA,NA,0,0,0,228.6,0,119,0,23,NA,NA,NA,NA,NA,2016_11
-123.719,48.824,NORTH COWICHAN,1015630,BC,8.1,0,NA,17.3,0,-0.8,0,NA,NA,NA,211.0,0,NA,0,20,NA,NA,NA,296.3,0,2016_11
-123.287,48.764,NORTH PENDER ISLAND,1015638,BC,10.4,13,NA,18.5,13,3,13,0,13,NA,78.9,13,NA,0,10,NA,NA,NA,129.7,0,2016_11
-123.531,48.298,RACE ROCKS,1016640,BC,10.6,0,NA,17.3,0,6.1,0,NA,NA,NA,NA,NA,NA,NA,NA,NA,NA,NA,221.2,0,2016_11
-123.419,48.622,SAANICHTON CDA,1016940,BC,8.8,0,2.2,16.5,0,0.5,0,0,0,0,147.2,0,95,0,21,NA,NA,NA,275.5,0,2016_11
-123.546,48.888,SALTSPRING ST MARY'S L,1016995,BC,8,0,1.4,15,0,0,0,0,0,0,222.6,0,133,0,22,NA,NA,NA,300.8,0,2016_11
-123.427,48.598,SAANICHTON MT NEWTON,1016RM0,BC,NA,NA,NA,NA,NA,NA,NA,0,20,NA,63.8,20,NA,NA,10,NA,NA,NA,NA,NA,2016_11
-123.128,48.775,SATURNA CAPMON,1017098,BC,8.7,0,2.3,18.2,0,1.6,0,0,0,0,149.4,0,107,NA,19,NA,NA,NA,280.5,0,2016_11
-123.128,48.775,SATURNA CAPMON CS,1017099,BC,8.6,1,NA,17.9,1,1.5,0,NA,NA,NA,145.7,1,NA,NA,18,NA,NA,NA,272.9,0,2016_11
-123.045,48.784,SATURNA ISLAND CS,1017101,BC,10.4,1,NA,18,1,4.6,0,NA,NA,NA,108.0,1,NA,NA,15,NA,NA,NA,220.1,0,2016_11
-123.626,48.647,SHAWNIGAN LAKE,1017230,BC,7.8,0,2.2,15,0,1,0,0,0,0,255.9,0,114,0,22,NA,NA,NA,306.2,0,2016_11
-123.921,48.377,SHERINGHAM POINT,1017254,BC,10.6,0,NA,18.8,0,5,0,NA,NA,NA,260.2,0,NA,NA,22,NA,NA,NA,222.7,0,2016_11
-123.305,48.457,VICTORIA UNIVERSITY CS,1018598,BC,9.6,2,NA,19,2,1.2,1,NA,NA,NA,80.4,2,NA,NA,14,NA,NA,NA,234.5,0,2016_11
-123.443,48.476,VICTORIA FRANCIS PARK,1018605,BC,NA,NA,NA,NA,NA,NA,NA,0,19,NA,87.5,19,NA,0,11,NA,NA,NA,NA,NA,2016_11
-123.325,48.413,VICTORIA GONZALES CS,1018611,BC,9.8,1,NA,16.8,1,4,0,NA,NA,NA,77.4,1,NA,NA,15,NA,NA,NA,236.4,0,2016_11
-123.426,48.647,VICTORIA INTL A,1018621,BC,8.7,0,NA,16.7,0,0.1,0,0,0,NA,176.2,0,NA,NA,16,NA,NA,NA,278.9,0,2016_11
-123.539,48.34,WILLIAM HEAD,1018935,BC,10.5,2,3.2,16,2,6,2,0,2,NA,130.3,2,NA,0,21,NA,NA,NA,209.8,0,2016_11
-124.16,49.35,BALLENAS ISLAND,1020590,BC,9.6,0,NA,17.5,0,1.5,0,NA,NA,NA,125.6,0,NA,NA,18,NA,NA,NA,253.3,0,2016_11
-125.273,49.952,CAMPBELL RIVER A,1021261,BC,6.6,2,2.2,14.5,2,-2.5,2,0,2,NA,409.2,2,NA,0,25,NA,NA,NA,320.5,0,2016_11
-125.195,49.998,CAPE MUDGE,1021330,BC,8.8,0,3,15.5,0,2,0,0,0,0,381.8,0,155,0,26,NA,NA,NA,277,0,2016_11
-124.683,49.472,CHROME ISLAND,1021500,BC,9.4,0,NA,16.5,0,2,0,0,0,NA,406.4,0,NA,0,24,NA,NA,NA,259.4,0,2016_11
-124.9,49.717,COMOX A,1021830,BC,8.4,0,2.7,15.4,0,0.2,0,0,0,0,388.6,0,194,0,23,NA,NA,NA,287,0,2016_11
-124.949,50.071,CORTES ISLAND TIBER BAY,1021960,BC,8.4,0,NA,19,0,-1,0,0,0,NA,307.7,0,NA,0,26,NA,NA,NA,288.4,0,2016_11
-124.999,49.763,COURTENAY GRANTHAM,1021988,BC,7.8,1,NA,15.5,1,0.5,1,0,1,NA,464.2,1,NA,0,23,NA,NA,NA,297,0,2016_11
-125.033,49.686,COURTENAY PUNTLEDGE,1021989,BC,7,3,NA,17,2,-1.5,2,0,2,NA,470.4,2,NA,0,25,NA,NA,NA,296.2,0,2016_11
-123.811,49.209,ENTRANCE ISLAND,1022689,BC,9.7,0,NA,18.7,0,3.1,0,NA,NA,NA,138.0,0,NA,NA,19,NA,NA,NA,248.4,0,2016_11
-125.993,50.454,FANNY ISLAND,1022795,BC,8.9,1,NA,15.3,1,3.3,0,NA,NA,NA,453.2,1,NA,NA,25,NA,NA,NA,263.7,0,2016_11
-123.734,49.154,GABRIOLA ISLAND,1023042,BC,8.4,0,2.8,17.5,0,0,0,0,0,0,178.3,0,114,0,18,NA,NA,NA,289.2,0,2016_11
-125.203,50.099,HERIOT BAY SE,1023462,BC,8.4,3,NA,15.5,3,1.5,3,0,3,NA,360.6,3,NA,0,26,NA,NA,NA,259.9,0,2016_11
-124.512,49.353,LITTLE QUALICUM HATCHERY,1024638,BC,8.5,5,3.3,17.5,5,-1.5,5,0,5,NA,219.4,5,NA,NA,22,NA,NA,NA,238.7,0,2016_11
-123.87,49.054,NANAIMO A,1025369,BC,7.8,2,NA,18.5,2,-2,2,0,2,NA,205.3,2,NA,NA,20,NA,NA,NA,285.8,0,2016_11
-123.988,49.199,NANAIMO CITY YARD,10253G0,BC,NA,NA,NA,NA,NA,NA,NA,0,0,0,254.5,0,137,0,22,NA,NA,NA,NA,NA,2016_11
-127.728,50.976,PINE ISLAND,1026170,BC,9.3,1,2.1,14.5,1,5,1,0,1,NA,491.8,1,NA,0,27,NA,NA,NA,252.8,0,2016_11
-127.367,50.681,PORT HARDY A,1026271,BC,7.4,2,NA,14.8,1,-1.9,1,0,0,NA,465.2,1,NA,NA,26,NA,NA,NA,295.6,0,2016_11
-124.394,49.337,QUALICUM BEACH AIRPORT,1026562,BC,8,1,NA,18.1,1,-0.5,0,NA,NA,NA,149.3,1,NA,0,17,NA,NA,NA,289.9,0,2016_11
-124.617,49.394,QUALICUM R FISH RESEARCH,1026565,BC,8.3,0,2.7,16,0,0,0,0,0,0,346.6,0,159,0,24,NA,NA,NA,290.1,0,2016_11
-125.304,50.016,QUINSAM RIVER HATCHERY,1026639,BC,7.6,10,2.7,16,10,-0.5,10,0,10,NA,271.8,10,NA,0,19,NA,NA,NA,208,0,2016_11
-124.435,49.487,SISTERS ISLAND,1027403,BC,10,0,NA,16.4,0,2.2,0,NA,NA,NA,NA,NA,NA,NA,NA,NA,NA,NA,239.7,0,2016_11
-123.809,49.209,ENTRANCE ISLAND,102BFHH,BC,9.9,1,NA,16,1,4,1,0,1,NA,179.0,1,NA,0,20,NA,NA,NA,235.9,0,2016_11
-124.982,49.337,ALBERNI ROBERTSON CREEK,1030230,BC,7.3,0,2.8,19,0,-0.5,0,0,0,0,696.0,0,197,0,24,NA,NA,NA,319.6,0,2016_11
-125.216,48.786,CAPE BEALE LIGHT,1031316,BC,9.9,0,2.4,16,0,3,0,0,0,0,676.3,0,158,0,25,NA,NA,NA,242.3,0,2016_11
-124.751,48.612,CARMANAH POINT,1031402,BC,NA,NA,NA,NA,NA,NA,NA,2,9,NA,394.4,9,NA,NA,19,NA,NA,NA,NA,NA,2016_11
-126.543,49.383,ESTEVAN POINT,1032730,BC,9.5,0,2.2,15.5,0,2,0,0,0,0,853.0,0,182,0,29,NA,NA,NA,254.3,0,2016_11
-126.543,49.383,ESTEVAN POINT CS,1032731,BC,9.1,2,NA,14.8,2,2.2,0,NA,NA,NA,787.5,2,NA,NA,26,NA,NA,NA,248.1,0,2016_11
-126.055,49.779,GOLD RIVER TOWNSITE,1033232,BC,7.5,8,3.1,14,8,0,8,0,8,NA,520.8,8,NA,0,19,NA,NA,NA,230,0,2016_11
-125.923,49.111,LENNARD ISLAND,1034600,BC,9.7,0,NA,15.5,0,3,0,0,0,0,763.0,0,168,0,26,NA,NA,NA,248.3,0,2016_11
-124.655,48.859,NITINAT RIVER HATCHERY,1035612,BC,8.1,1,2.1,14.5,1,0,1,0,1,NA,908.3,1,NA,0,28,NA,NA,NA,287.2,0,2016_11
-126.617,49.6,NOOTKA LIGHTSTATION,1035614,BC,9.2,0,2.2,16.5,0,2.5,0,0,0,0,775.8,0,162,0,28,NA,NA,NA,262.7,0,2016_11
-125.097,48.723,PACHENA POINT,1035940,BC,12.2,22,5.1,16,7,8,22,0,1,NA,537.4,1,NA,0,25,NA,NA,NA,46.4,0,2016_11
-124.752,49.202,PORT ALBERNI COX LAKE,1036208,BC,7.8,10,2,16,10,0.5,10,3,10,NA,559.8,10,NA,NA,18,NA,NA,NA,205,0,2016_11
-127.653,50.534,QUATSINO,1036570,BC,7.6,3,1.6,17.5,3,0,3,0,3,NA,443.4,3,NA,0,24,NA,NA,NA,280.4,0,2016_11
-124.927,49.317,PORT ALBERNI (AUT),1036B06,BC,7.4,1,NA,17.6,1,-0.3,1,NA,NA,NA,520.6,4,NA,NA,21,NA,NA,NA,307.3,0,2016_11
-128.908,50.821,SARTINE ISLAND (AUT),1037090,BC,9,1,NA,12.6,1,3.6,0,NA,NA,NA,524.0,1,NA,NA,28,NA,NA,NA,261.1,0,2016_11
-127.94,50.112,SOLANDER ISLAND (AUT),1037553,BC,9.5,1,NA,13.5,1,4.7,0,NA,NA,NA,381.0,1,NA,NA,27,NA,NA,NA,245.9,0,2016_11
-126.654,49.932,TAHSIS VILLAGE NORTH,1037899,BC,7.9,15,NA,18,15,0.5,15,NA,NA,NA,481.2,15,NA,NA,14,NA,NA,NA,151.3,0,2016_11
-125.773,49.082,TOFINO A,1038205,BC,8.3,6,1.5,15,6,-0.5,6,0,3,NA,679.6,3,NA,0,23,NA,NA,NA,232.2,0,2016_11
-125.527,48.945,UCLUELET KENNEDY CAMP,1038332,BC,9.5,0,2.3,16,0,-0.5,0,0,0,0,777.4,0,158,0,26,NA,NA,NA,256.1,0,2016_11
-126.779,50.053,ZEBALLOS MURAUDE CREEK,1039035,BC,7.7,0,NA,17,0,0,0,0,0,NA,######,0,NA,0,28,NA,NA,NA,309.1,0,2016_11
-123.541,49.386,GIBSONS GOWER POINT,1043152,BC,9.4,0,2.9,18,0,2,0,0,0,0,252.4,0,116,0,23,NA,NA,NA,258.3,0,2016_11
-123.913,49.468,MERRY ISLAND LIGHTSTATION,1045100,BC,9.9,0,2.6,16.5,0,3.5,0,0,0,0,195.3,0,118,0,21,NA,NA,NA,244.3,0,2016_11
-123.299,49.488,HOWE SOUND - PAM ROCKS,10459NN,BC,9.3,0,NA,18.9,0,4,0,NA,NA,NA,215.8,0,NA,NA,21,NA,NA,NA,261,0,2016_11
-124.032,49.634,PENDER HARBOUR,1046115,BC,NA,NA,NA,NA,NA,NA,NA,0,0,NA,235.6,0,NA,0,25,NA,NA,NA,NA,NA,2016_11
-123.496,49.526,PORT MELLON,1046332,BC,8.4,1,NA,16.5,1,1.2,0,NA,NA,NA,855.0,1,NA,0,25,NA,NA,NA,279.2,0,2016_11
-124.5,49.834,POWELL RIVER A,1046391,BC,8,0,2.7,16.5,0,-1,0,0,0,0,264.4,0,149,0,28,NA,NA,NA,299.6,0,2016_11
-124.497,49.835,POWELL RIVER,1046392,BC,8.3,2,NA,16.7,2,-1.1,0,NA,NA,NA,245.7,2,NA,NA,23,NA,NA,NA,272.3,0,2016_11
-123.715,49.458,SECHELT AUT,1047172,BC,8.9,0,NA,19.7,0,-0.3,0,NA,NA,NA,199.2,0,NA,0,22,NA,NA,NA,274.2,0,2016_11
-123.161,49.783,SQUAMISH AIRPORT,10476F0,BC,7,1,NA,14.7,1,-1.2,0,NA,NA,NA,520.0,1,NA,0,24,NA,NA,NA,319.2,0,2016_11
-122.955,50.129,WHISTLER,1048898,BC,4.1,2,3.2,13,2,-2,2,48.4,2,NA,220.9,2,NA,32,22,NA,NA,NA,389.5,0,2016_11
-131.016,51.936,CAPE ST JAMES,1051351,BC,8.6,2,NA,12.4,2,4.1,0,NA,NA,NA,NA,NA,NA,NA,NA,NA,NA,NA,263.2,0,2016_11
-132.772,53.316,KINDAKUN ROCKS (AUT),1054222,BC,9.1,1,NA,15.5,1,4.3,0,NA,NA,NA,200.4,1,NA,NA,21,NA,NA,NA,258.6,0,2016_11
-133.058,54.255,LANGARA,1054500,BC,7.2,0,1.6,12.5,0,2,0,0,0,0,183.8,0,80,0,27,NA,NA,NA,323.8,0,2016_11
-133.058,54.255,LANGARA ISLAND RCS,1054503,BC,7.1,0,NA,12.6,0,2,0,NA,NA,NA,155.3,0,NA,NA,21,NA,NA,NA,327.4,0,2016_11
-131.661,54.159,ROSE SPIT (AUT),1056869,BC,7.3,0,NA,12.4,0,-3.4,0,NA,NA,NA,309.9,0,NA,NA,24,NA,NA,NA,320.3,0,2016_11
-131.813,53.254,SANDSPIT A,1057050,BC,7.3,0,1.6,13,0,-2,0,0,0,0,285.5,0,147,0,27,NA,NA,NA,320.6,0,2016_11
-131.813,53.249,SANDSPIT AIRPORT AUTO,1057051,BC,7,1,NA,13.6,1,-1.3,0,NA,NA,NA,269.2,1,NA,NA,21,NA,NA,NA,319.4,0,2016_11
-131.814,53.254,SANDSPIT,1057052,BC,7.2,12,NA,12.7,12,1.6,12,NA,NA,NA,145.1,12,NA,NA,14,NA,NA,NA,193.9,0,2016_11
-132.299,53.764,SEWALL MASSET INLET,105PA91,BC,6.6,13,NA,13,13,-1,12,0,13,NA,159.0,13,NA,NA,15,NA,NA,NA,194.3,0,2016_11
-127.864,51.604,ADDENBROKE ISLAND,1060080,BC,8.8,1,2.7,17,1,3,1,0,1,NA,598.2,1,NA,0,29,NA,NA,NA,265.6,0,2016_11
-128.157,52.185,BELLA BELLA,1060815,BC,7.4,7,NA,14.4,7,-0.6,7,NA,NA,NA,450.6,7,NA,NA,22,NA,NA,NA,243.9,0,2016_11
-126.596,52.388,BELLA COOLA A,1060841,BC,5.5,0,2.7,18.5,0,-4,0,6,0,23,251.9,0,123,0,21,NA,NA,NA,373.9,0,2016_11
-126.587,52.389,BELLA COOLA AIRPORT,1060844,BC,5,0,NA,17,0,-4.2,0,NA,NA,NA,238.2,0,NA,1,16,NA,NA,NA,390.9,0,2016_11
-128.524,52.643,BOAT BLUFF,1060901,BC,7.8,0,2.5,16.5,0,1,0,0,0,0,975.4,0,144,0,27,NA,NA,NA,307.2,0,2016_11
-130.638,53.493,BONILLA ISLAND,1060902,BC,8.3,0,1.7,14,0,3,0,0,0,0,443.2,0,168,0,26,NA,NA,NA,291.2,0,2016_11
-130.639,53.493,BONILLA ISLAND (AUT),1060R0K,BC,8.4,2,NA,13.8,2,3.9,0,NA,NA,NA,217.6,3,NA,NA,20,NA,NA,NA,269.2,0,2016_11
-127.471,52.187,CATHEDRAL POINT (AUT),1061458,BC,7,1,NA,16.8,1,0.3,0,NA,NA,NA,397.2,2,NA,NA,25,NA,NA,NA,318.4,0,2016_11
-131.602,53.03,CUMSHEWA ISLAND,1062251,BC,8.3,1,NA,14.1,1,2.3,0,NA,NA,NA,305.2,1,NA,NA,22,NA,NA,NA,280.5,0,2016_11
-128.112,52.185,DRYAD POINT,1062544,BC,8.5,0,2.4,18.5,0,2.5,0,0,0,0,427.2,0,123,0,26,NA,NA,NA,284.7,0,2016_11
-127.835,51.247,EGG ISLAND,1062646,BC,8.5,2,2.3,16.5,2,1.5,2,0,2,NA,509.8,2,NA,0,25,NA,NA,NA,265.6,0,2016_11
-130.708,54.569,GREEN ISLAND,1063298,BC,7.7,0,2.4,14.5,0,3,0,0,0,0,284.8,0,96,0,19,NA,NA,NA,308.4,0,2016_11
-130.698,54.58,GREY ISLET (AUT),1063303,BC,8,1,NA,15.5,1,3.3,0,NA,NA,NA,261.2,1,NA,NA,19,NA,NA,NA,288.6,0,2016_11
-127.632,50.94,HERBERT ISLAND (AUT),1063461,BC,9.3,0,NA,14.7,0,4.9,0,NA,NA,NA,237.4,0,NA,NA,25,NA,NA,NA,262,0,2016_11
-130.361,54.172,HOLLAND ROCK,1063496,BC,8.1,0,NA,15.6,0,3.5,0,NA,NA,NA,174.4,0,NA,NA,18,NA,NA,NA,295.7,0,2016_11
-128.407,52.27,IVORY ISLAND,1063690,BC,8.3,0,1.8,16.5,0,2,0,0,0,0,447.0,0,116,0,26,NA,NA,NA,291.4,0,2016_11
-128.634,54.054,KITIMAT TOWNSITE,1064320,BC,3.3,0,1.5,10,0,-5,0,20,0,37,495.7,0,155,0,26,NA,NA,NA,441.6,0,2016_11
-130.609,54.296,LUCY ISLAND LIGHTSTATION,1064728,BC,8.2,0,NA,14.9,0,3.6,0,NA,NA,NA,NA,NA,NA,NA,NA,NA,NA,NA,293.4,0,2016_11
-128.719,52.262,MCINNES ISLAND,1065010,BC,8.2,0,1.8,15.5,0,2.5,0,0,0,0,478.8,0,140,0,27,NA,NA,NA,293.2,0,2016_11
-130.445,54.286,PRINCE RUPERT,1066482,BC,6.7,8,NA,16.4,8,-1,8,NA,NA,NA,257.0,8,NA,NA,17,NA,NA,NA,248.5,0,2016_11
-130.29,54.32,PRINCE RUPERT MONT CIRC,1066488,BC,NA,NA,NA,NA,NA,NA,NA,0,12,NA,322.8,12,NA,0,16,NA,NA,NA,NA,NA,2016_11
-128.625,54.502,TERRACE PCC,1068131,BC,4.1,0,2.3,11.5,0,-3.5,0,13,0,47,355.0,0,224,0,22,NA,NA,NA,416.9,0,2016_11
-128.578,54.469,TERRACE A,1068134,BC,2.8,0,NA,9.7,0,-5.2,0,18.6,0,NA,356.7,0,NA,1,25,NA,NA,NA,454.7,0,2016_11
-130.88,54.295,TRIPLE ISLAND,1068250,BC,8.7,0,NA,16,0,4.5,0,0,0,NA,170.8,0,NA,0,23,NA,NA,NA,279.5,0,2016_11
-128.682,54.044,KITIMAT HATCHERY,106D289,BC,3.1,21,NA,10,21,-1,21,3.6,21,NA,122.0,21,NA,NA,8,NA,NA,NA,133.8,0,2016_11
-126.277,54.199,EQUITY SILVER,1072692,BC,-2.5,4,1.9,7.5,4,-13.5,4,38.4,4,NA,71.4,4,NA,0,14,NA,NA,NA,532.8,0,2016_11
-126.668,54.396,HOUSTON,1073615,BC,0.9,8,NA,12.5,8,-10,8,4,13,NA,16.0,13,NA,7,4,NA,NA,NA,377.3,0,2016_11
-129.03,55.238,NASS CAMP,1075384,BC,2.2,0,3,13,0,-7.5,0,11.6,0,20,121.8,0,89,5,19,NA,NA,NA,473.6,0,2016_11
-127.183,54.825,SMITHERS,1077499,BC,1.7,17,NA,11.2,17,-8,17,NA,NA,NA,32.6,17,NA,NA,6,NA,NA,NA,212.5,0,2016_11
-127.183,54.825,SMITHERS A,1077500,BC,1.7,0,3.8,11.5,0,-8,0,14.6,0,39,48.1,0,87,1,11,NA,NA,NA,488.6,0,2016_11
-127.189,54.824,SMITHERS AIRPORT AUTO,1077501,BC,1.6,0,NA,11.3,0,-7.9,0,NA,NA,NA,45.0,0,NA,1,11,NA,NA,NA,493,0,2016_11
-127.171,55.289,SUSKWA VALLEY,107G879,BC,-0.2,0,2.3,8,0,-9,0,13.2,0,31,77.6,0,100,1,21,NA,NA,NA,544.8,0,2016_11
-125.997,53.772,OOTSA LAKESKINS LAKE CLIMATE,1085836,BC,1.4,0,NA,11.6,0,-8.7,0,NA,NA,NA,39.9,0,NA,7,7,NA,NA,NA,498,0,2016_11
-122.734,50.306,PEMBERTON AIRPORT CS,1086082,BC,5.5,0,NA,13.4,0,-0.2,0,NA,NA,NA,201.6,0,NA,0,23,NA,NA,NA,374.4,0,2016_11
-124.136,52.114,PUNTZI MOUNTAIN (AUT),1086558,BC,-0.5,0,NA,17.5,0,-17.2,0,NA,NA,NA,39.2,4,NA,6,15,NA,NA,NA,553.9,0,2016_11
-124.403,51.675,TATLAYOKO LAKE RCS,1088015,BC,2.1,0,NA,16.6,0,-10.9,0,NA,NA,NA,108.5,0,NA,8,11,NA,NA,NA,476.9,0,2016_11
-125.959,54.383,BURNS LAKE DECKER LAKE,1091174,BC,-0.1,0,NA,11.9,0,-12.6,0,NA,NA,NA,42.7,0,NA,12,14,NA,NA,NA,541.5,0,2016_11
-124.286,54.455,FORT ST JAMES,1092970,BC,1.9,13,4.9,11,13,-9.5,13,2,13,NA,11.2,13,NA,4,4,NA,NA,NA,272.9,0,2016_11
-124.286,54.455,FORT ST JAMES AUTO,1092975,BC,2.1,2,NA,13.6,2,-9.6,0,NA,NA,NA,25.0,5,NA,3,10,NA,NA,NA,444.3,0,2016_11
-122.699,53.531,HIXON,1093474,BC,2,9,3.6,14.5,9,-5.5,9,8,9,NA,34.0,9,NA,NA,10,NA,NA,NA,336,0,2016_11
-122.286,52.531,MCLEESE LAKE GRANITE MT,1095018,BC,1.2,15,NA,16,11,-10.5,11,27.8,11,NA,34.2,11,NA,15,8,NA,NA,NA,252.5,0,2016_11
-122.678,53.884,PRINCE GEORGE,1096439,BC,5.1,13,NA,18.8,13,-5.1,13,NA,NA,NA,22.7,13,NA,NA,8,NA,NA,NA,220,0,2016_11
-122.672,53.889,PRINCE GEORGE AIRPORT AUTO,1096453,BC,2.4,0,NA,18.8,0,-9.7,0,NA,NA,NA,39.7,0,NA,6,16,NA,NA,NA,466.8,0,2016_11
-122.768,53.88,PRINCE GEORGE STP,1096468,BC,4.6,2,6.1,20,2,-7.5,2,13.4,2,NA,40.0,2,NA,1,14,NA,NA,NA,374,0,2016_11
-122.51,53.026,QUESNEL,1096629,BC,4.7,9,NA,20.8,9,-7.9,9,NA,NA,NA,36.3,9,NA,NA,9,NA,NA,NA,280.2,0,2016_11
-122.506,53.027,QUESNEL AIRPORT AUTO,1096631,BC,3.9,0,NA,20.8,0,-7.6,0,NA,NA,NA,34.5,0,NA,1,9,NA,NA,NA,421.7,0,2016_11
-121.686,52.184,SPOKIN LAKE 4E,1097646,BC,1.9,0,5.1,17,0,-11,0,38,0,100,47.6,0,86,13,14,NA,NA,NA,484.2,0,2016_11
-122.054,52.183,WILLIAMS LAKE A,1098941,BC,3,1,NA,17.7,1,-7,0,25.8,0,NA,27.0,0,NA,10,9,NA,NA,NA,433.9,0,2016_11
-124.017,54.033,VANDERHOOF,1098D90,BC,2,0,4.8,13.5,0,-10,0,7.2,0,25,25.6,0,57,0,10,NA,NA,NA,481.3,0,2016_11
-121.263,51.623,108 MILE HOUSE ABEL LAKE,109E7R6,BC,3.2,3,NA,17,3,-7.5,3,33,3,NA,34.4,3,NA,10,10,NA,NA,NA,399.6,0,2016_11
-122.36,49.025,ABBOTSFORD A,1100031,BC,8.9,0,NA,22.4,0,1.6,0,0,0,NA,324.9,0,NA,NA,21,NA,NA,NA,273,0,2016_11
-121.76,49.243,AGASSIZ RCS,1100119,BC,8.6,1,2.2,16.9,1,3.2,0,NA,NA,NA,252.3,1,NA,NA,23,NA,NA,NA,273,0,2016_11
-121.76,49.243,AGASSIZ CDA,1100120,BC,8.5,1,2.4,16,0,3.5,1,0,0,0,291.4,0,102,0,26,NA,NA,NA,275.7,0,2016_11
-122.955,50.129,WHISTLER - NESTERS,1100875,BC,3.9,0,NA,13.7,0,-1.8,0,NA,NA,NA,242.0,0,NA,23,23,NA,NA,NA,422.2,0,2016_11
-122.936,50.102,BLACKCOMB BASE SLIDING CENTER,1100881,BC,2.6,0,NA,12.9,0,-4,0,NA,NA,NA,299.2,0,NA,61,22,NA,NA,NA,462.6,0,2016_11
-122.918,49.278,BURNABY SIMON FRASER U,1101158,BC,8.7,17,3.4,17.5,17,3.5,17,0,17,NA,130.5,17,NA,NA,13,NA,NA,NA,120.9,0,2016_11
-123.111,50.144,CALLAGHAN VALLEY,1101300,BC,2.9,0,NA,11.9,0,-4.9,0,NA,NA,NA,516.2,0,NA,71,26,NA,NA,NA,453.2,0,2016_11
-122.698,49.109,CLOVERDALE EAST,1101708,BC,9.4,0,NA,21,0,2.5,0,0,0,NA,282.3,0,NA,0,22,NA,NA,NA,258.4,0,2016_11
-123.002,49.126,DELTA BURNS BOG,1102415,BC,8.6,0,NA,18.7,0,0.9,0,NA,NA,NA,241.2,0,NA,NA,22,NA,NA,NA,281.2,0,2016_11
-123.093,49.011,DELTA TSAWWASSEN BEACH,1102425,BC,8.8,0,1.3,20,0,1.5,0,0,0,0,181.0,0,125,0,22,NA,NA,NA,275.6,0,2016_11
-122.551,49.145,FORT LANGLEY TELEGRAPH TRAIL,1102912,BC,8.8,0,NA,20.5,0,1.5,0,0,0,NA,327.2,0,NA,0,24,NA,NA,NA,274.7,0,2016_11
-122.573,49.264,HANEY UBC RF ADMIN,1103332,BC,8.5,1,3.1,20.5,1,-1,1,0,1,NA,381.6,1,NA,0,24,NA,NA,NA,275.5,0,2016_11
-121.579,49.356,LAIDLAW,1104488,BC,7.9,0,2.5,15.5,0,2,0,0,0,0,296.6,0,84,NA,29,NA,NA,NA,303.6,0,2016_11
-122.271,49.153,MISSION WEST ABBEY,1105192,BC,8.2,1,2.7,20,1,2.5,1,0,1,NA,384.2,1,NA,NA,24,NA,NA,NA,283.6,0,2016_11
-123.078,49.182,RICHMOND OPERATIONS CENTRE,1105210,BC,NA,NA,NA,NA,NA,NA,NA,NA,NA,NA,258.8,0,NA,NA,22,NA,NA,NA,NA,NA,2016_11
-123.078,49.381,N VANC GROUSE MTN RESORT,1105658,BC,4,15,3,12,15,-2,15,8,15,NA,262.8,15,NA,0,13,NA,NA,NA,210.6,0,2016_11
-123.115,49.315,N VANCOUVER WHARVES,1105669,BC,NA,NA,NA,NA,NA,NA,NA,0,5,NA,244.2,5,NA,0,22,NA,NA,NA,NA,NA,2016_11
-122.69,49.208,PITT MEADOWS CS,1106178,BC,8.9,1,NA,20,1,1.1,0,NA,NA,NA,310.0,1,NA,NA,21,NA,NA,NA,262.9,0,2016_11
-123.265,49.33,POINT ATKINSON,1106200,BC,10.1,0,NA,18.5,0,3.9,0,NA,NA,NA,154.8,0,NA,NA,20,NA,NA,NA,238.2,0,2016_11
-122.881,49.279,PORT MOODY GLENAYRE,1106CL2,BC,8.7,2,2.8,17,2,3,2,0,2,NA,352.2,2,NA,0,22,NA,NA,NA,259.5,0,2016_11
-123.093,49.171,RICHMOND NATURE PARK,1106PF7,BC,9.3,0,3.3,19.5,0,0,0,0,0,0,302.2,0,152,0,25,NA,NA,NA,261.4,0,2016_11
-123.303,49.106,SANDHEADS CS,1107010,BC,9.9,0,NA,17.6,0,4.5,0,NA,NA,NA,NA,NA,NA,NA,NA,NA,NA,NA,242.4,0,2016_11
-122.11,49.113,SUMAS CANAL,1107785,BC,12.3,23,NA,21,14,5,15,0,14,NA,239.6,14,NA,NA,14,NA,NA,NA,40.1,0,2016_11
-123.187,49.183,VANCOUVER SEA ISLAND CCG,1108380,BC,9.4,0,NA,20.1,0,2.4,0,NA,NA,NA,211.6,0,NA,NA,19,NA,NA,NA,258.7,0,2016_11
-123.184,49.195,VANCOUVER INTL A,1108395,BC,9.3,0,NA,19.4,0,2.2,0,0,0,NA,240.2,0,NA,0,20,NA,NA,NA,262.1,0,2016_11
-123.122,49.295,VANCOUVER HARBOUR CS,1108446,BC,9.7,0,NA,18,0,3.2,0,NA,NA,NA,262.2,0,NA,NA,21,NA,NA,NA,247.6,0,2016_11
-123.193,49.347,WEST VANCOUVER AUT,1108824,BC,9.3,0,NA,19.2,0,1.9,0,NA,NA,NA,329.7,0,NA,0,23,NA,NA,NA,262.5,0,2016_11
-122.947,50.068,WHISTLER ROUNDHOUSE,1108906,BC,-4.5,20,NA,-1.5,20,-7.5,20,210,20,NA,210.0,20,NA,178,9,NA,NA,NA,225.4,0,2016_11
-122.784,49.018,WHITE ROCK CAMPBELL SCIENTIFIC,1108910,BC,10.1,1,NA,20.5,1,3.6,0,NA,NA,NA,259.2,1,NA,NA,20,NA,NA,NA,230.5,0,2016_11
-122.967,49.438,N VAN SEYMOUR HATCHERY,110N666,BC,6.5,9,1.8,15,9,0.5,9,0,9,NA,560.1,9,NA,0,21,NA,NA,NA,240.9,0,2016_11
-121.498,49.368,HOPE A,1113542,BC,7.6,6,NA,14.6,6,2.1,6,NA,NA,NA,188.9,6,NA,NA,20,NA,NA,NA,250.5,0,2016_11
-121.493,49.37,HOPE AIRPORT,1113543,BC,7.5,3,NA,15.1,3,2.1,0,NA,NA,NA,200.7,3,NA,NA,21,NA,NA,NA,283,0,2016_11
-121.233,49.267,HOPE SLIDE,1113581,BC,4.7,0,3.5,14.5,0,-1,0,9,0,21,135.4,0,67,0,21,NA,NA,NA,399.4,0,2016_11
-121.934,50.684,LILLOOET,1114619,BC,6.9,1,NA,18.7,1,0.4,0,NA,NA,NA,NA,NA,NA,NA,NA,NA,NA,NA,322.1,0,2016_11
-121.582,50.224,LYTTON A,1114738,BC,6.9,13,NA,16.3,13,-0.9,13,NA,NA,NA,114.4,13,NA,NA,12,NA,NA,NA,188.3,0,2016_11
-121.582,50.224,LYTTON RCS,1114746,BC,7.4,2,NA,16.5,2,-0.9,0,NA,NA,NA,108.1,2,NA,0,13,NA,NA,NA,296.2,0,2016_11
-120.069,49.364,HEDLEY N,1123370,BC,5.9,0,NA,18.5,0,-3,0,0,0,NA,27.4,0,NA,0,9,NA,NA,NA,362.2,0,2016_11
-120.333,49.673,JELLICOE,1123721,BC,3.2,2,NA,17,2,-9,2,23,2,NA,50.4,2,NA,4,15,NA,NA,NA,415.5,0,2016_11
-119.378,49.957,KELOWNA,1123939,BC,5.9,0,NA,16.6,0,-3.2,0,NA,NA,NA,28.3,0,NA,NA,9,NA,NA,NA,363.9,0,2016_11
-119.4,49.941,KELOWNA UBCO,1123996,BC,6.5,0,NA,16.7,0,-1.4,0,NA,NA,NA,27.8,0,NA,NA,7,NA,NA,NA,346.3,0,2016_11
-119.4,49.95,KELOWNA MWS0,11239R0,BC,6.6,12,NA,16.5,12,-1.5,12,NA,NA,NA,17.8,22,NA,NA,8,NA,NA,NA,206.1,0,2016_11
-120.778,50.113,MERRITT,1125073,BC,4.8,0,NA,19.7,0,-5,0,NA,NA,NA,8.0,16,NA,NA,2,NA,NA,NA,397.5,0,2016_11
-120.801,50.114,MERRITT STP,1125079,BC,5.5,0,4.4,19.5,0,-4,0,5,0,42,29.8,0,84,0,8,NA,NA,NA,374.8,0,2016_11
-119.445,50.056,OKANAGAN CENTRE,1125700,BC,7.5,0,4.2,16.5,0,-6.5,0,0,0,0,51.2,0,116,0,13,NA,NA,NA,314.6,0,2016_11
-119.545,49.179,OLIVER STP,1125766,BC,7.9,16,4.6,18.5,16,-2,16,0,29,NA,11.0,27,NA,NA,2,NA,NA,NA,140.8,0,2016_11
-119.441,49.028,OSOYOOS CS,1125852,BC,7.9,0,4.5,17.5,0,-2.8,0,NA,NA,NA,36.3,0,NA,NA,7,NA,NA,NA,302.7,0,2016_11
-119.717,49.783,PEACHLAND,1126070,BC,7.7,0,4,17,0,1,0,0,0,0,53.8,0,119,0,12,NA,NA,NA,307.7,0,2016_11
-119.602,49.463,PENTICTON A,1126146,BC,7.6,0,NA,17.2,0,-3.9,0,0,0,NA,26.3,0,NA,NA,8,NA,NA,NA,312.5,0,2016_11
-120.513,49.468,PRINCETON A,1126510,BC,3.6,0,3.8,16.5,0,-4,0,12,0,55,19.4,0,44,0,8,NA,NA,NA,432.7,0,2016_11
-119.31,50.264,VERNON BELLA VISTA,1128553,BC,6.6,0,4.6,16.5,0,-0.5,0,0,0,0,47.8,0,99,NA,17,NA,NA,NA,342,0,2016_11
-119.194,50.223,VERNON AUTO,1128582,BC,6.1,2,NA,16,1,-1.9,1,NA,NA,NA,28.1,2,NA,NA,7,NA,NA,NA,333.7,0,2016_11
-119.271,50.344,VERNON NORTH,1128583,BC,6,2,4.2,15.5,2,-0.5,2,4,2,NA,55.3,2,NA,0,14,NA,NA,NA,335.3,0,2016_11
-119.056,50.359,VERNON SILVER STAR LODGE,1128584,BC,0.9,1,NA,19.5,1,-7.5,1,85.8,1,NA,121.0,1,NA,37,22,NA,NA,NA,496.3,0,2016_11
-120.51,49.465,PRINCETON CS,112FN0M,BC,3.5,0,NA,16.6,0,-3.5,0,NA,NA,NA,15.2,0,NA,NA,5,NA,NA,NA,433.6,0,2016_11
-119.649,49.563,SUMMERLAND CS,112G8L1,BC,7,0,4.1,17.8,0,-1.6,0,NA,NA,NA,22.6,0,NA,NA,7,NA,NA,NA,329.8,0,2016_11
-118.772,49.004,MIDWAY,1135126,BC,5,2,4.3,14.5,2,-2.5,2,0,2,NA,47.2,2,NA,0,12,NA,NA,NA,364.7,0,2016_11
-118.228,49.017,BILLINGS,1140876,BC,5.1,0,4,12.5,0,-2.5,0,0,0,0,65.4,0,114,0,15,NA,NA,NA,386.3,0,2016_11
-117.633,49.296,CASTLEGAR A,1141455,BC,6.1,0,4,14,0,-1,0,0.6,0,2,89.4,0,92,0,17,NA,NA,NA,358.1,0,2016_11
-117.774,49.343,CASTLEGAR BCHPA DAM,1141457,BC,7.8,10,5.5,13,6,0,7,0,6,NA,69.5,6,NA,NA,14,NA,NA,NA,203.5,0,2016_11
-116.518,49.097,CRESTON,1142160,BC,5.4,0,3.4,15,0,-1,0,0,0,0,70.4,0,84,0,16,NA,NA,NA,378.1,0,2016_11
-116.972,50.239,DUNCAN LAKE DAM,1142574,BC,5,0,3.7,13.5,0,-2.5,0,0,0,0,101.4,0,99,0,20,NA,NA,NA,391,0,2016_11
-118.068,49.872,FAUQUIER,1142820,BC,5.7,1,3.7,12,1,-1,1,0,1,NA,84.8,1,NA,NA,23,NA,NA,NA,356.6,0,2016_11
-116.921,49.913,KASLO,1143900,BC,5.3,27,3.6,11,27,1.5,27,0,27,NA,14.2,27,NA,NA,3,NA,NA,NA,38.1,0,2016_11
-116.458,49.032,LISTER,1144635,BC,5.4,0,3.4,14.9,0,-1.5,0,1,0,4,59.5,0,88,NA,14,NA,NA,NA,378.3,0,2016_11
-117.817,50.269,NAKUSP CS,1145297,BC,5.4,0,NA,13.8,0,-0.2,0,NA,NA,NA,103.0,0,NA,NA,16,NA,NA,NA,378.5,0,2016_11
-117.206,49.586,NELSON NE,1145442,BC,5.5,1,NA,13,1,-0.5,1,0,1,NA,121.2,1,NA,0,17,NA,NA,NA,361.7,0,2016_11
-117.37,49.996,NEW DENVER,1145460,BC,5.6,2,3.7,12.5,1,1,2,0,1,NA,97.9,1,NA,0,20,NA,NA,NA,346.1,0,2016_11
-117.305,49.491,NELSON CS,1145M29,BC,6.1,0,NA,13.7,0,-0.2,0,NA,NA,NA,86.1,1,NA,0,15,NA,NA,NA,357.8,0,2016_11
-117.739,49.112,WARFIELD RCS,1148705,BC,5.6,2,NA,13.7,2,-1.1,0,NA,NA,NA,60.6,14,NA,NA,12,NA,NA,NA,346.6,0,2016_11
-116.501,49.082,CRESTON CAMPBELL SCIENTIFIC,114B1F0,BC,5.2,0,NA,15.3,0,-1.6,0,NA,NA,NA,45.6,0,NA,NA,13,NA,NA,NA,383.9,0,2016_11
-117.399,49.512,NELSON RIXEN CREEK,114EMDM,BC,4,1,NA,12,1,-2.5,1,6.6,1,NA,110.0,1,NA,0,16,NA,NA,NA,404.9,0,2016_11
-115.221,49.226,BAYNES LAKE KOOTENAY RIVER,1150690,BC,3.9,3,4,16,3,-6.5,3,4.2,3,NA,26.4,3,NA,NA,8,NA,NA,NA,380.7,0,2016_11
-115.782,49.612,CRANBROOK A,1152105,BC,2.5,0,NA,15.3,0,-7.2,0,12,0,NA,20.2,0,NA,1,9,NA,NA,NA,463.9,0,2016_11
-115.789,49.618,CRANBROOK AIRPORT AUTO,1152106,BC,2.6,1,NA,15.3,1,-6.8,0,NA,NA,NA,16.1,1,NA,0,5,NA,NA,NA,446.1,0,2016_11
-115.073,49.489,FERNIE,1152850,BC,2.8,3,3.9,17,3,-8,3,9,3,NA,147.8,3,NA,1,15,NA,NA,NA,409.8,0,2016_11
-114.855,50.149,FORDING RIVER COMINCO,1152899,BC,NA,NA,NA,-3.5,29,-0.5,29,1,29,NA,1.0,29,NA,NA,1,NA,NA,NA,NA,NA,2016_11
-115.461,49.524,FT STEELE DANDY CRK,1153034,BC,3.8,11,NA,15,6,-5,6,5,6,NA,11.8,6,NA,0,5,NA,NA,NA,269.8,0,2016_11
-115.962,49.632,KIMBERLEY PCC,1154203,BC,3.9,11,5.4,16,11,-6.5,11,3.2,11,NA,14.8,11,NA,NA,6,NA,NA,NA,267.4,0,2016_11
-116.061,50.631,KOOTENAY NP WEST GATE,1154410,BC,3.1,1,5,17,1,-5,1,10.8,1,NA,27.2,1,NA,0,7,NA,NA,NA,433.1,0,2016_11
-114.883,49.745,SPARWOOD,1157630,BC,2.7,0,4.7,17,0,-7,0,22.8,0,48,44.8,0,62,0,12,NA,NA,NA,458.7,0,2016_11
-114.884,49.745,SPARWOOD CS,1157631,BC,2.5,0,NA,17.3,0,-7.7,0,NA,NA,NA,4.2,22,NA,1,2,NA,NA,NA,465.2,0,2016_11
-115.46,49.473,WARDNER KTNY HATCHERY,1158692,BC,4.1,24,4.4,11,24,-5,24,0,24,NA,0.0,24,NA,NA,0,NA,NA,NA,83.7,0,2016_11
-115.631,49.807,WASA,1158730,BC,3.2,2,4.3,13.5,1,-3.5,1,7.2,1,NA,24.0,1,NA,2,10,NA,NA,NA,415.6,0,2016_11
-121.281,50.708,ASHCROFT,1160515,BC,7.2,1,NA,23.7,1,-1,0,NA,NA,NA,17.6,1,NA,NA,4,NA,NA,NA,314.3,0,2016_11
-119.29,52.129,BLUE RIVER A,1160899,BC,2.9,0,4.8,16.5,0,-3,0,61.4,0,75,140.0,0,122,12,17,NA,NA,NA,452.6,0,2016_11
-119.29,52.129,BLUE RIVER CS,1160H99,BC,3,0,NA,16.8,0,-3.2,0,NA,NA,NA,122.2,0,NA,10,19,NA,NA,NA,449,0,2016_11
-121.083,51.709,BUFFALO LAKE,1161104,BC,7.4,26,9.7,13.5,26,-1.5,26,0,26,NA,1.4,26,NA,NA,1,NA,NA,NA,42.5,0,2016_11
-120.082,51.653,CLEARWATER AUTO,1161650,BC,5.3,1,NA,20.7,1,-1.5,0,NA,NA,NA,48.4,1,NA,1,11,NA,NA,NA,369.6,0,2016_11
-121.685,51.266,CLINTON A,1161662,BC,1.4,11,NA,15.5,11,-13.9,11,NA,NA,NA,1.7,12,NA,NA,1,NA,NA,NA,316.3,0,2016_11
-121.505,51.144,CLINTON RCS,1161663,BC,2.5,0,NA,15.7,0,-7,0,NA,NA,NA,15.5,0,NA,4,5,NA,NA,NA,464.3,0,2016_11
-120.728,51.03,CRISS CREEK,1162177,BC,2.5,0,5.5,15.5,0,-11.5,0,28.8,0,88,34.0,0,87,8,11,NA,NA,NA,465.8,0,2016_11
-120.183,51.292,DARFIELD,1162265,BC,6.2,0,5.8,20,0,-1,0,2,0,9,56.2,0,109,0,18,NA,NA,NA,354.9,0,2016_11
-120.449,50.703,KAMLOOPS A,1163781,BC,7.5,1,NA,21.5,0,-0.7,1,0,0,NA,19.3,0,NA,NA,5,NA,NA,NA,305.4,0,2016_11
-120.442,50.702,KAMLOOPS AUT,1163842,BC,7.6,0,NA,21.3,0,-0.5,0,NA,NA,NA,16.3,2,NA,1,5,NA,NA,NA,312.8,0,2016_11
-121.217,51.681,100 MILE HOUSE 6NE,1165793,BC,3.2,0,NA,16,0,-6,0,22.4,0,NA,28.6,0,NA,8,10,NA,NA,NA,445.4,0,2016_11
-120.8,50.935,RED LAKE,1166658,BC,2.8,0,5.6,15,0,-7,0,32.2,0,88,33.8,0,78,8,9,NA,NA,NA,454.6,0,2016_11
-119.234,50.686,SALMON ARM A,1166R45,BC,5.1,0,4.5,15,0,-2,0,0,0,0,96.6,0,117,NA,20,NA,NA,NA,386,0,2016_11
-119.35,50.545,SILVER CREEK,1167337,BC,4.9,0,3.4,15.5,0,-2.5,0,2,0,6,67.1,0,93,0,20,NA,NA,NA,392.1,0,2016_11
-119.911,50.903,SUN PEAKS MOUNTAIN,1168204,BC,-4.2,13,NA,7,9,-11,10,54,9,NA,56.0,9,NA,84,10,NA,NA,NA,378,0,2016_11
-119.778,51.576,VAVENBY,1168520,BC,6.1,2,6.3,19.5,1,-2,1,0,1,NA,49.4,1,NA,0,13,NA,NA,NA,334,0,2016_11
-120.172,50.63,KAMLOOPS PRATT ROAD,116C8P0,BC,4.7,5,NA,16.5,5,-3.5,5,5,5,NA,20.4,5,NA,3,7,NA,NA,NA,332.7,0,2016_11
-119.291,50.703,SALMON ARM CS,116FRMN,BC,6,0,3.9,17.8,0,-2.1,0,NA,NA,NA,59.6,0,NA,NA,16,NA,NA,NA,358.6,0,2016_11
-119.883,50.887,SUN PEAKS LOWER,116Q20D,BC,-0.9,13,NA,10,11,-7,11,41,10,NA,43.0,10,NA,32,10,NA,NA,NA,321.3,0,2016_11
-119.918,50.902,SUN PEAKS UPPER,116QK0M,BC,-5.2,13,NA,4,9,-12,10,56,9,NA,56.0,9,NA,100,10,NA,NA,NA,394.8,0,2016_11
-116.982,51.299,GOLDEN A,1173210,BC,2.8,0,4.8,14.5,0,-3.5,0,23.8,0,75,48.2,0,94,0,12,NA,NA,NA,455.6,0,2016_11
-116.984,51.3,GOLDEN AIRPORT,1173220,BC,2.8,0,NA,14.8,0,-3.5,0,NA,NA,NA,43.9,0,NA,1,9,NA,NA,NA,457,0,2016_11
-118.425,51.63,GOLDSTREAM RIVER,1173242,BC,3,0,4.9,10,0,-2,0,60,0,67,184.0,0,146,27,28,NA,NA,NA,450.5,0,2016_11
-118.585,52.053,MICA DAM,1175122,BC,4.3,9,4.8,9,5,-1,5,29.2,5,NA,211.4,5,NA,25,23,NA,NA,NA,288.7,0,2016_11
-118.183,50.967,REVELSTOKE A,1176745,BC,5.3,9,NA,12.9,9,-0.2,9,NA,NA,NA,117.9,9,NA,NA,14,NA,NA,NA,267.4,0,2016_11
-118.176,50.958,REVELSTOKE AIRPORT AUTO,1176755,BC,4.9,0,NA,13.2,0,-0.1,0,NA,NA,NA,136.7,0,NA,0,19,NA,NA,NA,392.5,0,2016_11
-116.345,51.443,YOHO PARK,11790J1,BC,-1.1,2,NA,7.4,2,-11,1,NA,NA,NA,54.3,2,NA,14,13,NA,NA,NA,533.4,0,2016_11
-116.541,51.433,YOHO NP EMERALD LAKE,117R00G,BC,NA,NA,NA,NA,NA,-7.5,0,56,0,NA,83.7,0,NA,0,16,NA,NA,NA,NA,NA,2016_11
-121.017,56.298,CHARLIE LAKE,11814FR,BC,-4.6,1,NA,11.5,1,-23,1,41,1,NA,41.0,1,NA,17,9,NA,NA,NA,656,0,2016_11
-121.627,55.687,CHETWYND A,1181508,BC,-3.2,0,2.4,12.5,0,-19.5,0,29.6,0,84,35.8,0,117,9,9,NA,NA,NA,635.6,0,2016_11
-120.183,55.742,DAWSON CREEK A,1182289,BC,-3,3,NA,13.1,3,-21.4,3,NA,NA,NA,15.5,3,NA,NA,7,NA,NA,NA,567.7,0,2016_11
-120.74,56.238,FORT ST. JOHN A,1183001,BC,-3.7,0,NA,10.9,0,-18.9,0,27.2,0,NA,31.0,0,NA,15,9,NA,NA,NA,650.4,0,2016_11
-123.133,55.299,MACKENZIE,1184791,BC,0.3,10,NA,10.6,10,-7.5,8,NA,NA,NA,75.1,8,NA,NA,11,NA,NA,NA,354.5,0,2016_11
-123.138,55.305,MACKENZIE AIRPORT AUTO,1184793,BC,0.5,0,NA,12.3,0,-7.7,0,NA,NA,NA,65.9,0,NA,12,14,NA,NA,NA,525.7,0,2016_11
-130.031,58.422,DEASE LAKE A,1192341,BC,-5.5,6,NA,9,6,-20.7,6,NA,NA,NA,0.5,6,NA,NA,0,NA,NA,NA,563.2,0,2016_11
-122.597,58.836,FORT NELSON A,1192946,BC,-10.5,0,NA,9.9,0,-25.5,0,15.6,0,NA,12.5,0,NA,NA,4,NA,NA,NA,855,0,2016_11
-122.574,58.841,FORT NELSON,1192948,BC,-10,0,NA,9.6,0,-25.4,0,NA,NA,NA,5.3,0,NA,8,2,NA,NA,NA,839.9,0,2016_11
-122.573,58.841,FORT NELSON UA,1192950,BC,-9.6,0,NA,10.5,0,-25,0,6.2,0,NA,16.4,0,NA,7,4,NA,NA,NA,827.7,0,2016_11
-130.025,58.426,DEASE LAKE (AUT),119BLM0,BC,-5.4,2,NA,9.3,2,-20.9,0,NA,NA,NA,2.1,8,NA,6,0,NA,NA,NA,655.3,0,2016_11
-133.7,59.567,ATLIN,1200560,BC,-2,0,3.5,7,0,-14.5,0,15,0,55,32.4,0,90,7,9,NA,NA,NA,600.6,0,2016_11
-136.367,59.45,PLEASANT CAMP,1206197,BC,-2.4,0,2.2,4.5,0,-17,0,138,0,108,362.3,0,226,0,21,NA,NA,NA,612.4,0,2016_11
-139.04,61.371,BURWASH A,2100181,YT,-10.7,6,NA,4.6,6,-28.8,6,NA,NA,NA,0.0,6,NA,NA,0,NA,NA,NA,688.2,0,2016_11
-139.017,61.367,BURWASH AIRPORT AUTO,2100184,YT,-10.2,2,NA,4.7,2,-33.9,0,NA,NA,NA,7.0,2,NA,4,3,NA,NA,NA,788.9,0,2016_11
-136.192,62.115,CARMACKS CS,2100301,YT,-11.3,1,NA,8.4,1,-28,0,NA,NA,NA,14.4,1,NA,16,4,NA,NA,NA,850.6,0,2016_11
-133.376,62.208,FARO (AUT),2100518,YT,-10.6,2,NA,5.5,2,-31.8,0,NA,NA,NA,NA,NA,NA,NA,NA,NA,NA,NA,800.5,0,2016_11
-137.58,60.773,HAINES JUNCTION,2100630,YT,-9.9,2,NA,3.9,2,-27.2,0,NA,NA,NA,30.8,2,NA,33,7,NA,NA,NA,779.8,0,2016_11
-138.913,69.568,HERSCHEL ISLAND,2100636,YT,-12.4,1,NA,-2,1,-32,0,NA,NA,NA,10.4,1,NA,NA,3,NA,NA,NA,883,0,2016_11
-140.15,69.164,IVVAVIK NAT. PARK,2100660,YT,-19.4,1,NA,-4.2,1,-38.2,0,NA,NA,NA,4.9,2,NA,19,1,NA,NA,NA,1084.4,0,2016_11
-130.037,63.244,MACMILLAN PASS,2100693,YT,-11.3,2,NA,1,2,-28.5,0,NA,NA,NA,40.2,2,NA,52,8,NA,NA,NA,820,0,2016_11
-140.848,68.801,MARGARET LAKE,2100697,YT,-20.7,3,NA,-7.6,2,-38.6,1,NA,NA,NA,NA,NA,NA,12,NA,NA,NA,NA,1043.9,0,2016_11
-135.868,63.616,MAYO A,2100701,YT,-12.5,0,NA,6.7,0,-33.3,0,33.8,0,NA,14.0,0,NA,18,5,NA,NA,NA,913.8,0,2016_11
-139.839,67.571,OLD CROW RCS,2100805,YT,-19.4,2,NA,-5.1,2,-36.8,0,NA,NA,NA,15.8,2,NA,6,5,NA,NA,NA,1048.1,0,2016_11
-137.05,61.033,OTTER FALLS NCPC,2100840,YT,-8.8,2,2.9,7,2,-24,2,24.2,2,NA,26.2,2,NA,NA,5,NA,NA,NA,749.4,0,2016_11
-137.311,62.83,PELLY RANCH,2100880,YT,-12.7,0,3.6,6,0,-31.5,0,3.5,0,14,3.5,0,14,NA,1,NA,NA,NA,920.1,0,2016_11
-136.218,66.981,ROCK RIVER,2100935,YT,-14.7,2,NA,-0.7,2,-29.2,0,NA,NA,NA,0.0,2,NA,NA,0,NA,NA,NA,916.9,0,2016_11
-129.132,61.182,HOUR LAKE,2100FCG,YT,-12.2,0,NA,2.5,0,-30,0,20,0,NA,20.4,0,NA,NA,9,NA,NA,NA,905.2,0,2016_11
-139.127,64.061,DAWSON,2100LRP,YT,-14.5,3,NA,5.6,3,-34.2,0,NA,NA,NA,20.8,3,NA,32,8,NA,NA,NA,877.3,0,2016_11
-135.573,60.946,TAKHINI RIVER RANCH,2101095,YT,-5.4,0,6.4,10,0,-20,0,3,0,21,3.0,0,20,NA,2,NA,NA,NA,701.1,0,2016_11
-132.733,60.167,TESLIN (AUT),2101102,YT,-5.5,3,NA,7.6,3,-21.3,0,NA,NA,NA,12.6,3,NA,11,5,NA,NA,NA,634.9,0,2016_11
-128.832,60.116,WATSON LAKE (AUT),2101204,YT,-12,3,NA,6.9,3,-29.3,1,NA,NA,NA,9.9,3,NA,11,4,NA,NA,NA,809.1,0,2016_11
-135.067,60.709,WHITEHORSE A,2101303,YT,-5.2,0,NA,6.4,0,-19.8,0,NA,NA,NA,NA,NA,NA,NA,NA,NA,NA,NA,694.7,0,2016_11
-135.098,60.733,WHITEHORSE AUTO,2101310,YT,-4.4,2,NA,6.6,2,-18.4,0,NA,NA,NA,13.7,2,NA,15,3,NA,NA,NA,626.2,0,2016_11
-126.123,67.021,COLVILLE LAKE,2200824,NT,-15.4,1,NA,-1.9,1,-32.1,0,NA,NA,NA,21.2,1,NA,19,8,NA,NA,NA,968.5,0,2016_11
-123.433,65.209,DELINE CS,2201022,NT,-13.6,0,NA,-0.1,0,-27.4,0,NA,NA,NA,NA,NA,NA,22,NA,NA,NA,NA,948.4,0,2016_11
-124.468,61.257,DEADMEN VALLEY,22010H0,NT,-13.1,3,NA,7.2,3,-29,1,NA,NA,NA,NA,NA,NA,NA,NA,NA,NA,NA,839.5,0,2016_11
-128.644,66.242,FORT GOOD HOPE CS,2201450,NT,-17.6,0,NA,-3.1,0,-33.9,0,NA,NA,NA,9.7,0,NA,13,3,NA,NA,NA,1069.3,0,2016_11
-123.467,60.233,FORT LIARD,2201579,NT,-11.2,0,NA,7.3,0,-27.7,0,NA,NA,NA,NA,NA,NA,NA,NA,NA,NA,NA,877.4,0,2016_11
-117.602,61.317,FORT PROVIDENCE,2201799,NT,-9.5,6,NA,9.5,6,-23.5,3,NA,NA,NA,NA,NA,NA,NA,NA,NA,NA,NA,660.4,0,2016_11
-109.168,62.711,FORT RELIANCE (AUT),2201903,NT,-6.1,1,NA,5.8,1,-18.8,0,NA,NA,NA,23.5,1,NA,18,6,NA,NA,NA,698.3,0,2016_11
-121.237,61.76,FORT SIMPSON CLIMATE,2202102,NT,-12.1,0,NA,8.7,0,-27.9,0,NA,NA,NA,12.1,0,NA,12,3,NA,NA,NA,902.3,0,2016_11
-121.237,61.76,FORT SIMPSON A,2202103,NT,-12.1,0,NA,8.5,0,-27.7,0,10.8,0,NA,12.4,0,NA,NA,6,NA,NA,NA,903.8,0,2016_11
-111.962,60.02,FORT SMITH A,2202201,NT,-5,0,NA,10.5,0,-23,0,15,0,NA,13.0,0,NA,9,5,NA,NA,NA,689.1,0,2016_11
-111.929,60.026,FORT SMITH CLIMATE,2202202,NT,-4.7,1,NA,11.4,1,-22.9,0,NA,NA,NA,16.7,1,NA,13,5,NA,NA,NA,659.7,0,2016_11
-105.133,63.6,HANBURY RIVER,2202351,NT,-12.7,1,NA,1.1,1,-27.1,0,NA,NA,NA,11.7,1,NA,15,4,NA,NA,NA,890.4,0,2016_11
-115.783,60.84,HAY RIVER A,2202401,NT,-6.9,1,NA,9.8,1,-22.6,0,16.2,1,NA,13.2,0,NA,11,6,NA,NA,NA,721.8,0,2016_11
-115.777,60.839,HAY RIVER CLIMATE,2202402,NT,-6.1,1,NA,10.1,1,-20.5,0,NA,NA,NA,14.1,1,NA,13,6,NA,NA,NA,698.8,0,2016_11
-113.726,61.92,INNER WHALEBACKS,2202560,NT,-10.6,28,NA,5.2,24,-16.5,26,NA,NA,NA,NA,NA,NA,NA,NA,NA,NA,NA,57.2,0,2016_11
-133.517,68.317,INUVIK CLIMATE,2202578,NT,-16.3,0,NA,-5.8,0,-28.6,0,NA,NA,NA,16.4,0,NA,21,3,NA,NA,NA,1028.4,0,2016_11
-117.245,63.134,WHATI,2202678,NT,-10,0,NA,5.6,0,-28.2,0,NA,NA,NA,NA,NA,NA,NA,NA,NA,NA,NA,841.2,0,2016_11
-126.799,65.281,NORMAN WELLS A,2202801,NT,-17.1,0,NA,-3.5,0,-34.3,0,16.2,0,NA,11.6,0,NA,12,5,NA,NA,NA,1054.1,0,2016_11
-126.753,65.288,NORMAN WELLS CLIMATE,2202810,NT,-17.4,2,NA,-2.9,1,-34.2,2,NA,NA,NA,13.8,2,NA,13,5,NA,NA,NA,991,0,2016_11
-124.083,69.358,PAULATUK,2203058,NT,-12.2,0,NA,-0.4,0,-24.2,0,NA,NA,NA,8.4,0,NA,1,4,NA,NA,NA,905.3,0,2016_11
-135.444,69.633,PELLY ISLAND,2203095,NT,-14,1,NA,-4.4,1,-26.8,0,NA,NA,NA,0.0,1,NA,NA,0,NA,NA,NA,927.7,0,2016_11
-127.209,61.963,RABBIT KETTLE,2203342,NT,-17.7,7,NA,-2.5,4,-38.9,4,NA,NA,NA,NA,NA,NA,NA,NA,NA,NA,NA,821,0,2016_11
-133.017,69.433,TUKTOYAKTUK,2203914,NT,-15.8,0,NA,-5.3,0,-32.5,0,NA,NA,NA,NA,NA,NA,NA,NA,NA,NA,NA,1012.6,0,2016_11
-122.359,69.199,TUKTUT NOGAIT,2203918,NT,-13.3,14,NA,-3.3,13,-23.4,12,NA,NA,NA,NA,NA,NA,NA,NA,NA,NA,NA,501.1,0,2016_11
-114.44,62.463,YELLOWKNIFE A,2204101,NT,-7.4,1,NA,4.6,0,-23.9,1,27.6,0,NA,17.6,0,NA,14,8,NA,NA,NA,737.5,0,2016_11
-114.383,62.45,YELLOWKNIFE-HENDERSON,2204110,NT,2.2,0,NA,18,0,-11,0,20.8,0,NA,23.5,0,NA,16,5,NA,NA,NA,473,0,2016_11
-123.742,61.242,YOHIN,2204300,NT,-11.3,7,NA,11.5,5,-27.8,3,NA,NA,NA,NA,NA,NA,NA,NA,NA,NA,NA,675,0,2016_11
-130.228,67.179,LITTLE CHICAGO,220B6Q3,NT,-17.6,1,NA,-5.3,1,-34.4,0,NA,NA,NA,NA,NA,NA,NA,NA,NA,NA,NA,1031.8,0,2016_11
-110.69,62.416,LUTSELK'E CS,220L002,NT,-5.6,0,NA,7.5,0,-17.6,0,NA,NA,NA,NA,NA,NA,11,NA,NA,NA,NA,708.5,0,2016_11
-122.851,61.125,LINDBURG LANDING,220N003,NT,-13,1,NA,9.9,1,-29.3,0,NA,NA,NA,6.3,1,NA,16,1,NA,NA,NA,899.4,0,2016_11
-113.863,63.603,LOWER CARP LAKE,220N004,NT,-10.6,14,NA,1.4,13,-22.2,13,NA,NA,NA,NA,NA,NA,NA,NA,NA,NA,NA,457.9,0,2016_11
-133.502,68.746,TRAIL VALLEY,220N005,NT,-16.2,1,NA,-5.2,1,-32.1,0,NA,NA,NA,14.1,1,NA,NA,4,NA,NA,NA,991.6,0,2016_11
-94.072,61.094,ARVIAT A,2300427,NU,-8.1,2,NA,2.2,2,-20.8,2,NA,NA,NA,2.8,2,NA,NA,1,NA,NA,NA,732,0,2016_11
-96,64.317,BAKER LAKE CLIMATE,2300501,NU,-13.3,0,NA,-1.9,0,-24,0,NA,NA,NA,29.3,0,NA,7,10,NA,NA,NA,939.4,0,2016_11
-96.078,64.299,BAKER LAKE A,2300503,NU,-13.1,0,NA,-1.5,0,-23.6,0,41.1,0,NA,41.1,0,NA,36,12,NA,NA,NA,933.1,0,2016_11
-108.015,66.838,BATHURST INLET,2300551,NU,-12.4,1,NA,-1.6,1,-23.9,0,NA,NA,NA,15.9,1,NA,13,3,NA,NA,NA,881.9,0,2016_11
-115.144,67.817,KUGLUKTUK A,2300903,NU,-13.4,0,NA,-1.9,0,-25.5,0,51,0,NA,15.6,0,NA,33,5,NA,NA,NA,942.5,0,2016_11
-115.135,67.817,KUGLUKTUK CLIMATE,2300904,NU,-13.4,0,NA,-1.9,0,-25.6,0,NA,NA,NA,NA,NA,NA,16,NA,NA,NA,NA,940.5,0,2016_11
-94.067,61.1,ARVIAT A,2300MKF,NU,-8,2,8.1,2,2,-22.3,2,23,2,NA,23.0,2,NA,10,6,NA,NA,NA,728.2,0,2016_11
-83.359,64.193,CORAL HARBOUR A,2301002,NU,-13.3,2,NA,-1.4,1,-29.7,1,35.3,3,NA,37.6,3,NA,41,8,NA,NA,NA,876,0,2016_11
-83.35,64.183,CORAL HARBOUR RCS,2301010,NU,-14.4,6,NA,-1.6,6,-28.3,4,NA,NA,NA,10.4,6,NA,NA,3,NA,NA,NA,776.7,0,2016_11
-94.067,61.1,ARVIAT CLIMATE,2301153,NU,-8.2,0,NA,2.1,0,-22.6,0,NA,NA,NA,95.5,0,NA,3,24,NA,NA,NA,787.4,0,2016_11
-95.85,68.636,GJOA HAVEN A,2302337,NU,-16.6,2,NA,-5.8,2,-26.4,2,NA,NA,NA,0.0,2,NA,NA,0,NA,NA,NA,967.6,0,2016_11
-95.85,68.636,GJOA HAVEN CLIMATE,2302340,NU,-16,0,NA,-3.4,0,-26.7,0,NA,NA,NA,7.9,0,NA,37,1,NA,NA,NA,1021.3,0,2016_11
-100.087,68.318,HAT ISLAND,2302370,NU,-13.8,1,NA,-5.3,0,-21.6,1,NA,NA,NA,NA,NA,NA,NA,NA,NA,NA,NA,922.1,0,2016_11
-89.726,68.437,CAM FOUR,2303093,NU,-16.6,0,NA,-5.6,0,-22.4,0,NA,NA,NA,NA,NA,NA,NA,NA,NA,NA,NA,1037.9,0,2016_11
-89.796,68.538,KUGAARUK CLIMATE,2303094,NU,-15.6,0,NA,-3,0,-27,0,NA,NA,NA,3.4,0,NA,NA,0,NA,NA,NA,1008.4,0,2016_11
-92.115,62.811,RANKIN INLET A,2303405,NU,-10.5,1,NA,-0.1,1,-24.6,0,30,0,NA,25.2,0,NA,21,7,NA,NA,NA,826.7,0,2016_11
-79.26,56.537,SANIKILUAQ,2303668,NU,-1.6,1,NA,4.7,1,-8.4,0,NA,NA,NA,14.9,1,NA,1,6,NA,NA,NA,569.7,0,2016_11
-119.219,69.276,CROKER RIVER,230J01Q,NU,-11.9,0,NA,-2.4,0,-25.7,0,NA,NA,NA,NA,NA,NA,NA,NA,NA,NA,NA,897.3,0,2016_11
-111.246,65.755,LUPIN CS,230N002,NU,-15.7,6,NA,-1.6,6,-25.9,2,NA,NA,NA,8.5,9,NA,36,2,NA,NA,NA,808.7,0,2016_11
-62.333,82.5,ALERT CLIMATE,2400305,NU,-19.1,3,NA,-3,1,-30,2,NA,NA,NA,10.7,3,NA,NA,4,NA,NA,NA,1000.6,0,2016_11
-62.333,82.5,ALERT UA,2400306,NU,NA,NA,NA,NA,NA,NA,NA,12.8,0,NA,10.0,0,NA,4,3,NA,NA,NA,NA,NA,2016_11
-63.789,67.536,FOX FIVE,2400570,NU,-10.8,0,NA,-1.4,0,-17.5,0,NA,NA,NA,NA,NA,NA,NA,NA,NA,NA,NA,864.2,0,2016_11
-64.033,67.547,QIKIQTARJUAQ CLIMATE,2400573,NU,-8.7,1,NA,2.4,1,-18.3,0,NA,NA,NA,15.5,1,NA,12,6,NA,NA,NA,774,0,2016_11
-64.032,67.547,QIKIQTARJUAQ A,2400577,NU,-8.4,4,NA,2.3,4,-17.2,4,NA,NA,NA,0.0,4,NA,NA,0,NA,NA,NA,685.3,0,2016_11
-105.137,69.108,CAMBRIDGE BAY A,2400601,NU,-16.2,0,NA,-5.4,0,-28.1,0,4.8,0,NA,3.6,0,NA,16,1,NA,NA,NA,1025.2,0,2016_11
-105.138,69.108,CAMBRIDGE BAY GSN,2400602,NU,-15.9,15,NA,-6.3,15,-26.8,15,NA,NA,NA,5.8,0,NA,4,1,NA,NA,NA,508.6,0,2016_11
-76.53,64.231,KINNGAIT,2400636,NU,-6.7,0,NA,-0.5,0,-13.5,0,NA,NA,NA,22.2,0,NA,4,9,NA,NA,NA,741.5,0,2016_11
-76.525,64.23,CAPE DORSET A,2400637,NU,-8.2,18,NA,-2.1,18,-13.2,18,NA,NA,NA,0.0,18,NA,NA,0,NA,NA,NA,314.5,0,2016_11
-66.815,68.473,CAPE HOOPER,2400660,NU,-11,0,NA,-3.5,0,-19,0,NA,NA,NA,NA,NA,NA,NA,NA,NA,NA,NA,869.4,0,2016_11
-68.517,70.483,CLYDE RIVER CLIMATE,2400802,NU,-12.8,0,NA,-1.6,0,-24.9,0,NA,NA,NA,18.0,0,NA,56,4,NA,NA,NA,925.2,0,2016_11
-68.517,70.486,CLYDE RIVER A,2400804,NU,-12.2,3,NA,-2,3,-23.2,3,NA,NA,NA,0.0,4,NA,NA,0,NA,NA,NA,814.2,0,2016_11
-63.578,64.958,CAPE MERCY,2400F63,NU,-11.2,0,NA,-3.5,0,-19.1,0,NA,NA,NA,NA,NA,NA,NA,NA,NA,NA,NA,874.6,0,2016_11
-85.934,79.989,EUREKA CLIMATE,2401199,NU,-24.1,0,NA,-3.8,0,-37.8,0,NA,NA,NA,5.4,0,NA,9,1,NA,NA,NA,1263.9,0,2016_11
-85.812,79.994,EUREKA A,2401203,NU,-23.8,3,NA,-4.2,3,-35.8,3,13.6,1,NA,5.8,0,NA,8,1,NA,NA,NA,1127.4,0,2016_11
-94.198,72.018,FORT ROSS,2402051,NU,-14.8,1,NA,-6.8,1,-22.7,0,NA,NA,NA,5.2,2,NA,35,2,NA,NA,NA,950.8,0,2016_11
-100.267,70.633,GATESHEAD ISLAND,2402332,NU,-16.5,2,NA,-5.6,2,-24.3,1,NA,NA,NA,5.6,3,NA,NA,0,NA,NA,NA,965.3,0,2016_11
-82.902,76.423,GRISE FIORD CLIMATE,2402351,NU,-16.1,2,NA,-1.9,2,-27,0,NA,NA,NA,11.1,3,NA,19,2,NA,NA,NA,955.8,0,2016_11
-81.244,68.776,SANIRAJAK,2402353,NU,-16.1,1,NA,-3.8,1,-26.6,0,NA,NA,NA,5.3,1,NA,10,2,NA,NA,NA,989.9,0,2016_11
-81.243,68.776,HALL BEACH A,2402354,NU,-16,8,NA,-3.8,8,-26.6,8,NA,NA,NA,0.0,9,NA,NA,0,NA,NA,NA,747.7,0,2016_11
-68.544,63.747,IQALUIT CLIMATE,2402592,NU,-10.7,2,NA,0.2,2,-23.1,0,NA,NA,NA,12.4,2,NA,21,4,NA,NA,NA,803.1,0,2016_11
-103.554,78.792,ISACHSEN (AUT),2402604,NU,-18,29,NA,-13.7,29,-22.2,28,NA,NA,NA,NA,NA,NA,NA,NA,NA,NA,NA,36,0,2016_11
-65.711,66.143,PANGNIRTUNG,2403049,NU,-10.4,0,NA,1.7,0,-19.1,0,NA,NA,NA,40.2,0,NA,28,11,NA,NA,NA,850.7,0,2016_11
-77.958,72.693,POND INLET CLIMATE,2403204,NU,-16.4,0,NA,-2.4,0,-28.5,0,NA,NA,NA,12.3,0,NA,21,3,NA,NA,NA,1032.8,0,2016_11
-77.969,72.689,POND INLET A,2403206,NU,-15.4,11,NA,-2.4,11,-27.7,10,NA,NA,NA,0.0,10,NA,NA,0,NA,NA,NA,634.5,0,2016_11
-105.715,75.377,REA POINT,2403450,NU,-18.1,6,NA,-9.4,5,-29.2,2,NA,NA,NA,6.6,7,NA,0,2,NA,NA,NA,866,0,2016_11
-94.969,74.717,RESOLUTE BAY A,2403498,NU,-16.9,1,NA,-7.4,0,-27.1,1,11.4,0,NA,9.7,0,NA,11,3,NA,NA,NA,1013.1,0,2016_11
-94.983,74.716,RESOLUTE CS,2403505,NU,-16.1,17,NA,-7.6,16,-25,1,NA,NA,NA,6.5,17,NA,2,2,NA,NA,NA,442.9,0,2016_11
-64.633,61.6,RESOLUTION ISLAND,2403602,NU,-7.8,0,NA,-1.5,0,-14.2,0,NA,NA,NA,NA,NA,NA,NA,NA,NA,NA,NA,772.7,0,2016_11
-105.296,73.766,STEFANSSON ISLAND,2403756,NU,-17.8,1,NA,-7.9,1,-29.4,0,NA,NA,NA,4.5,2,NA,26,0,NA,NA,NA,1037.3,0,2016_11
-91.816,81.161,SVARTEVAEG,2403833,NU,-20.7,1,NA,-10.1,0,-30.9,1,NA,NA,NA,2.5,1,NA,72,0,NA,NA,NA,1123.5,0,2016_11
-93.577,69.547,TALOYOAK A,2403855,NU,-16.5,4,NA,-4.2,2,-27.6,4,15.6,1,NA,17.6,2,NA,13,9,NA,NA,NA,897.2,0,2016_11
-89.446,65.879,WAGER BAY (AUT),2403945,NU,NA,NA,NA,NA,NA,NA,NA,NA,NA,NA,1.6,24,NA,NA,1,NA,NA,NA,NA,NA,2016_11
-119.989,74.139,NANGMAGVIK LAKE,2500440,NT,-17.2,28,NA,-11.9,28,-27.5,14,NA,NA,NA,NA,NA,NA,NA,NA,NA,NA,NA,70.4,0,2016_11
-117.8,70.761,HOLMAN CS,2502505,NT,-13.8,0,NA,-4,0,-23.3,0,NA,NA,NA,7.8,0,NA,6,3,NA,NA,NA,954.1,0,2016_11
-125.254,71.993,SACHS HARBOUR CLIMATE,2503648,NT,-16.3,0,NA,-4.3,0,-30,0,NA,NA,NA,12.5,0,NA,18,4,NA,NA,NA,1029.7,0,2016_11
-119.538,73.231,THOMSEN RIVER,2503886,NT,-19.4,1,NA,-6.2,1,-31.4,0,NA,NA,NA,NA,NA,NA,31,NA,NA,NA,NA,1083.8,0,2016_11
-119.347,76.238,MOULD BAY CS,250M001,NT,-21,1,NA,-10.2,1,-35.6,0,NA,NA,NA,4.5,2,NA,36,0,NA,NA,NA,1130.7,0,2016_11
-112.967,54.283,ABEE AGDM,3010010,AB,-1,5,NA,13.2,4,-14.4,2,NA,NA,NA,4.3,6,NA,NA,2,NA,NA,NA,475.4,0,2016_11
-111.181,53.113,ALBERT HALL AGCM,3010060,AB,0.3,0,NA,19,0,-10.9,0,NA,NA,NA,12.8,0,NA,NA,5,NA,NA,NA,532.4,0,2016_11
-111.779,52.315,ALLIANCE AGCM,3010162,AB,1.2,0,NA,21.4,0,-9.7,0,NA,NA,NA,26.6,0,NA,NA,4,NA,NA,NA,504.1,0,2016_11
-112.233,54.017,ANDREW,3010234,AB,0.3,3,6.3,17,3,-10,3,0,3,NA,6.6,3,NA,NA,2,NA,NA,NA,477.5,0,2016_11
-112.279,53.917,ANDREW AGDM,3010237,AB,-0.5,1,NA,15.1,1,-12.7,0,NA,NA,NA,6.4,1,NA,NA,3,NA,NA,NA,535.3,0,2016_11
-111.465,52.582,BELLSHILL AGCM,3010650,AB,0.8,3,NA,20.8,3,-9.9,0,NA,NA,NA,15.3,3,NA,NA,4,NA,NA,NA,464.7,0,2016_11
-110.101,52.124,BODO AGDM,3010730,AB,1.7,2,NA,21.4,2,-8.6,1,NA,NA,NA,13.4,2,NA,NA,4,NA,NA,NA,455.7,0,2016_11
-114.441,53.089,BRETON PLOTS,3010816,AB,1.4,0,NA,22.8,0,-11.3,0,NA,NA,NA,21.2,0,NA,NA,5,NA,NA,NA,497.1,0,2016_11
-113.922,53.931,BUSBY AGCM,3010979,AB,-0.1,0,NA,20.7,0,-13.9,0,NA,NA,NA,11.7,0,NA,NA,3,NA,NA,NA,542.8,0,2016_11
-110.51,52.334,CADOGAN AGCM,3010992,AB,1.4,0,NA,20.3,0,-7.9,0,NA,NA,NA,15.9,0,NA,NA,5,NA,NA,NA,496.7,0,2016_11
-112.817,53.05,CAMROSE,3011240,AB,0.3,1,5.4,21.7,1,-11.5,1,NA,NA,NA,21.2,1,NA,8,5,NA,NA,NA,513.4,0,2016_11
-110.713,51.937,CONSORT AGDM,3011815,AB,1.8,7,NA,20.5,7,-9.9,4,NA,NA,NA,6.9,8,NA,NA,3,NA,NA,NA,372,0,2016_11
-111.449,52.074,CORONATION CLIMATE,3011887,AB,0.5,0,NA,21.4,0,-12.1,0,NA,NA,NA,10.7,0,NA,NA,4,NA,NA,NA,525.9,0,2016_11
-113.903,52.733,CRESTOMERE AGCM,3011892,AB,-0.1,4,NA,21.6,4,-18.4,3,NA,NA,NA,27.9,4,NA,NA,4,NA,NA,NA,471.4,0,2016_11
-113.176,52.183,DELBURNE AGCM,3012050,AB,2.1,1,NA,21.8,0,-9.9,1,NA,NA,NA,15.0,1,NA,NA,4,NA,NA,NA,461.2,0,2016_11
-110.588,53.659,DEWBERRY AGCM,3012073,AB,0.3,4,NA,17.3,3,-11,1,NA,NA,NA,11.8,4,NA,NA,2,NA,NA,NA,461.4,0,2016_11
-110.433,52.778,EDGERTON AGCM,3012192,AB,0.1,4,NA,19.1,2,-10.1,2,NA,NA,NA,6.5,3,NA,NA,2,NA,NA,NA,465.1,0,2016_11
-113.606,53.307,EDMONTON INTERNATIONAL CS,3012206,AB,0.1,0,NA,20.8,0,-13.5,0,NA,NA,NA,32.4,0,NA,4,10,NA,NA,NA,537.8,0,2016_11
-113.517,53.573,EDMONTON BLATCHFORD,3012209,AB,1.5,0,NA,19.9,0,-9.7,0,NA,NA,NA,13.1,0,NA,0,3,NA,NA,NA,493.8,0,2016_11
-113.467,53.667,EDMONTON NAMAO AWOS A,3012212,AB,0.4,1,NA,18.4,1,-10.8,0,NA,NA,NA,13.0,1,NA,NA,3,NA,NA,NA,511.5,0,2016_11
-113.579,53.31,EDMONTON INTL A,3012216,AB,0.1,0,NA,20.6,0,-13.6,0,10.4,0,NA,16.8,0,NA,3,4,NA,NA,NA,538.3,0,2016_11
-113.856,53.668,EDMONTON VILLENEUVE A,3012229,AB,0.8,7,NA,21.7,7,-11.2,7,NA,NA,NA,9.6,7,NA,NA,2,NA,NA,NA,395.2,0,2016_11
-114.108,53.548,EDMONTON STONY PLAIN,301222F,AB,0.8,0,4.6,21.7,0,-10.6,0,4.4,0,22,12.8,0,67,1,4,NA,NA,NA,516.2,0,2016_11
-112.868,53.683,ELK ISLAND NAT PARK,3012275,AB,0.9,0,6.1,20.7,0,-9.3,0,NA,NA,NA,10.0,0,66,NA,3,NA,NA,NA,511.8,0,2016_11
-111,52.967,FABYAN,3012515,AB,-0.6,2,5.9,19,1,-13,1,4,1,NA,10.0,1,NA,0,4,NA,NA,NA,520.8,0,2016_11
-112.858,52.744,FERINTOSH AGCM,3012590,AB,-0.7,6,NA,22.4,4,-13.6,3,NA,NA,NA,15.2,6,NA,NA,3,NA,NA,NA,448.6,0,2016_11
-112.12,52.467,FORESTBURG PLANT SITE,3012652,AB,2.3,0,5.3,22,0,-8.5,0,18.2,0,157,28.8,0,228,0,5,NA,NA,NA,472.2,0,2016_11
-112.123,52.548,FORESTBURG AGCM,3012653,AB,1.9,12,NA,21.8,7,-11,11,NA,NA,NA,8.3,12,NA,NA,2,NA,NA,NA,290.1,0,2016_11
-113.183,53.717,FORT SASKATCHEWAN,3012710,AB,1.5,16,6.9,18,16,-20,16,0,16,NA,2.6,16,NA,NA,1,NA,NA,NA,230.5,0,2016_11
-110.621,53.071,GILT EDGE NORTH AGCM,3012790,AB,0.7,2,NA,19.7,2,-9.9,0,NA,NA,NA,10.9,2,NA,NA,5,NA,NA,NA,484.3,0,2016_11
-114.539,53.833,GLENEVIS AGCM,3012818,AB,1.1,3,NA,22.6,3,-10.9,0,NA,NA,NA,NA,NA,NA,NA,NA,NA,NA,NA,457.2,0,2016_11
-112.164,52.116,HALKIRK AGCM,3012999,AB,0.9,0,NA,20.9,0,-10,0,NA,NA,NA,16.4,14,NA,NA,4,NA,NA,NA,512,0,2016_11
-111.212,51.78,HEMARUKA AGCM,3013140,AB,1.4,0,NA,21.3,0,-10.9,0,NA,NA,NA,3.2,23,NA,NA,1,NA,NA,NA,499.2,0,2016_11
-112.246,53.185,HOLDEN AGDM,3013340,AB,0.9,6,NA,18.3,4,-12.7,5,NA,NA,NA,12.7,7,NA,NA,2,NA,NA,NA,409.5,0,2016_11
-110.784,52.578,HUGHENDEN AGCM,3013362,AB,0.4,1,NA,20,1,-11.8,1,NA,NA,NA,16.4,2,NA,NA,3,NA,NA,NA,511.1,0,2016_11
-111.872,52.848,KILLAM AGDM,3013640,AB,-0.3,6,NA,20.6,5,-12.7,1,NA,NA,NA,31.6,9,NA,NA,9,NA,NA,NA,439.1,0,2016_11
-110.416,53.353,KITSCOTY AGCM,3013660,AB,0.1,6,NA,18.4,3,-10.9,4,NA,NA,NA,6.4,6,NA,NA,2,NA,NA,NA,430.1,0,2016_11
-113.474,54.003,LEGAL AGCM,3013790,AB,0,4,NA,17.5,3,-12.1,1,NA,NA,NA,1.6,6,NA,NA,1,NA,NA,NA,467.5,0,2016_11
-110.579,53.943,LINDBERGH AGDM,3013921,AB,-0.2,6,NA,14.4,2,-12.2,4,NA,NA,NA,9.5,6,NA,NA,2,NA,NA,NA,437.4,0,2016_11
-110.073,53.309,LLOYDMINSTER,3013959,AB,1.8,12,NA,18.2,7,-12.4,7,NA,NA,NA,3.9,7,NA,NA,1,NA,NA,NA,291.9,0,2016_11
-110.073,53.309,LLOYDMINSTER A,3013961,AB,0.6,0,7.4,18,0,-12.5,0,2.8,0,17,7.6,0,43,1,2,NA,NA,NA,522.1,0,2016_11
-112.267,53.083,HOLDEN SOUTH,3013C44,AB,NA,NA,NA,NA,NA,NA,NA,15.4,0,109,26.2,0,165,9,3,NA,NA,NA,NA,NA,2016_11
-111.255,53.456,MANNVILLE AGCM,3014195,AB,0.4,0,NA,18.4,0,-10.5,0,NA,NA,NA,10.6,0,NA,NA,3,NA,NA,NA,528.7,0,2016_11
-110.55,52.017,MONITOR,3014600,AB,NA,NA,NA,NA,NA,NA,NA,0,22,NA,2.4,22,NA,NA,1,NA,NA,NA,NA,NA,2016_11
-112.3,53.567,MUNDARE AGDM,3014665,AB,0.9,6,NA,18.3,4,-10.9,2,NA,NA,NA,9.9,9,NA,NA,3,NA,NA,NA,410.9,0,2016_11
-111.114,53.72,MYRNAM AGCM,3014690,AB,5.6,22,NA,19.2,21,-4.7,19,NA,NA,NA,5.7,23,NA,NA,1,NA,NA,NA,98.9,0,2016_11
-113.165,53.262,NEW SAREPTA AGCM,3014795,AB,-0.4,7,NA,19.8,5,-11.1,4,NA,NA,NA,16.5,7,NA,NA,4,NA,NA,NA,424.2,0,2016_11
-113.35,53.65,OLIVER AGDM,3014921,AB,-0.4,6,NA,16.9,4,-10.3,3,NA,NA,NA,NA,NA,NA,NA,NA,NA,NA,NA,440.4,0,2016_11
-112.879,53.995,RADWAY AGCM,3015346,AB,-0.3,0,NA,16.2,0,-11.9,0,NA,NA,NA,NA,NA,NA,NA,NA,NA,NA,NA,549.2,0,2016_11
-111.726,53.425,RANFURLY AUTO,3015401,AB,1.2,7,NA,18.3,5,-8.1,4,NA,NA,NA,7.5,7,NA,4,3,NA,NA,NA,386.3,0,2016_11
-110.343,52.587,RIBSTONE SOUTH AGCM,3015480,AB,1.4,4,NA,20,4,-9.5,1,NA,NA,NA,15.8,4,NA,NA,4,NA,NA,NA,431.8,0,2016_11
-110.102,53.019,RIVERCOURSE AGCM,3015501,AB,0.5,4,NA,18.8,2,-15.6,3,NA,NA,NA,12.7,5,NA,NA,5,NA,NA,NA,455.7,0,2016_11
-114.912,52.421,ROCKY MTN HOUSE (AUT),3015523,AB,0,0,NA,20.8,0,-13.7,0,NA,NA,NA,11.5,0,NA,4,4,NA,NA,NA,540.5,0,2016_11
-112.428,52.78,ROSALIND AGCM,3015600,AB,0.6,0,NA,21.1,0,-12.1,0,NA,NA,NA,22.9,0,NA,NA,3,NA,NA,NA,522.6,0,2016_11
-111.453,54.282,ST. LINA AGCM,3015673,AB,0.7,2,NA,17.1,0,-11.5,2,NA,NA,NA,5.7,2,NA,NA,3,NA,NA,NA,483.2,0,2016_11
-111.272,54.011,ST. PAUL AGCM,3015676,AB,-0.8,4,NA,15.7,3,-12.1,2,NA,NA,NA,16.0,5,NA,NA,4,NA,NA,NA,489,0,2016_11
-110.755,51.59,SEDALIA AGCM,3015797,AB,1.6,0,NA,22.2,0,-10.6,0,NA,NA,NA,3.6,1,NA,NA,1,NA,NA,NA,490.6,0,2016_11
-112.539,53.333,SHONTS AGCM,3015900,AB,0,0,NA,18.7,0,-12.4,0,NA,NA,NA,14.5,0,NA,NA,3,NA,NA,NA,540.3,0,2016_11
-112.499,54.278,SMOKY LAKE AGDM,3016022,AB,-0.5,0,NA,13.9,0,-12.6,0,NA,NA,NA,6.4,0,NA,NA,2,NA,NA,NA,553.9,0,2016_11
-111.683,51.816,SPONDIN AGCM,3016070,AB,0.9,0,NA,22,0,-13.1,0,NA,NA,NA,6.2,17,NA,NA,3,NA,NA,NA,514.1,0,2016_11
-112.596,52.347,STETTLER AGDM,3016124,AB,1.6,3,NA,20.7,3,-10.1,0,NA,NA,NA,16.8,3,NA,NA,5,NA,NA,NA,443.5,0,2016_11
-113.895,53.217,THORSBY AGCM,3016441,AB,0.6,4,NA,22.6,3,-13.3,1,NA,NA,NA,12.1,7,NA,NA,3,NA,NA,NA,452.7,0,2016_11
-114.718,53.439,TOMAHAWK AGDM,3016505,AB,0.7,0,NA,22,0,-11.6,0,NA,NA,NA,10.4,1,NA,NA,2,NA,NA,NA,518.1,0,2016_11
-110.081,53.664,TULLIBY LAKE AGCM,3016593,AB,-0.6,7,NA,17.1,5,-11.5,2,NA,NA,NA,3.3,5,NA,NA,1,NA,NA,NA,428.4,0,2016_11
-113.033,53.5,UNCAS,3016650,AB,NA,NA,NA,NA,NA,NA,NA,4.2,0,NA,14.0,0,NA,1,4,NA,NA,NA,NA,NA,2016_11
-111.678,53.625,TWO HILLS AGDM,3016655,AB,1.1,12,NA,16.9,7,-7.8,12,NA,NA,NA,5.0,15,NA,NA,1,NA,NA,NA,304.2,0,2016_11
-110.882,53.344,VERMILION AGDM,3016802,AB,0.4,5,NA,18,3,-12.1,2,NA,NA,NA,10.4,5,NA,NA,3,NA,NA,NA,440.7,0,2016_11
-111.732,53.182,VIKING AGCM,3016841,AB,0.1,2,NA,18.6,1,-12.5,1,NA,NA,NA,15.2,2,NA,NA,4,NA,NA,NA,500.9,0,2016_11
-111.921,54.13,VILNA AGCM,3016852,AB,-0.6,2,NA,16.2,2,-11.5,0,NA,NA,NA,7.2,2,NA,NA,3,NA,NA,NA,519.8,0,2016_11
-115.126,53.144,VIOLET GROVE CS,3016860,AB,0.7,0,NA,22.3,0,-15.9,0,NA,NA,NA,16.7,0,NA,12,3,NA,NA,NA,517.9,0,2016_11
-112.098,53.505,VEGREVILLE,3016GF0,AB,0.9,1,7.2,19.1,1,-11.6,0,NA,NA,NA,7.4,1,NA,NA,2,NA,NA,NA,495.2,0,2016_11
-113.444,52.98,WETASKIWIN AGCM,3017282,AB,0.1,3,NA,21.7,3,-14.2,0,NA,NA,NA,16.1,5,NA,NA,2,NA,NA,NA,482.5,0,2016_11
-114.108,53.547,EDMONTON STONY PLAIN CS,301A001,AB,0.9,0,NA,21.1,0,-10.1,0,NA,NA,NA,11.8,0,NA,5,3,NA,NA,NA,511.9,0,2016_11
-110.206,51.67,ESTHER 1,301B460,AB,2.1,0,NA,22.3,0,-10.9,0,NA,NA,NA,2.9,0,NA,NA,1,NA,NA,NA,476,0,2016_11
-113.533,53.517,UNIVERSITY OF ALBERTA METABOLIC CENTRE,301FFNJ,AB,2,0,6.4,19,0,-13,0,1,0,7,1.0,0,6,0,1,NA,NA,NA,479.4,0,2016_11
-111.096,52.829,WAINWRIGHT CFB AIRFIELD 21,301S001,AB,0.8,0,NA,20,0,-9.6,0,NA,NA,NA,9.0,1,NA,NA,3,NA,NA,NA,517.3,0,2016_11
-110.317,51.066,ACADIA VALLEY,3020035,AB,3.1,0,NA,22.8,0,-8.9,0,NA,NA,NA,0.4,0,NA,NA,0,NA,NA,NA,446.7,0,2016_11
-111.006,50.81,ATLEE AGCM,3020405,AB,3.2,0,NA,22.3,0,-9.9,0,NA,NA,NA,3.7,0,NA,NA,1,NA,NA,NA,442.6,0,2016_11
-113.357,51.379,BEISEKER AGCM,3020610,AB,1.6,0,NA,22.4,0,-12.8,0,NA,NA,NA,0.8,0,NA,NA,0,NA,NA,NA,492.6,0,2016_11
-112.803,51.998,BIG VALLEY AGCM,3020679,AB,1,5,NA,21.8,5,-10.3,1,NA,NA,NA,8.6,5,NA,NA,5,NA,NA,NA,424.6,0,2016_11
-112.252,51.775,CRAIGMYLE AGCM,3021912,AB,2.4,2,NA,22.8,1,-10.7,1,NA,NA,NA,2.1,2,NA,NA,0,NA,NA,NA,437.8,0,2016_11
-112.283,51.767,CRAIGMYLE,3021940,AB,2.5,2,7,23,2,-10.5,2,1.6,2,NA,3.0,2,NA,0,1,NA,NA,NA,433.8,0,2016_11
-112.677,51.445,DRUMHELLER EAST,30221LG,AB,3.1,5,NA,23.5,4,-12.2,2,NA,NA,NA,0.0,24,NA,NA,0,NA,NA,NA,373.6,0,2016_11
-114.486,52.31,HESPERO AGCM,3023200,AB,0.7,2,NA,21.4,2,-13.4,0,NA,NA,NA,9.6,2,NA,NA,2,NA,NA,NA,485.4,0,2016_11
-112.5,51.183,HUSSAR AGDM,3023402,AB,3.2,9,NA,20.9,8,-9.6,4,NA,NA,NA,0.4,9,NA,NA,0,NA,NA,NA,311.8,0,2016_11
-113.756,52.449,LACOMBE CDA 2,3023722,AB,0.7,0,NA,21.6,0,-14,0,NA,NA,NA,16.0,0,NA,7,4,NA,NA,NA,518.9,0,2016_11
-114.473,52.553,LEEDALE AGDM,3023740,AB,-0.4,4,NA,21.2,3,-14.4,2,NA,NA,NA,15.4,4,NA,1,3,NA,NA,NA,478.2,0,2016_11
-113.656,51.619,LINDEN AGCM,3023850,AB,1.4,0,NA,23.3,0,-12.5,0,NA,NA,NA,2.5,7,NA,NA,1,NA,NA,NA,497.3,0,2016_11
-112.675,51.66,MORRIN AGDM,3024668,AB,1.2,1,NA,21.7,1,-10.5,0,NA,NA,NA,13.8,1,NA,NA,7,NA,NA,NA,486.5,0,2016_11
-114.085,51.759,OLDS AGDM,3024925,AB,2,3,NA,21.5,3,-14,2,NA,NA,NA,6.4,3,NA,NA,2,NA,NA,NA,431.5,0,2016_11
-110.35,51.383,OYEN AGDM,3024965,AB,1.7,5,NA,21.9,4,-9.5,2,NA,NA,NA,2.3,8,NA,NA,0,NA,NA,NA,407.8,0,2016_11
-111.705,51.125,POLLOCKVILLE AGDM,3025243,AB,1.1,5,NA,23.4,3,-11.8,3,NA,NA,NA,1.1,5,NA,NA,0,NA,NA,NA,422.3,0,2016_11
-113.6,52.433,PRENTISS,3025297,AB,2.1,5,NA,21.1,5,-14.4,3,NA,NA,NA,17.6,7,NA,NA,4,NA,NA,NA,397,0,2016_11
-113.894,52.182,RED DEER REGIONAL A,3025481,AB,NA,NA,NA,NA,NA,NA,NA,9.2,0,NA,13.8,0,NA,1,3,NA,NA,NA,NA,NA,2016_11
-110.091,50.307,SCHULER AGDM,3025768,AB,3.2,3,NA,22.8,3,-10.9,0,NA,NA,NA,1.9,4,NA,NA,1,NA,NA,NA,400.3,0,2016_11
-110.146,51.425,SIBBALD WESTGARD,3025928,AB,1.9,1,NA,23,1,-12,1,1,1,NA,1.0,1,NA,0,1,NA,NA,NA,467.5,0,2016_11
-113.206,51.768,THREE HILLS,3026479,AB,1.3,2,NA,22.5,2,-11.8,0,NA,NA,NA,1.5,6,NA,NA,1,NA,NA,NA,466.7,0,2016_11
-114.683,51.778,SUNDRE A,3026KNQ,AB,0.5,0,NA,20.8,0,-17,0,NA,NA,NA,5.7,0,NA,2,3,NA,NA,NA,525.2,0,2016_11
-113.591,51.936,WIMBORNE AGCM,3027582,AB,1.6,0,NA,21.9,0,-10.4,0,NA,NA,NA,6.5,0,NA,NA,2,NA,NA,NA,493.1,0,2016_11
-114.013,50.512,AZURE,3030450,AB,3.4,0,NA,21.1,0,-16.7,0,NA,NA,NA,3.3,17,NA,NA,1,NA,NA,NA,437.4,0,2016_11
-112.3,49.8,BARNWELL AGDM,3030525,AB,4.1,4,NA,22.9,4,-15.7,1,NA,NA,NA,1.7,4,NA,NA,0,NA,NA,NA,361,0,2016_11
-113.224,50.026,BARONS AGCM,3030529,AB,4.4,0,NA,22.7,0,-11.5,0,NA,NA,NA,1.8,0,NA,NA,1,NA,NA,NA,409.1,0,2016_11
-112.465,50.893,BASSANO AGCM,3030540,AB,2.3,0,NA,23.4,0,-12.1,0,NA,NA,NA,1.6,1,NA,NA,0,NA,NA,NA,470.1,0,2016_11
-114.152,50.707,BLACK DIAMOND,3030680,AB,2.2,0,NA,20.4,0,-16.5,0,NA,NA,NA,6.7,27,NA,NA,3,NA,NA,NA,474,0,2016_11
-113.05,49.567,BLOOD TRIBE AGDM,3030720,AB,4.2,4,NA,22.1,4,-12.3,0,NA,NA,NA,8.2,6,NA,NA,2,NA,NA,NA,360.1,0,2016_11
-111.45,49.734,BOW ISLAND,3030768,AB,5.1,2,NA,24.2,2,-11.7,2,NA,NA,NA,0.0,2,NA,NA,0,NA,NA,NA,360.6,0,2016_11
-111.366,49.868,BOW ISLAND IRRIGATION AGDM,3030772,AB,4.8,0,NA,22.9,0,-11.2,0,NA,NA,NA,0.4,0,NA,NA,0,NA,NA,NA,397.1,0,2016_11
-113.817,49.617,BROCKET AGDM,3030830,AB,4.6,2,NA,19.9,2,-10.2,0,NA,NA,NA,4.9,2,NA,NA,1,NA,NA,NA,374.5,0,2016_11
-111.849,50.555,BROOKS,3030QLP,AB,3.9,1,NA,23.1,1,-11.4,0,NA,NA,NA,1.3,1,NA,0,0,NA,NA,NA,409,0,2016_11
-114.013,51.123,CALGARY INTL A,3031092,AB,2.6,0,NA,21.8,0,-11.9,0,2.9,0,NA,2.7,0,NA,1,1,NA,NA,NA,461.5,0,2016_11
-114,51.109,CALGARY INT'L CS,3031094,AB,2.4,0,NA,21.8,0,-12.3,0,NA,NA,NA,8.1,0,NA,1,2,NA,NA,NA,469.2,0,2016_11
-113.286,49.201,CARDSTON,3031322,AB,4.7,0,NA,22.1,0,-17.6,0,NA,NA,NA,14.9,0,NA,NA,2,NA,NA,NA,399,0,2016_11
-113.376,49.001,CARWAY,3031402,AB,3.6,0,NA,21.2,0,-15.5,0,NA,NA,NA,11.4,0,NA,3,1,NA,NA,NA,432.4,0,2016_11
-113.35,50.282,CHAMPION AGDM,3031480,AB,3.4,1,NA,22.6,1,-15.3,0,NA,NA,NA,1.8,1,NA,NA,1,NA,NA,NA,423.5,0,2016_11
-113.639,50.004,CLARESHOLM,3031640,AB,4.6,0,NA,22,0,-13.9,0,NA,NA,NA,0.9,0,NA,0,0,NA,NA,NA,402.2,0,2016_11
-114.222,51.076,COP UPPER,3031875,AB,3.4,0,NA,20.7,0,-13.6,0,NA,NA,NA,1.6,0,NA,NA,0,NA,NA,NA,438.4,0,2016_11
-112.433,50.183,ENCHANT AGDM,3032422,AB,5.3,5,NA,22.8,3,-10.9,2,NA,NA,NA,0.9,5,NA,NA,0,NA,NA,NA,318.7,0,2016_11
-111.054,49.553,ETZIKOM AGCM,3032450,AB,4.1,0,NA,23.6,0,-14.8,0,NA,NA,NA,0.5,2,NA,NA,0,NA,NA,NA,415.7,0,2016_11
-112.033,49.8,FINCASTLE AGDM,3032550,AB,5.6,0,NA,24.2,0,-12.6,0,NA,NA,NA,1.1,1,NA,NA,0,NA,NA,NA,372.9,0,2016_11
-111.486,49.483,FOREMOST AGDM,3032642,AB,5.3,8,NA,21.9,6,-10.3,3,NA,NA,NA,0.0,10,NA,NA,0,NA,NA,NA,280,0,2016_11
-113.379,49.786,FORT MACLEOD AGCM,3032683,AB,5.1,0,NA,21.7,0,-9.9,0,NA,NA,NA,2.4,0,NA,NA,1,NA,NA,NA,385.8,0,2016_11
-112.941,50.934,GLEICHEN AGCM,3032801,AB,2.8,0,NA,21.9,0,-9.4,0,NA,NA,NA,1.4,0,NA,NA,0,NA,NA,NA,455.1,0,2016_11
-111.733,49.874,GRASSY LAKE,3032927,AB,5,4,NA,23.3,3,-11.6,1,NA,NA,NA,0.8,4,NA,NA,0,NA,NA,NA,339.1,0,2016_11
-112.733,49.9,IRON SPRINGS AGDM,3033498,AB,4.7,8,NA,21.8,6,-14.9,3,NA,NA,NA,4.5,9,NA,NA,1,NA,NA,NA,292.3,0,2016_11
-110.261,49.989,IRVINE AGCM,3033550,AB,5.4,0,NA,23.2,0,-10.1,0,NA,NA,NA,1.3,0,NA,NA,0,NA,NA,NA,377.7,0,2016_11
-112.799,49.63,LETHBRIDGE,3033875,AB,5.5,2,NA,24,2,-11.2,2,NA,NA,NA,0.0,2,NA,NA,0,NA,NA,NA,351.2,0,2016_11
-112.768,49.695,LETHBRIDGE CDA,3033890,AB,NA,NA,NA,NA,NA,NA,NA,NA,NA,NA,3.0,5,NA,0,1,NA,NA,NA,NA,NA,2016_11
-112.75,49.683,LETHBRIDGE DEMO FARM AGDM,3033897,AB,4.4,4,NA,22.7,4,-11.5,0,NA,NA,NA,4.3,5,NA,NA,2,NA,NA,NA,352.9,0,2016_11
-110.721,50.019,MEDICINE HAT,3034479,AB,4.6,4,NA,24,4,-10.5,4,NA,NA,NA,0.0,4,NA,NA,0,NA,NA,NA,349.1,0,2016_11
-110.717,50.025,MEDICINE HAT RCS,3034485,AB,5,0,NA,23.7,0,-9.9,0,NA,NA,NA,0.4,0,NA,NA,0,NA,NA,NA,389.9,0,2016_11
-113.349,50.673,MOSSLEIGH AGCM,3034577,AB,3.3,0,NA,23.5,0,-17.1,0,NA,NA,NA,2.1,0,NA,NA,1,NA,NA,NA,441.6,0,2016_11
-114.099,51.369,NIER AGDM,3034795,AB,3,5,NA,20,3,-12.8,2,NA,NA,NA,1.2,6,NA,NA,0,NA,NA,NA,374.4,0,2016_11
-113.997,49.521,PINCHER CREEK,3035198,AB,4.6,7,NA,19.6,7,-11.9,7,NA,NA,NA,5.9,7,NA,NA,2,NA,NA,NA,308.6,0,2016_11
-114.005,49.522,PINCHER CREEK CLIMATE,3035208,AB,4.2,1,NA,19.6,1,-11.7,0,NA,NA,NA,8.0,1,NA,0,2,NA,NA,NA,401.5,0,2016_11
-112.983,50.606,QUEENSTOWN,3035340,AB,3.2,2,5.4,22.5,1,-13,1,1,1,NA,3.8,1,NA,0,2,NA,NA,NA,415.6,0,2016_11
-112.803,50.598,QUEENSTOWN,3035342,AB,3.5,2,NA,22.4,2,-11.9,0,NA,NA,NA,1.7,2,NA,NA,0,NA,NA,NA,405.9,0,2016_11
-112.683,49.483,RAYMOND AGDM,3035422,AB,5.2,5,NA,23.7,4,-12.8,1,NA,NA,NA,2.4,9,NA,NA,1,NA,NA,NA,320.7,0,2016_11
-111.701,50.265,ROLLING HILLS AGCM,3035530,AB,3.6,0,NA,24.1,0,-12.5,0,NA,NA,NA,0.8,0,NA,NA,0,NA,NA,NA,432.7,0,2016_11
-112.05,50.833,ROSEMARY AGDM,3035650,AB,2.1,0,NA,23.5,0,-14.6,0,NA,NA,NA,1.9,1,NA,NA,0,NA,NA,NA,477.9,0,2016_11
-110.917,49.917,SEVEN PERSONS AGDM,3035845,AB,4.5,0,NA,23.7,0,-12.4,0,NA,NA,NA,0.4,1,NA,NA,0,NA,NA,NA,405.2,0,2016_11
-112.982,51.228,STANDARD AGCM,3036086,AB,3.4,0,NA,23.2,0,-8.8,0,NA,NA,NA,0.5,0,NA,NA,0,NA,NA,NA,438.8,0,2016_11
-113.883,50.183,STAVELY AAFC,3036099,AB,4.6,0,NA,20.3,0,-8.1,0,NA,NA,NA,3.6,0,NA,NA,2,NA,NA,NA,401,0,2016_11
-113.283,51.033,STRATHMORE AGDM,3036205,AB,4.4,8,NA,21.1,8,-10.5,6,NA,NA,NA,1.2,9,NA,NA,0,NA,NA,NA,298.5,0,2016_11
-112.124,49.792,TABER,3036360,AB,3.6,15,NA,23,10,-12,10,0,10,NA,4.0,10,NA,0,1,NA,NA,NA,216.1,0,2016_11
-112.863,50.304,TRAVERS AGCM,3036500,AB,4.5,0,NA,22.8,0,-13.2,0,NA,NA,NA,1.4,1,NA,NA,0,NA,NA,NA,405.6,0,2016_11
-112.133,50.05,VAUXHALL CDA CS,3036682,AB,4.6,0,NA,23.2,0,-13.5,0,NA,NA,NA,2.1,0,NA,NA,0,NA,NA,NA,401.5,0,2016_11
-112.117,49.5,WRENTHAM AGDM,3037675,AB,4.5,15,NA,23.5,14,-11.8,5,NA,NA,NA,1.7,15,NA,NA,1,NA,NA,NA,202.1,0,2016_11
-113.961,50.729,OKOTOKS,303M9JM,AB,3.7,0,6.1,21.5,0,-15,0,2.2,0,11,3.4,0,16,0,1,NA,NA,NA,427.8,0,2016_11
-112.788,49.871,PICTURE BUTTE WEST,303N1G3,AB,4.9,0,NA,22.5,0,-13,0,5,0,NA,5.0,0,NA,0,1,NA,NA,NA,391.9,0,2016_11
-112.817,49.05,DEL BONITA AGDM,3042045,AB,2.9,0,NA,21.3,0,-15.8,0,NA,NA,NA,16.1,0,NA,NA,2,NA,NA,NA,452,0,2016_11
-110.678,49.364,MANYBERRIES AGCM,3044203,AB,3.3,0,NA,22.4,0,-14.8,0,NA,NA,NA,0.9,2,NA,NA,0,NA,NA,NA,440.5,0,2016_11
-111.652,49.137,MASINASIN AGDM,3044232,AB,5,7,NA,23.5,6,-10.8,1,NA,NA,NA,0.8,7,NA,0,0,NA,NA,NA,298.4,0,2016_11
-112.05,49.133,MILK RIVER,3044533,AB,4.7,0,NA,23.9,0,-15,0,NA,NA,NA,0.6,0,NA,0,0,NA,NA,NA,398.2,0,2016_11
-110.467,49.117,ONEFOUR CDA,3044923,AB,4.2,1,NA,22.6,1,-13.1,0,NA,NA,NA,3.4,1,NA,0,0,NA,NA,NA,401,0,2016_11
-111.126,49.225,PAKOWKI LAKE AGCM,3045000,AB,4.8,0,NA,23.4,0,-13.6,0,NA,NA,NA,1.0,11,NA,NA,0,NA,NA,NA,395,0,2016_11
-115.552,51.193,BANFF CS,3050519,AB,1.4,1,NA,16,1,-15.7,0,NA,NA,NA,11.3,1,NA,2,4,NA,NA,NA,482.2,0,2016_11
-114.175,49.468,BEAVER MINES,3050602,AB,3.5,1,NA,18.7,1,-15.4,0,NA,NA,NA,14.1,1,NA,1,3,NA,NA,NA,419.9,0,2016_11
-115.067,51.083,BOW VALLEY,3050778,AB,3.2,1,NA,18.2,1,-11.6,0,NA,NA,NA,2.6,1,NA,NA,1,NA,NA,NA,429.1,0,2016_11
-114.482,49.628,CROWSNEST,3051R4R,AB,3.4,0,NA,18.8,0,-12.4,0,NA,NA,NA,0.8,16,NA,NA,0,NA,NA,NA,439.3,0,2016_11
-118.03,52.926,JASPER WARDEN,3053536,AB,1.8,0,NA,19.9,0,-11.2,0,NA,NA,NA,24.4,0,NA,7,9,NA,NA,NA,485,0,2016_11
-115.035,51.028,KANANASKIS,3053600,AB,3.6,0,5.9,19,0,-12,0,2.2,0,8,3.4,0,13,0,2,NA,NA,NA,431.6,0,2016_11
-115.12,50.713,KANANASKIS POCATERRA,3053604,AB,-6,29,-1,12,25,-12,24,0,25,NA,0.0,25,NA,NA,0,NA,NA,NA,24,0,2016_11
-116.04,52.492,NORDEGG CS,3054843,AB,1.1,0,NA,20,0,-15.1,0,NA,NA,NA,6.5,0,NA,6,2,NA,NA,NA,507.8,0,2016_11
-114.416,50.368,PEKISKO,3055119,AB,1.5,2,NA,16.9,2,-11.8,0,NA,NA,NA,3.7,2,NA,3,2,NA,NA,NA,461.4,0,2016_11
-113.809,49.131,WATERTON PARK GATE,3056214,AB,5.2,0,NA,20.3,0,-14.3,0,NA,NA,NA,19.2,0,NA,NA,3,NA,NA,NA,385,0,2016_11
-115.19,50.943,NAKISKA RIDGETOP,305MGFF,AB,-3,0,NA,7.3,0,-12.4,0,NA,NA,NA,NA,NA,NA,NA,NA,NA,NA,NA,629,0,2016_11
-113.382,54.635,ATHABASCA AGCM,3060330,AB,-0.1,0,NA,20.2,0,-13.2,0,NA,NA,NA,7.7,0,NA,NA,4,NA,NA,NA,541.5,0,2016_11
-112.825,54.782,ATMORE AGDM,3060406,AB,-1.5,5,NA,14.9,4,-13.6,2,NA,NA,NA,3.4,5,NA,3,1,NA,NA,NA,487.8,0,2016_11
-114.448,54.095,BARRHEAD CS,3060535,AB,-1.8,0,NA,15.8,0,-14.9,0,NA,NA,NA,5.7,0,NA,5,2,NA,NA,NA,593.2,0,2016_11
-117.867,53.35,BRULE BLACK CAT,3060903,AB,-2.3,11,1.3,19,7,-16.5,8,29.4,6,NA,35.8,6,NA,14,6,NA,NA,NA,386.5,0,2016_11
-114.678,54.131,CAMPSIE AUTO,3061201,AB,-0.8,0,NA,19.5,0,-15.2,0,NA,NA,NA,7.8,0,NA,2,2,NA,NA,NA,564.3,0,2016_11
-113.95,54.317,DAPP AGDM,3061975,AB,-1.1,11,NA,14.9,7,-13.5,5,NA,NA,NA,2.9,11,NA,NA,1,NA,NA,NA,362.4,0,2016_11
-116.465,53.579,EDSON,3062239,AB,-1.8,7,NA,21.7,7,-17,6,NA,NA,NA,6.2,7,NA,NA,2,NA,NA,NA,455.9,0,2016_11
-116.453,53.58,EDSON CLIMATE,3062246,AB,-1.4,1,NA,21.4,1,-16.2,0,NA,NA,NA,17.8,1,NA,8,5,NA,NA,NA,561.8,0,2016_11
-115.062,53.614,EVANSBURG2 AGCM,3062476,AB,-0.7,0,NA,23.2,0,-13.6,0,NA,NA,NA,10.8,0,NA,NA,4,NA,NA,NA,561,0,2016_11
-114.769,54.41,FORT ASSINIBOINE AGCM,3062660,AB,-2.2,6,NA,16.5,3,-12.9,4,NA,NA,NA,5.6,5,NA,NA,1,NA,NA,NA,483.9,0,2016_11
-111.213,56.651,FORT MCMURRAY CS,3062696,AB,-1.2,0,NA,13.1,0,-14.3,0,NA,NA,NA,9.0,0,NA,9,3,NA,NA,NA,577.4,0,2016_11
-111.223,56.653,FORT MCMURRAY A,3062697,AB,-0.5,5,NA,13.2,5,-14.2,5,NA,NA,NA,2.5,5,NA,NA,2,NA,NA,NA,462.3,0,2016_11
-118.447,53.795,HENDRICKSON CREEK,3063135,AB,-2.7,1,NA,18.6,1,-21.3,0,NA,NA,NA,31.8,1,NA,9,14,NA,NA,NA,600.3,0,2016_11
-116.479,55.396,HIGH PRAIRIE AGDM,3063165,AB,-1.3,0,NA,22.3,0,-18.1,0,NA,NA,NA,14.7,0,NA,NA,4,NA,NA,NA,580.3,0,2016_11
-113.543,54.821,ISLAND LAKE SOUTH,3063600,AB,-0.8,2,NA,18.6,2,-14.6,0,NA,NA,NA,3.4,2,NA,4,1,NA,NA,NA,525.7,0,2016_11
-112.024,54.769,LAC LA BICHE CLIMATE,3063686,AB,0,1,NA,16.7,1,-10.7,0,NA,NA,NA,2.9,1,NA,3,0,NA,NA,NA,521.7,0,2016_11
-111.559,57.041,MILDRED LAKE,3064528,AB,-0.8,6,NA,11.5,3,-11.7,4,NA,NA,NA,10.8,7,NA,NA,3,NA,NA,NA,452.3,0,2016_11
-111.7,54.5,RICH LAKE AGDM,3065475,AB,0,6,NA,15.7,6,-12.4,5,NA,NA,NA,3.4,6,NA,NA,1,NA,NA,NA,432.6,0,2016_11
-114.777,55.293,SLAVE LAKE,3065995,AB,1.1,15,NA,11.6,15,-12,15,NA,NA,NA,0.0,15,NA,NA,0,NA,NA,NA,253.5,0,2016_11
-114.777,55.293,SLAVE LAKE RCS,3065997,AB,-1.1,0,NA,11.6,0,-14.1,0,NA,NA,NA,6.7,0,NA,3,2,NA,NA,NA,573.5,0,2016_11
-113.52,54.3,TAWATINAW AGCM,3066367,AB,0.4,6,NA,17.2,3,-9.7,3,NA,NA,NA,5.4,6,NA,NA,3,NA,NA,NA,422.1,0,2016_11
-115.787,54.144,WHITECOURT A,3067373,AB,NA,NA,NA,17.9,4,NA,NA,NA,NA,NA,NA,NA,NA,NA,NA,NA,NA,NA,NA,NA,2016_11
-118.348,53.386,WILLOW CREEK 1,306GE70,AB,1.5,15,NA,18.2,15,-16.5,7,NA,NA,NA,8.9,15,NA,13,3,NA,NA,NA,248.1,0,2016_11
-119.396,55.197,BEAVERLODGE RCS,3070600,AB,-2.8,0,NA,15.1,0,-15.8,0,NA,NA,NA,23.4,0,NA,NA,8,NA,NA,NA,624.4,0,2016_11
-117.886,56.118,BROWNVALE AGCM,3070800,AB,-3.5,9,NA,16.6,7,-18.1,4,NA,NA,NA,9.8,10,NA,NA,4,NA,NA,NA,450.6,0,2016_11
-117.887,55.808,EAGLESHAM AGCM,3072151,AB,-2.7,0,NA,17.1,0,-19.4,0,NA,NA,NA,12.2,0,NA,NA,3,NA,NA,NA,622.4,0,2016_11
-110.439,58.981,EGG ISLAND,3072246,AB,-1.4,12,NA,7.8,11,-13.4,6,NA,NA,NA,NA,NA,NA,NA,NA,NA,NA,NA,348.9,0,2016_11
-118.439,56.081,FAIRVIEW AGDM,3072525,AB,-3.3,0,NA,15.7,0,-18.4,0,NA,NA,NA,12.6,0,NA,NA,5,NA,NA,NA,638.9,0,2016_11
-111.117,58.767,FORT CHIPEWYAN,3072655,AB,-3.6,10,NA,12.2,10,-21.2,10,NA,NA,NA,0.0,10,NA,NA,0,NA,NA,NA,431.8,0,2016_11
-111.117,58.767,FORT CHIPEWYAN RCS,3072659,AB,-3.4,0,NA,12.2,0,-21.4,0,NA,NA,NA,NA,NA,NA,7,NA,NA,NA,NA,641.4,0,2016_11
-116.04,58.382,FORT VERMILION,3072723,AB,-4.8,0,NA,11.1,0,-22.7,0,NA,NA,NA,9.0,0,NA,3,2,NA,NA,NA,684.3,0,2016_11
-118.885,55.18,GRANDE PRAIRIE A,3072921,AB,-3.3,0,NA,15,0,-18.4,0,24.8,1,NA,25.3,0,NA,11,8,NA,NA,NA,640.2,0,2016_11
-117.298,57.265,HAWK HILLS AGCM,3073071,AB,-3.9,0,NA,15.1,0,-20.7,0,NA,NA,NA,5.2,0,NA,NA,1,NA,NA,NA,656.1,0,2016_11
-117.165,58.622,HIGH LEVEL,3073140,AB,-6.1,2,NA,11.1,2,-26.3,2,NA,NA,NA,0.0,2,NA,NA,0,NA,NA,NA,675.1,0,2016_11
-117.165,58.621,HIGH LEVEL A,3073146,AB,-5.3,1,6.9,12,1,-26,1,11.8,1,NA,8.0,1,NA,11,3,NA,NA,NA,675.8,0,2016_11
-117.12,55.913,JEAN COTE AGCM,3073535,AB,-1.6,0,NA,17.2,0,-13.9,0,NA,NA,NA,7.6,0,NA,NA,3,NA,NA,NA,588.4,0,2016_11
-116.343,58.172,LA CRETE AGCM,3073730,AB,-3.9,0,NA,15.9,0,-22.5,0,NA,NA,NA,6.0,0,NA,NA,2,NA,NA,NA,657.4,0,2016_11
-119.255,55.422,LA GLACE AGCM,3073740,AB,-3.9,3,NA,15.2,3,-19.6,2,NA,NA,NA,18.2,3,NA,NA,7,NA,NA,NA,591.3,0,2016_11
-117.644,56.951,MANNING,3074182,AB,-6.4,21,2.4,12,21,-17,21,10,21,NA,10.0,21,NA,NA,3,NA,NA,NA,219.3,0,2016_11
-117.451,56.974,MANNING AGDM,3074190,AB,-4.9,3,NA,15.7,2,-19.6,1,NA,NA,NA,NA,NA,NA,NA,NA,NA,NA,NA,617.1,0,2016_11
-119.745,56.314,CLEARDALE AGDM,3074935,AB,-6,6,NA,10.8,3,-20.3,5,NA,NA,NA,21.8,6,NA,NA,6,NA,NA,NA,576.1,0,2016_11
-117.448,56.227,PEACE RIVER A,3075041,AB,-2.9,0,NA,14.6,0,-15.6,0,7,0,NA,6.0,0,NA,6,2,NA,NA,NA,627.7,0,2016_11
-118.293,55.621,PEORIA AGDM,3075160,AB,-4.7,10,NA,17.2,6,-20.3,7,NA,NA,NA,11.6,10,NA,NA,4,NA,NA,NA,453.1,0,2016_11
-115.278,56.552,RED EARTH,3075488,AB,-2.2,1,NA,17.8,1,-16.9,0,NA,NA,NA,8.0,1,NA,NA,2,NA,NA,NA,585,0,2016_11
-118.668,55.777,RYCROFT AGCM,3075601,AB,-3.4,2,NA,14.1,1,-22.9,1,NA,NA,NA,11.2,2,NA,NA,4,NA,NA,NA,598.5,0,2016_11
-119.345,56.076,SAVANNA AGCM,3075770,AB,-3.7,7,NA,14.2,5,-21.2,2,NA,NA,NA,8.7,7,NA,NA,3,NA,NA,NA,499.7,0,2016_11
-117.741,54.425,SIMONETTE,3075937,AB,-0.9,21,3.1,16,14,-11,14,4,14,NA,4.0,14,NA,0,1,NA,NA,NA,170,0,2016_11
-119.23,55.695,SPIRIT RIVER AUTO STATION,3076069,AB,-1.4,0,NA,13.9,0,-13.3,0,NA,NA,NA,28.0,0,NA,15,8,NA,NA,NA,580.9,0,2016_11
-118.408,55.352,TEEPEE CREEK AGCM,3076366,AB,-3.1,3,NA,17.3,2,-19.4,1,NA,NA,NA,9.1,3,NA,NA,3,NA,NA,NA,569.9,0,2016_11
-117.199,55.098,VALLEYVIEW AGDM,3076680,AB,-0.7,9,NA,15.9,6,-11.4,4,NA,NA,NA,7.9,9,NA,NA,4,NA,NA,NA,392.9,0,2016_11
-113.866,58.711,GARDEN RIVER,307KPFP,AB,-3.8,1,NA,12.8,1,-20.7,0,NA,NA,NA,0.0,29,NA,NA,0,NA,NA,NA,632.3,0,2016_11
-110.283,54.417,COLD LAKE A,3081680,AB,0.2,0,6.5,15.7,0,-10.3,0,3.1,0,13,6.6,0,34,0,3,NA,NA,NA,533.1,0,2016_11
-110.868,54.367,DUPRE AGCM,3081690,AB,-0.4,0,NA,16.3,0,-14.3,0,NA,NA,NA,4.8,0,NA,NA,1,NA,NA,NA,550.9,0,2016_11
-104.71,50.201,BRATT'S LAKE CLIMATE,4010811,SK,2.1,0,NA,21.2,0,-13.2,0,NA,NA,NA,4.0,0,NA,3,1,NA,NA,NA,476.8,0,2016_11
-102.571,50.368,BROADVIEW,4010879,SK,1.6,0,7,21.2,0,-14.2,0,NA,NA,NA,11.1,0,56,7,4,NA,NA,NA,493,0,2016_11
-105.383,50.55,BUFFALO POUND LAKE,4010984,SK,2.9,0,NA,22.5,0,-11,0,0,0,NA,0.0,0,NA,0,0,NA,NA,NA,452.5,0,2016_11
-104.267,50.85,CUPAR,4011980,SK,1.7,2,7.3,21,1,-14,1,10.6,1,NA,10.6,1,NA,0,2,NA,NA,NA,456.3,0,2016_11
-102.966,49.21,ESTEVAN A,4012401,SK,4,12,NA,21.1,5,-12.1,11,3.2,12,NA,4.2,9,NA,14,1,NA,NA,NA,252.7,0,2016_11
-102.967,49.217,ESTEVAN,4012410,SK,2.7,0,NA,21.3,0,-11.6,0,NA,NA,NA,16.1,0,NA,3,3,NA,NA,NA,460.2,0,2016_11
-103.65,50.55,INDIAN HEAD CDA,4013480,SK,1.8,0,7.1,20.3,0,-13.3,0,NA,NA,NA,11.7,0,60,3,4,NA,NA,NA,485.9,0,2016_11
-103.753,51.257,KELLIHER,4013660,SK,1.5,0,7.7,16.5,0,-10,0,7,0,39,11.2,0,54,7,3,NA,NA,NA,493.6,0,2016_11
-102.733,50.2,KIPLING,4014040,SK,2.5,0,7.9,21,0,-11.5,0,13,0,77,14.6,0,76,0,3,NA,NA,NA,465.2,0,2016_11
-101.717,50.9,LANGENBURG,4014145,SK,1.9,2,8.6,21.5,2,-12,2,12.8,2,NA,16.8,2,NA,11,4,NA,NA,NA,452.1,0,2016_11
-105.25,51.417,LAST MOUNTAIN CS,4014156,SK,1.6,0,7.1,18.9,0,-12.3,0,NA,NA,NA,5.6,0,37,3,3,NA,NA,NA,492.1,0,2016_11
-104.633,52,LEROY,4014322,SK,1.7,0,8.2,18.5,0,-12.5,0,7.8,0,56,16.4,0,102,4,5,NA,NA,NA,490.4,0,2016_11
-103.889,51.152,LIPTON 2,4014481,SK,2.2,2,8.1,18.5,2,-11.5,2,5.4,2,NA,8.6,2,NA,2,3,NA,NA,NA,442.4,0,2016_11
-103.233,49.233,MACOUN,4014870,SK,NA,NA,NA,NA,NA,NA,NA,20,27,NA,20.0,27,NA,20,1,NA,NA,NA,NA,NA,2016_11
-105.538,50.332,MOOSE JAW CS,4015322,SK,2.7,0,NA,22.2,0,-11,0,NA,NA,NA,9.4,0,NA,1,5,NA,NA,NA,459.8,0,2016_11
-105,52.333,MUENSTER,4015440,SK,1.2,9,7.9,16,9,-10,9,3,9,NA,12.8,9,NA,3,4,NA,NA,NA,351.8,0,2016_11
-102.117,49.317,OXBOW,4015800,SK,-0.3,11,NA,17.5,11,-15,11,15,11,NA,15.0,11,NA,0,3,NA,NA,NA,347.1,0,2016_11
-103.265,51.403,PARKERVIEW,4015870,SK,1.3,2,7.6,18,2,-13,2,14,2,NA,15.0,2,NA,13,4,NA,NA,NA,466.7,0,2016_11
-103.983,50.567,QU'APPELLE 1,4016322,SK,2.9,0,8.1,20.5,0,-12,0,9.8,0,60,13.4,0,74,10,3,NA,NA,NA,451.8,0,2016_11
-104.667,50.433,REGINA RCS,4016699,SK,2.1,0,NA,21.7,0,-12.5,0,NA,NA,NA,6.7,0,NA,0,2,NA,NA,NA,477.5,0,2016_11
-105.4,51.667,WATROUS EAST,4018642,SK,1.3,0,NA,17.5,0,-13.1,0,NA,NA,NA,9.0,0,NA,4,2,NA,NA,NA,502.4,0,2016_11
-104.183,49.817,YELLOW GRASS,4019040,SK,2.8,2,7.2,23,2,-14,2,2,2,NA,13.0,2,NA,0,3,NA,NA,NA,424.8,0,2016_11
-104.183,49.817,YELLOW GRASS NORTH,4019041,SK,-1.4,23,NA,8.3,23,-8.7,23,NA,NA,NA,3.7,23,NA,0,1,NA,NA,NA,135.8,0,2016_11
-102.464,51.265,YORKTON,4019073,SK,2,0,NA,18.5,0,-11.5,0,NA,NA,NA,10.6,0,NA,2,3,NA,NA,NA,479.4,0,2016_11
-102.462,51.265,YORKTON,4019075,SK,1.9,7,NA,18.4,7,-11.7,5,NA,NA,NA,1.9,5,NA,NA,1,NA,NA,NA,370,0,2016_11
-104.2,51.767,WYNYARD (AUT),40190LN,SK,2.3,0,NA,19.4,0,-11.6,0,NA,NA,NA,10.5,0,NA,4,4,NA,NA,NA,471.1,0,2016_11
-103.8,49.7,WEYBURN,401HP5R,SK,2.2,0,NA,22.5,0,-13,0,NA,NA,NA,4.8,0,NA,1,2,NA,NA,NA,473.2,0,2016_11
-105.946,49.729,ASSINIBOIA AIRPORT,4020286,SK,3.4,0,NA,21.2,0,-8.8,0,NA,NA,NA,7.1,0,NA,1,2,NA,NA,NA,437,0,2016_11
-107.311,50.832,BEECHY,4020560,SK,3.4,1,7.2,22,1,-12,1,0,1,NA,0.4,1,NA,0,0,NA,NA,NA,423.1,0,2016_11
-106.583,51.133,ELBOW CS,4022359,SK,2.3,0,NA,19.1,0,-11.7,0,NA,NA,NA,2.0,0,NA,0,1,NA,NA,NA,472.1,0,2016_11
-106.55,51.167,ELBOW 2 NE,4022363,SK,-1.7,19,2.7,7.5,19,-11.5,19,0,19,NA,2.6,19,NA,0,1,NA,NA,NA,216.8,0,2016_11
-107.15,50.95,LUCKY LAKE,4024714,SK,3,0,NA,21.5,0,-12.1,0,NA,NA,NA,0.7,0,NA,0,0,NA,NA,NA,451,0,2016_11
-109.466,49.903,MAPLE CREEK,4024919,SK,3.9,1,NA,23.9,1,-10.9,0,NA,NA,NA,3.2,1,NA,0,1,NA,NA,NA,408.6,0,2016_11
-107.263,51.154,ROCK POINT,4026847,SK,2.9,0,7.5,21.5,0,-11.5,0,1,0,7,4.2,0,23,0,3,NA,NA,NA,453.1,0,2016_11
-107.8,50.6,STEWART VALLEY,4027775,SK,4.5,21,8.1,23,21,-5.5,21,0,21,NA,0.0,21,NA,0,0,NA,NA,NA,121.6,0,2016_11
-107.691,50.292,SWIFT CURRENT,4028038,SK,3.9,4,NA,21.7,4,-8.1,4,NA,NA,NA,0.0,5,NA,NA,0,NA,NA,NA,367.7,0,2016_11
-107.733,50.267,SWIFT CURRENT CDA,4028060,SK,3.6,0,7.1,21.5,0,-8.4,0,NA,NA,NA,0.2,0,1,NA,0,NA,NA,NA,431.6,0,2016_11
-109.501,50.909,LEADER AIRPORT,402DAF0,SK,3.2,0,NA,22.4,0,-9,0,NA,NA,NA,0.2,0,NA,0,0,NA,NA,NA,444.3,0,2016_11
-109.1,49.133,CLAYDON,4031581,SK,8.5,25,11.7,20,25,-2,25,0,25,NA,0.0,25,NA,NA,0,NA,NA,NA,47.4,0,2016_11
-105.483,49.05,CORONACH SPC,40318MN,SK,2.5,0,6,22.1,0,-10.8,0,NA,NA,NA,3.6,0,27,1,1,NA,NA,NA,464.8,0,2016_11
-109.514,49.641,CYPRESS HILLS PARK,4031999,SK,3.2,0,NA,21.9,0,-13.8,0,NA,NA,NA,6.8,0,NA,0,2,NA,NA,NA,445.3,0,2016_11
-108.989,49.438,EASTEND CYPRESS (AUT),4032322,SK,2.7,0,NA,19.3,0,-10.7,0,NA,NA,NA,16.2,0,NA,0,3,NA,NA,NA,457.8,0,2016_11
-107.024,49.099,MANKOTA,4034910,SK,2.3,1,6.8,20.5,1,-8.7,0,NA,NA,NA,10.1,1,NA,1,5,NA,NA,NA,454.3,0,2016_11
-105.979,49.168,ROCKGLEN (AUT),4036844,SK,3.4,0,NA,19.7,0,-9.8,0,NA,NA,NA,70.2,0,NA,1,24,NA,NA,NA,438.5,0,2016_11
-108.383,49,TREELON,4038116,SK,3.7,22,6.5,20,22,-7,22,0,22,NA,2.0,22,NA,NA,1,NA,NA,NA,114.5,0,2016_11
-107.586,49.058,VAL MARIE SOUTHEAST,4038412,SK,2.4,0,NA,21.9,0,-11.3,0,NA,NA,NA,0.2,0,NA,0,0,NA,NA,NA,468.9,0,2016_11
-108.407,51.294,BICKLEIGH,4040587,SK,2.9,5,7.4,21.5,3,-11.5,4,0,3,NA,3.2,3,NA,0,1,NA,NA,NA,377.7,0,2016_11
-109.2,53.45,BUTTE ST PIERRE,4041000,SK,0.4,1,7.7,17.5,1,-14,1,1.8,1,NA,5.2,1,NA,1,2,NA,NA,NA,510.9,0,2016_11
-109.181,51.515,KINDERSLEY A,4043901,SK,1.7,1,NA,20.3,1,-9.7,0,0.4,0,NA,1.4,0,NA,NA,1,NA,NA,NA,474,0,2016_11
-108.256,52.772,NORTH BATTLEFORD RCS,4045607,SK,0.6,0,NA,18.6,0,-12.8,0,NA,NA,NA,25.8,0,NA,9,6,NA,NA,NA,521.3,0,2016_11
-108.244,52.769,NORTH BATTLEFORD,4045695,SK,-1.4,10,NA,16.2,10,-12.9,10,NA,NA,NA,7.1,10,NA,NA,1,NA,NA,NA,388,0,2016_11
-107.917,51.567,ROSETOWN EAST,4046884,SK,1.8,0,NA,20,0,-12.6,0,NA,NA,NA,2.8,0,NA,1,1,NA,NA,NA,485.2,0,2016_11
-108.835,52.36,SCOTT CDA,4047240,SK,0.6,0,8.3,18.5,0,-11.9,0,NA,NA,NA,20.1,0,91,3,4,NA,NA,NA,522.1,0,2016_11
-107.767,52.317,SONNINGDALE,4047644,SK,0.1,4,NA,18,4,-13.5,4,15,4,NA,19.0,4,NA,0,4,NA,NA,NA,466.4,0,2016_11
-109.405,53.131,WASECA RCS,4048521,SK,0.5,0,NA,18.9,0,-14.4,0,NA,NA,NA,9.6,0,NA,5,2,NA,NA,NA,525.2,0,2016_11
-104.6,52.817,MELFORT,4055079,SK,1,0,NA,17.7,0,-16.9,0,NA,NA,NA,19.0,0,NA,5,4,NA,NA,NA,508.7,0,2016_11
-107.05,51.483,OUTLOOK PFRA,4055736,SK,2.5,0,6.6,19.9,0,-11,0,NA,NA,NA,3.8,0,26,1,1,NA,NA,NA,465.9,0,2016_11
-105.15,52.417,PILGER,4056121,SK,0.7,0,NA,17.6,0,-14.4,0,NA,NA,NA,17.4,0,NA,5,4,NA,NA,NA,519.8,0,2016_11
-105.673,53.214,PRINCE ALBERT A,4056241,SK,0,0,NA,17.6,0,-16.2,0,11,0,NA,16.0,0,NA,5,5,NA,NA,NA,541,0,2016_11
-105.677,53.21,PRINCE ALBERT GLASS FIELD,4056243,SK,-2.6,23,NA,2.1,23,-8,23,NA,NA,NA,1.9,23,NA,2,1,NA,NA,NA,144.5,0,2016_11
-106.719,52.174,SASKATOON RCS,4057165,SK,1.9,0,NA,19.8,0,-12.2,0,NA,NA,NA,9.2,1,NA,0,3,NA,NA,NA,483.4,0,2016_11
-108.421,55.841,BUFFALO NARROWS (AUT),4060983,SK,-0.4,0,NA,13.1,0,-12.7,0,NA,NA,NA,7.0,0,NA,6,3,NA,NA,NA,553,0,2016_11
-104.483,58.083,CIGAR LAKE,4061570,SK,-5.6,0,6.6,7,0,-24,0,18,0,48,18.0,0,48,12,8,NA,NA,NA,709,0,2016_11
-103.678,58.229,COLLINS BAY SK,4061620,SK,-4.4,0,NA,9.3,0,-22.5,0,NA,NA,NA,18.4,0,NA,13,7,NA,NA,NA,672.3,0,2016_11
-103.712,58.19,COLLINS BAY,4061629,SK,-4.4,0,NA,9.3,0,-22.5,0,NA,NA,NA,18.4,0,NA,13,7,NA,NA,NA,672.3,0,2016_11
-103.7,58.183,COLLINS BAY CAMECO,4061632,SK,-4.6,0,NA,8.5,0,-21.5,0,24.8,0,NA,25.2,0,NA,0,7,NA,NA,NA,678,0,2016_11
-102.35,55.533,ISLAND FALLS (AUT),4063605,SK,-1.5,0,NA,11.3,0,-16.5,0,NA,NA,NA,16.4,0,NA,4,5,NA,NA,NA,585.8,0,2016_11
-109.962,54.908,JIMMY LAKE AWOS,4063623,SK,-0.4,2,NA,14,2,-13.5,0,NA,NA,NA,2.5,2,NA,NA,0,NA,NA,NA,514.4,0,2016_11
-105.6,57.25,KEY LAKE,4063753,SK,-3.7,0,NA,9.9,0,-24.1,0,NA,NA,NA,14.2,0,NA,9,5,NA,NA,NA,650.3,0,2016_11
-105.617,57.25,KEY LAKE,4063755,SK,-3.3,2,8.5,10,2,-23.5,2,12.4,2,NA,12.6,2,NA,0,7,NA,NA,NA,595.7,0,2016_11
-105.618,57.256,KEY LAKE,4063757,SK,-3.9,8,NA,9.3,8,-22.9,8,NA,NA,NA,2.7,8,NA,NA,2,NA,NA,NA,482,0,2016_11
-105.27,55.146,LA RONGE RCS,4064149,SK,0.1,0,NA,15.3,0,-11.8,0,NA,NA,NA,8.1,0,NA,4,3,NA,NA,NA,537.4,0,2016_11
-105.267,55.151,LA RONGE A,4064155,SK,-0.1,0,NA,15.1,0,-12,0,5.5,1,NA,12.4,0,NA,3,3,NA,NA,NA,541.8,0,2016_11
-109.138,54.02,LOON LAKE RCS,4064620,SK,0.9,2,NA,17.1,1,-10.9,1,NA,NA,NA,10.2,2,NA,3,4,NA,NA,NA,479.9,0,2016_11
-108.05,54.125,MEADOW LAKE A,4065057,SK,NA,NA,NA,15.4,3,NA,NA,NA,NA,NA,NA,NA,NA,0,NA,NA,NA,NA,NA,NA,2016_11
-103.283,56.333,SOUTHEND,4067655,SK,-2.5,0,NA,10.4,0,-20.2,0,NA,NA,NA,17.3,0,NA,5,5,NA,NA,NA,614.3,0,2016_11
-107.55,53.367,SPIRITWOOD WEST,4067723,SK,0.5,0,NA,19,0,-13.6,0,NA,NA,NA,8.8,0,NA,4,5,NA,NA,NA,524.4,0,2016_11
-105.841,59.25,STONY RAPIDS,4067799,SK,-6,12,NA,6.7,12,-25.3,12,NA,NA,NA,7.3,12,NA,NA,3,NA,NA,NA,432.6,0,2016_11
-106.067,53.917,WASKESIU LAKE,4068559,SK,0.5,0,NA,18,0,-13.3,0,NA,NA,NA,11.4,0,NA,3,3,NA,NA,NA,526.2,0,2016_11
-108.517,54.133,MEADOW LAKE,406N0NM,SK,0.2,0,NA,16.3,0,-13.5,0,NA,NA,NA,9.6,0,NA,1,4,NA,NA,NA,534.4,0,2016_11
-108.483,59.567,URANIUM CITY (AUT),406QLD0,SK,-4.8,0,NA,6.7,0,-19.5,0,NA,NA,NA,25.7,1,NA,18,5,NA,NA,NA,682.7,0,2016_11
-104.008,53.333,NIPAWIN,4075525,SK,0.9,5,NA,17.2,5,-15,5,NA,NA,NA,13.3,5,NA,NA,4,NA,NA,NA,427.1,0,2016_11
-104,53.333,NIPAWIN,407N51G,SK,0.4,1,NA,17.2,0,-14.8,1,NA,NA,NA,18.6,0,NA,6,6,NA,NA,NA,510.7,0,2016_11
-102.583,52.883,HUDSON BAY 13W,4083323,SK,-0.3,8,NA,19,8,-14.5,8,15,8,NA,17.4,8,NA,11,3,NA,NA,NA,402,0,2016_11
-102.317,52.817,HUDSON BAY(AUT),4083324,SK,1.1,0,NA,18,0,-13.6,0,NA,NA,NA,38.1,0,NA,7,8,NA,NA,NA,506.7,0,2016_11
-101.9,51.733,PELLY 2,4086001,SK,1.9,0,8.2,17,0,-13.5,0,10,0,45,16.2,0,65,6,7,NA,NA,NA,482.2,0,2016_11
-99.292,49.276,BALDUR,5010140,MB,1.9,8,6.4,20.5,5,-13,5,14,0,73,14.0,0,56,0,4,NA,NA,NA,354.4,0,2016_11
-99.952,49.91,BRANDON A,5010481,MB,2,0,NA,18.2,0,-13,0,8.2,0,NA,10.2,0,NA,3,4,NA,NA,NA,481,0,2016_11
-99.95,49.9,BRANDON RCS,5010490,MB,2.3,0,NA,17.9,0,-11.7,0,NA,NA,NA,7.4,0,NA,5,1,NA,NA,NA,471.6,0,2016_11
-99.357,49.906,CARBERRY CS,5010547,MB,2.7,5,NA,20.2,5,-11.6,3,NA,NA,NA,12.6,5,NA,NA,2,NA,NA,NA,382.1,0,2016_11
-99.074,49.562,CYPRESS RIVER RCS,5010641,MB,3.3,0,NA,21.9,0,-12.5,0,NA,NA,NA,15.7,0,NA,11,2,NA,NA,NA,442,0,2016_11
-101.203,49.927,ELKHORN 2 EAST,5010QFQ,MB,2.8,3,7.5,20,3,-11.5,3,8.4,3,NA,9.4,3,NA,17,3,NA,NA,NA,411.1,0,2016_11
-98.3,49.983,PORTAGE ROMANCE,5012300,MB,NA,NA,NA,NA,NA,NA,NA,30,0,NA,38.0,0,NA,12,4,NA,NA,NA,NA,NA,2016_11
-98.267,49.95,PORTAGE LA PRAIRIE CDA,5012321,MB,NA,NA,NA,NA,NA,NA,NA,4,21,NA,7.6,21,NA,18,3,NA,NA,NA,NA,NA,2016_11
-98.284,49.903,PORTAGE SOUTHPORT,5012324,MB,3.9,0,NA,20.9,0,-8,0,NA,NA,NA,31.3,0,NA,5,4,NA,NA,NA,423.2,0,2016_11
-101.363,51.183,ROBLIN,5012469,MB,0.3,3,NA,16.1,3,-13.2,1,NA,NA,NA,7.6,3,NA,NA,2,NA,NA,NA,478.8,0,2016_11
-100.604,50.455,SHOAL LAKE CS,5012654,MB,1.6,1,NA,19.3,1,-11,0,NA,NA,NA,3.0,1,NA,0,1,NA,NA,NA,475.4,0,2016_11
-100.934,49.842,VIRDEN WATER,5012961,MB,2.9,5,NA,19,5,-13,5,17,28,NA,17.0,28,NA,NA,2,NA,NA,NA,376.5,0,2016_11
-99.942,50.655,WASAGAMING,5013117,MB,0.7,0,7.7,19.7,0,-13.8,0,NA,NA,NA,16.3,0,63,19,5,NA,NA,NA,517.9,0,2016_11
-100.986,49.281,MELITA,501A7AR,MB,3,0,NA,20.8,0,-12.2,0,NA,NA,NA,8.8,0,NA,3,2,NA,NA,NA,449.8,0,2016_11
-101.4,51.267,ROBLIN FRIESEN 3 NORTHWEST,501B4G2,MB,NA,NA,NA,NA,NA,NA,NA,6.6,0,NA,13.0,0,NA,0,5,NA,NA,NA,NA,NA,2016_11
-100.179,50.108,RIVERS PETTAPIECE,501BMMA,MB,NA,NA,NA,NA,NA,NA,NA,4.2,2,NA,5.6,2,NA,4,3,NA,NA,NA,NA,NA,2016_11
-100.817,50.75,ROSSBURN 4 NORTH,501KE01,MB,NA,NA,NA,NA,NA,NA,NA,11,0,54,16.8,0,71,8,3,NA,NA,NA,NA,NA,2016_11
-98.319,49.4,DEERWOOD RCS,5020725,MB,3.4,9,NA,22.5,8,-9.8,4,NA,NA,NA,25.0,13,NA,9,2,NA,NA,NA,306.2,0,2016_11
-97.238,49,EMERSON AUTO,5020881,MB,3.8,0,NA,19.8,0,-8.7,0,NA,NA,NA,25.8,0,NA,0,3,NA,NA,NA,426.5,0,2016_11
-97.56,49.031,GRETNA (AUT),5021220,MB,3.9,0,NA,20.6,0,-7.8,0,NA,NA,NA,28.1,0,NA,3,4,NA,NA,NA,422.8,0,2016_11
-98.875,49.606,HOLLAND,5021302,MB,NA,NA,NA,NA,NA,NA,NA,16,4,NA,23.0,4,NA,0,5,NA,NA,NA,NA,NA,2016_11
-96.901,49.518,KLEEFELD (MAFRI),5021500,MB,2.1,11,NA,20.3,3,-8.6,11,NA,NA,NA,28.9,11,NA,2,5,NA,NA,NA,302.7,0,2016_11
-97.807,50.013,MARQUETTE,5021695,MB,4.3,11,8.8,18,11,-6,11,6.4,11,NA,14.2,11,NA,7,5,NA,NA,NA,260.1,0,2016_11
-98.084,49.188,MORDEN CDA CS,5021849,MB,4.3,0,NA,20.2,0,-9.3,0,NA,NA,NA,32.9,0,NA,5,4,NA,NA,NA,412.4,0,2016_11
-96.85,49.933,OAKBANK,5022051,MB,NA,NA,NA,NA,NA,NA,NA,17,0,68,29.3,0,87,5,8,NA,NA,NA,NA,NA,2016_11
-98.905,49.191,PILOT MOUND (AUT),5022125,MB,2.8,0,NA,19.9,0,-11.8,0,NA,NA,NA,16.1,0,NA,9,5,NA,NA,NA,455.7,0,2016_11
-98.367,49.65,ST CLAUDE,5022550,MB,NA,NA,NA,NA,NA,NA,NA,23.2,2,NA,25.8,2,NA,17,4,NA,NA,NA,NA,NA,2016_11
-96.035,49.353,ST LABRE,5022575,MB,NA,NA,NA,NA,NA,NA,NA,12,0,38,28.8,0,64,0,7,NA,NA,NA,NA,NA,2016_11
-97.95,49.133,SCHANZENFELD,5022623,MB,NA,NA,NA,NA,NA,NA,NA,14.2,1,NA,34.0,1,NA,3,4,NA,NA,NA,NA,NA,2016_11
-95.598,49.024,SPRAGUE,5022759,MB,3.1,0,NA,21.2,0,-9.2,0,NA,NA,NA,36.9,0,NA,NA,7,NA,NA,NA,446,0,2016_11
-97.167,50.117,STONY MOUNTAIN,5022791,MB,3.1,0,7.8,19,0,-9.5,0,11.2,0,53,23.7,0,86,0,8,NA,NA,NA,447.1,0,2016_11
-97.273,49.85,WINNIPEG CHARLESWOOD 2,5023225,MB,NA,NA,NA,NA,NA,NA,NA,13.2,0,NA,21.4,0,NA,4,6,NA,NA,NA,NA,NA,2016_11
-97.129,49.888,WINNIPEG THE FORKS,5023262,MB,3.9,1,NA,19.2,1,-6.9,0,NA,NA,NA,55.2,1,NA,NA,17,NA,NA,NA,408.3,0,2016_11
-98.03,49.498,CARMAN U OF M CS,502I001,MB,3.3,0,NA,20.8,0,-9.4,0,NA,NA,NA,28.8,0,NA,NA,3,NA,NA,NA,441.3,0,2016_11
-97.249,49.917,WINNIPEG A CS,502S001,MB,3.1,0,NA,18.8,0,-10.6,0,NA,NA,NA,28.7,0,NA,2,6,NA,NA,NA,447.7,0,2016_11
-97.022,52.36,BERENS RIVER CS,5030203,MB,1.4,0,7.8,15.7,0,-10.8,0,NA,NA,NA,12.6,0,40,3,5,NA,NA,NA,498.5,0,2016_11
-97.616,52.819,GEORGE ISLAND (AUT),5030984,MB,2.9,1,NA,12.2,1,-8,0,NA,NA,NA,14.0,1,NA,0,5,NA,NA,NA,438.1,0,2016_11
-97.555,51.083,FISHER BRANCH (AUT),50309J6,MB,3,2,NA,20.4,1,-11.8,1,NA,NA,NA,29.5,2,NA,7,5,NA,NA,NA,420.9,0,2016_11
-96.982,50.631,GIMLI HARBOUR CS,5031041,MB,3.3,4,NA,17.2,4,-9.4,3,NA,NA,NA,NA,NA,NA,NA,NA,NA,NA,NA,383.5,0,2016_11
-97.05,50.633,GIMLI CLIMATE,5031042,MB,2.9,0,NA,19.3,0,-12.5,0,NA,NA,NA,39.6,0,NA,4,4,NA,NA,NA,452.9,0,2016_11
-99.283,53.158,GRAND RAPIDS HYDRO,5031111,MB,-0.2,26,6.3,8,26,-5,26,0,26,NA,0.5,26,NA,NA,0,NA,NA,NA,72.7,0,2016_11
-95.977,50.522,GREAT FALLS CLIMATE,5031201,MB,3.3,0,NA,20.5,0,-8.8,0,NA,NA,NA,30.4,0,NA,2,6,NA,NA,NA,442.5,0,2016_11
-97.568,51.211,HODGSON 3,5031310,MB,2.7,0,NA,20,0,-11,0,15,0,NA,18.6,0,NA,8,4,NA,NA,NA,460.3,0,2016_11
-95.197,49.624,INDIAN BAY,5031320,MB,2.6,0,7.3,21,0,-12,0,8,0,34,33.2,0,93,0,9,NA,NA,NA,462.4,0,2016_11
-99.268,53.186,GRAND RAPIDS (AUT),5031A10,MB,0.9,0,NA,17.1,0,-12.9,0,NA,NA,NA,22.1,0,NA,4,6,NA,NA,NA,513.8,0,2016_11
-95.89,50.148,PINAWA CANWARN,5032161,MB,NA,NA,NA,NA,NA,NA,NA,12.6,17,NA,27.0,17,NA,1,4,NA,NA,NA,NA,NA,2016_11
-95.533,49.85,RENNIE,5032360,MB,1.8,13,NA,21.5,9,-10.5,9,5.8,9,NA,11.2,9,NA,1,3,NA,NA,NA,274.8,0,2016_11
-96.567,50.7,VICTORIA BEACH (AUT),5032951,MB,4.4,0,NA,17.3,0,-4.7,0,NA,NA,NA,NA,NA,NA,NA,NA,NA,NA,NA,407.6,0,2016_11
-96.065,50.177,PINAWA,503B1ER,MB,2.9,0,NA,21.3,0,-8.7,0,NA,NA,NA,37.3,0,NA,6,7,NA,NA,NA,452.2,0,2016_11
-98.7,50.05,BEAVER,5040166,MB,NA,NA,NA,NA,NA,NA,NA,2,28,NA,4.0,28,NA,0,2,NA,NA,NA,NA,NA,2016_11
-100.057,51.1,DAUPHIN CS,5040681,MB,2.6,0,NA,21.1,0,-11.8,0,NA,NA,NA,8.4,0,NA,12,4,NA,NA,NA,463.4,0,2016_11
-100.053,51.101,DAUPHIN,5040689,MB,3,4,NA,21.5,4,-11.4,4,NA,NA,NA,8.7,4,NA,NA,2,NA,NA,NA,390.3,0,2016_11
-100.65,52.033,COWAN,5040FJ3,MB,1.9,0,8.7,23,0,-10,0,14,0,55,20.2,0,71,0,6,NA,NA,NA,483.3,0,2016_11
-101.098,52.666,MAFEKING,5041685,MB,2.2,1,8.3,24,1,-12,1,25.2,1,NA,35.8,1,NA,20,5,NA,NA,NA,458.4,0,2016_11
-99.53,50.712,MCCREARY,5043158,MB,3.9,2,8.6,22.3,2,-9.4,0,NA,NA,NA,30.4,3,NA,14,5,NA,NA,NA,395.2,0,2016_11
-98.037,50.499,OAKPOINT MARINE,504K0NM,MB,3,2,NA,14.6,2,-7.1,0,NA,NA,NA,18.8,2,NA,8,2,NA,NA,NA,420.6,0,2016_11
-101.233,52.115,SWAN RIVER RCS,504K80K,MB,1.5,1,NA,19.6,1,-12,0,NA,NA,NA,9.7,1,NA,4,2,NA,NA,NA,477.3,0,2016_11
-101.683,54.683,FLIN FLON,5050919,MB,-0.1,0,NA,12.4,0,-13.4,0,NA,NA,NA,0.2,26,NA,2,0,NA,NA,NA,543.9,0,2016_11
-101.883,54.767,FLIN FLON,5050920,MB,0.3,0,8.3,14,0,-13,0,9,0,44,20.8,0,96,3,7,NA,NA,NA,531.1,0,2016_11
-101.683,54.683,FLIN FLON A,5050960,MB,0,0,8.4,12,0,-13.5,0,10.2,0,37,21.6,0,83,2,7,NA,NA,NA,538.7,0,2016_11
-101.091,53.971,THE PAS A,5052881,MB,0.7,0,NA,16.1,0,-13.2,0,11.4,0,NA,17.2,0,NA,6,5,NA,NA,NA,520.3,0,2016_11
-101.1,53.967,THE PAS CLIMATE,5052890,MB,1,1,NA,16.3,1,-12.6,0,NA,NA,NA,15.8,1,NA,6,6,NA,NA,NA,493.5,0,2016_11
-94.066,58.739,CHURCHILL,5060595,MB,-5.3,16,NA,5.4,16,-19.9,15,NA,NA,NA,0.0,18,NA,NA,0,NA,NA,NA,326.2,0,2016_11
-94.067,58.733,CHURCHILL CLIMATE,5060608,MB,-5.3,0,NA,5.6,0,-20.2,0,NA,NA,NA,19.0,0,NA,1,5,NA,NA,NA,698.8,0,2016_11
-98.033,54.533,CROSS LAKE JENPEG,5060623,MB,-0.5,0,8.1,13.5,0,-14.5,0,0,0,0,9.3,0,37,0,5,NA,NA,NA,556.1,0,2016_11
-94.711,56.358,GILLAM A,5061022,MB,-3.4,0,NA,9.9,0,-19.4,0,10.2,0,NA,18.8,0,NA,5,5,NA,NA,NA,642.1,0,2016_11
-94.654,53.857,ISLAND LAKE A,5061375,MB,1.7,13,NA,17.9,12,-12.3,13,10.4,12,NA,13.4,13,NA,10,4,NA,NA,NA,277,0,2016_11
-96.51,56.038,KELSEY DAM CS,5061422,MB,-2.8,0,NA,10.7,0,-17.3,0,NA,NA,NA,15.8,0,NA,NA,4,NA,NA,NA,622.7,0,2016_11
-101.076,56.864,LYNN LAKE,5061645,MB,-3.1,7,NA,12,7,-15.3,6,NA,NA,NA,2.0,21,NA,NA,1,NA,NA,NA,485.4,0,2016_11
-101.067,56.85,LYNN LAKE RCS,5061649,MB,-3.8,0,NA,10.7,0,-20.4,0,NA,NA,NA,16.4,0,NA,12,4,NA,NA,NA,652.7,0,2016_11
-97.844,53.958,NORWAY HOUSE,5062040,MB,0.2,7,NA,13.8,7,-15.4,7,NA,NA,NA,4.1,7,NA,NA,2,NA,NA,NA,408.6,0,2016_11
-98.512,58.706,TADOULE LAKE,5062835,MB,-6.5,7,NA,6.9,7,-23.8,7,NA,NA,NA,16.4,7,NA,NA,3,NA,NA,NA,564.6,0,2016_11
-98.502,58.716,TADOULE LAKE CS,5062840,MB,-6.5,0,NA,6.3,0,-23.7,0,NA,NA,NA,40.6,0,NA,22,11,NA,NA,NA,735.6,0,2016_11
-97.863,55.805,THOMPSON A,5062921,MB,-3.5,1,NA,10.1,0,-19.2,1,6.5,5,NA,19.1,0,NA,10,4,NA,NA,NA,622.3,0,2016_11
-82.432,52.928,ATTAWAPISKAT A,6010400,ON,0,6,NA,16.3,6,-10,6,NA,NA,NA,19.9,6,NA,NA,3,NA,NA,NA,432.9,0,2016_11
-89.897,53.818,BIG TROUT LAKE A,6010735,ON,-1.3,9,NA,15.9,9,-18.2,9,NA,NA,NA,34.1,9,NA,NA,4,NA,NA,NA,405.5,0,2016_11
-89.892,53.816,BIG TROUT LAKE,6010740,ON,-1.2,0,NA,16.2,0,-18.5,0,NA,NA,NA,44.3,0,NA,5,8,NA,NA,NA,575.5,0,2016_11
-93.221,50.631,EAR FALLS (AUT),6012199,ON,2.1,0,NA,19.6,0,-11.3,0,NA,NA,NA,42.1,0,NA,5,7,NA,NA,NA,478.4,0,2016_11
-87.676,56.019,FORT SEVERN A,6012501,ON,-3.3,8,NA,11.8,8,-15.3,8,NA,NA,NA,5.0,8,NA,NA,4,NA,NA,NA,468.5,0,2016_11
-87.936,52.196,LANSDOWNE HOUSE (AUT),6014353,ON,-1.1,0,NA,20.5,0,-20.2,0,NA,NA,NA,27.9,10,NA,12,6,NA,NA,NA,572.3,0,2016_11
-91.763,53.441,MUSKRAT DAM,6015026,ON,-2.8,12,NA,17.1,12,-19.6,11,NA,NA,NA,0.0,12,NA,NA,0,NA,NA,NA,373.7,0,2016_11
-85.433,54.983,PEAWANUCK (AUT),6016295,ON,-1.7,1,NA,15.2,0,-14.7,1,NA,NA,NA,32.9,2,NA,2,8,NA,NA,NA,571.5,0,2016_11
-90.218,51.449,PICKLE LAKE (AUT),6016525,ON,-0.6,1,NA,18.6,1,-18.1,0,NA,NA,NA,35.8,1,NA,10,8,NA,NA,NA,539.7,0,2016_11
-90.214,51.446,PICKLE LAKE A,6016529,ON,NA,NA,NA,18.8,3,NA,NA,NA,NA,NA,NA,NA,NA,12,NA,NA,NA,NA,NA,NA,2016_11
-93.793,51.067,RED LAKE A,6016970,ON,NA,NA,NA,19.3,3,NA,NA,NA,NA,NA,NA,NA,NA,5,NA,NA,NA,NA,NA,NA,2016_11
-93.344,53.064,SANDY LAKE A,6017401,ON,-0.8,11,NA,19.3,11,-20.3,11,NA,NA,NA,16.5,12,NA,NA,4,NA,NA,NA,358,0,2016_11
-93.967,48.633,BARWICK,6020559,ON,3.4,0,6.8,21.5,0,-10.5,0,8,0,28,26.6,0,64,0,7,NA,NA,NA,437.6,0,2016_11
-91.628,48.761,ATIKOKAN (AUT),6020LPQ,ON,1.4,1,NA,20.5,1,-16.9,0,NA,NA,NA,64.0,1,NA,0,9,NA,NA,NA,481.6,0,2016_11
-93.439,48.651,FORT FRANCES RCS,6022474,ON,2.5,0,NA,21.8,0,-12.3,0,NA,NA,NA,38.2,0,NA,0,8,NA,NA,NA,464.3,0,2016_11
-92.623,48.76,MINE CENTRE SOUTHWEST,6025205,ON,1.7,2,NA,20.5,1,-16,1,39.4,1,NA,62.4,1,NA,2,11,NA,NA,NA,457,0,2016_11
-92.744,49.828,DRYDEN REGIONAL,6032125,ON,3.1,8,NA,19.2,8,-10,8,NA,NA,NA,25.7,8,NA,NA,5,NA,NA,NA,327.1,0,2016_11
-94.378,49.791,KENORA RCS,6034073,ON,2.8,0,NA,18.6,0,-9.7,0,NA,NA,NA,37.6,0,NA,0,8,NA,NA,NA,457.2,0,2016_11
-94.363,49.788,KENORA A,6034076,ON,2.5,1,NA,18.4,0,-9.4,1,23.6,0,NA,43.8,0,NA,1,9,NA,NA,NA,450.7,0,2016_11
-93.717,49.65,RAWSON LAKE,6036904,ON,2.9,1,7.2,19.5,1,-9.5,1,15,9,NA,47.3,1,NA,1,8,NA,NA,NA,438.5,0,2016_11
-93.733,49.664,RAWSON LAKE (AUT),6036907,ON,2.6,0,NA,18.9,0,-9.3,0,NA,NA,NA,42.8,0,NA,0,8,NA,NA,NA,462.5,0,2016_11
-94.763,49.469,ROYAL ISLAND (AUT),6037201,ON,4.1,3,NA,18.4,2,-6.2,1,NA,NA,NA,NA,NA,NA,NA,NA,NA,NA,NA,375.1,0,2016_11
-91.908,50.114,SIOUX LOOKOUT A,6037776,ON,1.9,1,NA,19.5,0,-14.1,1,0,26,NA,0.0,29,NA,NA,0,NA,NA,NA,467.2,0,2016_11
-88.905,50.294,ARMSTRONG (AUT),6040325,ON,-0.6,3,NA,19.5,2,-26.7,1,NA,NA,NA,47.5,3,NA,24,6,NA,NA,NA,502.2,0,2016_11
-88.345,49.154,CAMERON FALLS (AUT),6041110,ON,1.9,0,NA,18,0,-18.3,0,NA,NA,NA,74.0,0,NA,0,7,NA,NA,NA,483.3,0,2016_11
-85.833,47.333,CARIBOU ISLAND (AUT),6041222,ON,6,2,NA,13,1,-5.1,1,NA,NA,NA,NA,NA,NA,NA,NA,NA,NA,NA,336.5,0,2016_11
-86.939,49.779,GERALDTON A,6042717,ON,-0.3,2,NA,20.1,2,-17.4,2,54.8,2,NA,60.2,2,NA,22,9,NA,NA,NA,513.2,0,2016_11
-89.267,48.467,HAZELWOOD,6043390,ON,NA,NA,NA,NA,NA,NA,NA,36,0,NA,150.0,0,NA,6,11,NA,NA,NA,NA,NA,2016_11
-86.287,48.608,PUKASKWA (AUT),6046768,ON,2,0,NA,13.3,0,-14.8,0,NA,NA,NA,48.6,0,NA,NA,10,NA,NA,NA,480.8,0,2016_11
-89.322,48.372,THUNDER BAY,6048260,ON,2.4,8,NA,19.3,8,-17.4,8,NA,NA,NA,61.1,8,NA,NA,8,NA,NA,NA,344,0,2016_11
-89.278,48.414,THUNDER BAY BURWOOD,6048266,ON,3.5,7,NA,19,7,-22,7,15.6,7,NA,103.3,7,NA,0,9,NA,NA,NA,332.5,0,2016_11
-89.327,48.369,THUNDER BAY CS,6048268,ON,1.6,4,NA,18.6,4,-19,0,NA,NA,NA,157.8,4,NA,NA,10,NA,NA,NA,426.6,0,2016_11
-90.467,49.033,UPSALA (AUT),6049095,ON,1,0,NA,20.2,0,-21.8,0,NA,NA,NA,83.9,0,NA,15,7,NA,NA,NA,509.9,0,2016_11
-89.119,48.369,WELCOME ISLAND (AUT),6049443,ON,4.7,0,NA,16.9,0,-9.4,0,NA,NA,NA,NA,NA,NA,NA,NA,NA,NA,NA,398.1,0,2016_11
-88.306,49.69,LITTLE FLATLAND ISLAND (AUT),6049470,ON,3.5,3,NA,14.6,3,-8.6,1,NA,NA,NA,60.6,3,NA,NA,11,NA,NA,NA,390.4,0,2016_11
-89.317,48.367,THUNDER BAY A FIREHALL,604S003,ON,NA,NA,NA,NA,NA,NA,NA,17.8,0,NA,138.8,0,NA,0,9,NA,NA,NA,NA,NA,2016_11
-84.814,47.723,LAKE SUPERIOR PROVINCIAL PARK,6054425,ON,1.5,3,NA,15.1,3,-13.1,0,NA,NA,NA,50.1,3,NA,0,11,NA,NA,NA,445.1,0,2016_11
-84.51,46.485,SAULT STE MARIE A,6057591,ON,4.5,1,NA,18.1,0,-12.5,1,15.8,0,NA,67.7,0,NA,NA,10,NA,NA,NA,391.5,0,2016_11
-84.786,47.967,WAWA A,6059407,ON,NA,NA,NA,16.1,3,NA,NA,NA,NA,NA,NA,NA,NA,NA,NA,NA,NA,NA,NA,NA,2016_11
-81.483,45.967,KILLARNEY (AUT),605DJ25,ON,5.1,0,NA,14.5,0,-6.3,0,NA,NA,NA,NA,NA,NA,NA,NA,NA,NA,NA,386.3,0,2016_11
-83.347,47.82,CHAPLEAU A,6061362,ON,NA,NA,NA,17.1,3,NA,NA,NA,NA,NA,NA,NA,NA,NA,NA,NA,NA,NA,NA,NA,2016_11
-82.025,46.193,MASSEY,6065006,ON,2.9,7,2.6,17,7,-10,7,9.6,7,NA,44.0,7,NA,0,6,NA,NA,NA,346.7,0,2016_11
-80.303,46.215,MONETVILLE 2,6065252,ON,4.5,4,NA,18,4,-6.5,4,4.2,4,NA,45.2,4,NA,0,9,NA,NA,NA,350.2,0,2016_11
-80.796,46.632,SUDBURY CLIMATE,6068145,ON,2.5,0,NA,16.6,0,-8.1,0,NA,NA,NA,35.4,0,NA,NA,5,NA,NA,NA,464.8,0,2016_11
-80.798,46.626,SUDBURY A,6068153,ON,2.4,1,NA,16.6,1,-8.3,0,18.4,0,NA,51.4,1,NA,NA,10,NA,NA,NA,452.4,0,2016_11
-82.124,49.383,BONNER LAKE,6070QK6,ON,1,0,NA,19.5,0,-10,0,16.4,0,NA,54.0,0,NA,4,11,NA,NA,NA,508.9,0,2016_11
-79.849,47.695,EARLTON A,6072223,ON,2.2,11,NA,13.9,11,-7,11,NA,NA,NA,10.1,11,NA,NA,4,NA,NA,NA,300.9,0,2016_11
-79.849,47.695,EARLTON CLIMATE,6072230,ON,1.3,2,NA,13.9,2,-7.2,0,NA,NA,NA,24.5,2,NA,3,4,NA,NA,NA,466.7,0,2016_11
-82.468,49.412,KAPUSKASING A,6073976,ON,1,0,NA,18.5,0,-10.6,0,15.9,0,NA,61.2,0,NA,4,11,NA,NA,NA,511.5,0,2016_11
-82.444,49.406,KAPUSKASING CDA ON,6073980,ON,1.1,0,NA,18.4,0,-10.5,0,NA,NA,NA,54.5,0,NA,4,9,NA,NA,NA,507.5,0,2016_11
-80,48.15,KIRKLAND LAKE CS,6074211,ON,1.5,0,NA,18.5,0,-8.3,0,NA,NA,NA,63.8,0,NA,4,8,NA,NA,NA,494.2,0,2016_11
-80.608,51.291,MOOSONEE,6075420,ON,1.2,13,NA,20.1,13,-6.6,13,NA,NA,NA,46.9,13,NA,NA,5,NA,NA,NA,285.8,0,2016_11
-80.65,51.267,MOOSONEE UA,6075425,ON,1.8,2,6.1,20.5,2,-7.5,2,9,2,NA,63.4,2,NA,15,8,NA,NA,NA,453.2,0,2016_11
-80.618,51.292,MOOSONEE RCS,6075435,ON,1.5,0,NA,20.3,0,-7.1,0,NA,NA,NA,76.0,0,NA,24,10,NA,NA,NA,493.6,0,2016_11
-84.164,49.747,NAGAGAMI (AUT),6075543,ON,0.7,0,NA,18.9,0,-14.5,0,NA,NA,NA,61.2,0,NA,5,9,NA,NA,NA,518.4,0,2016_11
-85.901,51.659,OGOKI POST A,6075786,ON,-0.6,0,NA,20.2,0,-18,0,NA,NA,NA,18.0,0,NA,NA,7,NA,NA,NA,559.2,0,2016_11
-81.39,48.557,TIMMINS CLIMATE,6078282,ON,1.2,0,NA,18.7,0,-9.7,0,NA,NA,NA,24.6,0,NA,4,9,NA,NA,NA,504.7,0,2016_11
-81.377,48.571,TIMMINS A,6078286,ON,1.2,0,NA,18.6,0,-9.7,0,NA,NA,NA,NA,NA,NA,NA,NA,NA,NA,NA,505.4,0,2016_11
-78.267,45.533,ALGONQUIN PARK EAST GATE,6080192,ON,2,1,NA,16.3,1,-10.8,0,NA,NA,NA,71.9,1,NA,7,8,NA,NA,NA,464.8,0,2016_11
-79.424,46.364,NORTH BAY A,6085680,ON,3.2,8,NA,15.3,8,-8.4,8,NA,NA,NA,27.7,8,NA,NA,5,NA,NA,NA,324.8,0,2016_11
-82.567,45.883,GORE BAY CLIMATE,6092920,ON,5.4,0,NA,16.2,0,-7.5,0,NA,NA,NA,38.5,0,NA,NA,8,NA,NA,NA,379.2,0,2016_11
-82.95,45.633,GREAT DUCK ISLAND (AUT),6093005,ON,6.4,2,NA,16.2,1,-5,1,NA,NA,NA,NA,NA,NA,NA,NA,NA,NA,NA,325.2,0,2016_11
-81.982,45.69,SANDFIELD,6097426,ON,5.5,1,NA,16.5,1,-8,1,6,1,NA,47.6,1,NA,0,8,NA,NA,NA,362.1,0,2016_11
-76.113,45.186,APPLETON,6100285,ON,3.2,0,NA,17.5,0,-8,0,19.6,0,NA,62.2,0,NA,1,11,NA,NA,NA,444.7,0,2016_11
-75.748,44.635,BROCKVILLE CLIMATE,6100970,ON,3.6,2,NA,19.6,2,-8.6,0,NA,NA,NA,49.3,2,NA,0,6,NA,NA,NA,403.6,0,2016_11
-75.667,44.6,BROCKVILLE PCC,6100971,ON,4.4,0,1,18,0,-7,0,25.4,0,199,73.9,0,80,0,11,NA,NA,NA,407.7,0,2016_11
-77.367,46.05,CHALK RIVER AECL,6101335,ON,3.5,8,2.8,15,8,-7,8,23.2,8,NA,65.4,8,NA,15,9,NA,NA,NA,320,0,2016_11
-74.749,45.016,CORNWALL,6101874,ON,4.6,0,1.5,19,0,-4,0,22,0,154,69.4,0,75,0,13,NA,NA,NA,401.9,0,2016_11
-76.253,45.032,DRUMMOND CENTRE,6102J13,ON,3.1,0,1.6,18,0,-8,0,32,0,203,65.4,0,78,4,8,NA,NA,NA,446,0,2016_11
-76.69,44.428,HARTINGTON IHD,6103367,ON,4.9,0,2.5,21,0,-8.5,0,18,0,147,59.0,0,58,0,10,NA,NA,NA,393.4,0,2016_11
-75.633,45,KEMPTVILLE CS,6104027,ON,3.3,1,NA,17.4,1,-7.5,0,NA,NA,NA,47.3,1,NA,NA,8,NA,NA,NA,425.3,0,2016_11
-76.599,44.223,KINGSTON CLIMATE,6104142,ON,4.8,1,NA,15.6,1,-7.4,0,NA,NA,NA,32.3,1,NA,NA,7,NA,NA,NA,383.2,0,2016_11
-76.083,44.517,LYNDHURST SHAWMERE,6104725,ON,4.5,1,1.4,20.5,1,-8,1,22.6,1,NA,65.9,1,NA,0,7,NA,NA,NA,391.9,0,2016_11
-74.963,45.251,MOOSE CREEK WELLS,6105397,ON,2.8,1,NA,17.6,1,-7.9,0,NA,NA,NA,NA,NA,NA,0,NA,NA,NA,NA,440.3,0,2016_11
-76.784,45.054,OMPAH-SEITZ,6105762,ON,3,0,NA,17,0,-9.5,0,32.4,0,NA,69.6,0,NA,13,10,NA,NA,NA,450.3,0,2016_11
-75.717,45.383,OTTAWA CDA,6105976,ON,3.7,0,1.8,17,0,-5.5,0,14.4,0,90,60.9,0,74,0,10,NA,NA,NA,427.7,0,2016_11
-75.717,45.383,OTTAWA CDA RCS,6105978,ON,3.4,1,NA,16.4,1,-5.3,0,NA,NA,NA,43.9,1,NA,3,7,NA,NA,NA,423.8,0,2016_11
-75.667,45.317,OTTAWA INTL A,6106001,ON,3,0,NA,16.6,0,-6.6,0,29.6,0,NA,54.2,0,NA,1,8,NA,NA,NA,449.5,0,2016_11
-77.252,45.86,PEMBROKE CLIMATE,6106367,ON,2.1,1,NA,17.2,1,-8.4,0,NA,NA,NA,66.8,1,NA,10,8,NA,NA,NA,460.1,0,2016_11
-77.317,45.95,PETAWAWA AWOS 2,6106396,ON,2.8,3,NA,14.6,2,-9.6,1,NA,NA,NA,57.0,0,NA,NA,9,NA,NA,NA,409.8,0,2016_11
-75.064,45.287,ST. ALBERT,6107276,ON,2.7,0,1.2,17,0,-8,0,26,0,181,91.4,0,96,0,14,NA,NA,NA,459.7,0,2016_11
-77.25,45.883,PETAWAWA HOFFMAN,610FC98,ON,2.9,0,NA,16,0,-8.5,0,50.4,0,NA,117.8,0,NA,14,11,NA,NA,NA,451.8,0,2016_11
-79.319,44.267,BALDWIN,6110480,ON,5.5,4,NA,19,4,-5.5,4,2.2,4,NA,33.2,4,NA,0,7,NA,NA,NA,325.1,0,2016_11
-79.736,44.385,BARRIE LANDFILL,6110556,ON,9.9,11,NA,24,6,-5.5,6,5.4,6,NA,35.6,6,NA,0,6,NA,NA,NA,153.2,0,2016_11
-79.403,45.14,BEATRICE CLIMATE,6110607,ON,3,1,NA,17.7,1,-13.2,0,NA,NA,NA,37.9,1,NA,NA,6,NA,NA,NA,435.2,0,2016_11
-79.539,44.631,COLDWATER WARMINSTER,6111769,ON,5.5,0,NA,20,0,-9.5,0,8.8,0,NA,46.0,0,NA,0,8,NA,NA,NA,375.1,0,2016_11
-80.217,44.5,COLLINGWOOD,6111792,ON,8,5,NA,21.8,4,-1.5,2,NA,NA,NA,40.9,7,NA,NA,9,NA,NA,NA,249.1,0,2016_11
-79.217,44.547,LAGOON CITY,6114295,ON,5.1,1,NA,17.3,1,-9.4,0,NA,NA,NA,NA,NA,NA,NA,NA,NA,NA,NA,373.9,0,2016_11
-80.712,44.269,MARKDALE,6114979,ON,4.9,15,NA,18,15,-6,15,NA,NA,NA,24.0,26,NA,NA,4,NA,NA,NA,196.4,0,2016_11
-79.875,44.758,MIDLAND WATER POLLUTION CONTROL PLANT,6115127,ON,4.9,18,1.7,17,18,-7,18,5,18,NA,12.2,18,NA,NA,5,NA,NA,NA,157.6,0,2016_11
-79.05,44.983,MUSKOKA SNOW,6115526,ON,NA,NA,NA,NA,NA,NA,NA,1.6,17,NA,33.4,17,NA,0,4,NA,NA,NA,NA,NA,2016_11
-79.303,44.975,MUSKOKA,6115529,ON,3.3,11,NA,17.7,11,-10.6,11,NA,NA,NA,10.5,11,NA,NA,4,NA,NA,NA,279.9,0,2016_11
-79.521,46.1,NIPISSING,6115669,ON,NA,NA,NA,NA,NA,NA,NA,10,7,NA,37.6,6,NA,0,7,NA,NA,NA,NA,NA,2016_11
-79.439,44.603,ORILLIA BRAIN,6115811,ON,4.8,0,NA,18.5,0,-7.5,0,6.4,0,NA,38.4,0,NA,0,7,NA,NA,NA,395.3,0,2016_11
-80.044,45.344,PARRY SOUND CCG,6116257,ON,4.8,1,NA,18.6,1,-11.4,0,NA,NA,NA,50.1,1,NA,NA,7,NA,NA,NA,384.1,0,2016_11
-79.633,44.399,SHANTY BAY,6117684,ON,5.6,0,2.9,18.5,0,-5.5,0,7.8,0,23,51.6,0,53,0,12,NA,NA,NA,373.5,0,2016_11
-79.55,44.483,BARRIE-ORO,6117700,ON,4.8,1,NA,18.3,1,-8.1,0,NA,NA,NA,42.7,1,NA,NA,8,NA,NA,NA,383,0,2016_11
-79.488,45.425,SPRUCEDALE,6117981,ON,NA,NA,NA,NA,NA,NA,NA,13.8,0,NA,50.8,0,NA,0,6,NA,NA,NA,NA,NA,2016_11
-80.468,44.551,THORNBURY 3,6118240,ON,NA,NA,NA,NA,NA,NA,NA,6,0,NA,37.2,0,NA,0,8,NA,NA,NA,NA,NA,2016_11
-79.161,44.263,UDORA,6119055,ON,5.3,0,2.8,19,0,-8.5,0,3,0,16,36.6,0,44,0,8,NA,NA,NA,382.5,0,2016_11
-81.109,44.744,WIARTON A,6119499,ON,5.7,0,NA,19.9,0,-8.6,0,16.6,0,NA,43.6,0,NA,NA,9,NA,NA,NA,370,0,2016_11
-80.367,45.033,WESTERN ISLAND (AUT),6119M51,ON,7,2,NA,17.2,1,-4.9,1,NA,NA,NA,NA,NA,NA,NA,NA,NA,NA,NA,306.7,0,2016_11
-79.912,44.272,BORDEN AWOS,611B002,ON,5.4,4,NA,20.4,2,-5.4,2,NA,NA,NA,30.5,5,NA,NA,12,NA,NA,NA,328.5,0,2016_11
-79.783,44.233,EGBERT CS,611E001,ON,5.5,1,NA,18.6,1,-5.3,0,NA,NA,NA,38.9,1,NA,NA,8,NA,NA,NA,362.8,0,2016_11
-81.733,45.333,COVE ISLAND (AUT),61219J2,ON,7.2,2,NA,15.4,2,-3.5,1,NA,NA,NA,NA,NA,NA,NA,NA,NA,NA,NA,303.4,0,2016_11
-81.717,43.767,GODERICH,6122847,ON,6.9,2,NA,20.7,2,-2.6,0,NA,NA,NA,60.5,2,NA,NA,14,NA,NA,NA,312,0,2016_11
-81.623,44.173,KINCARDINE,6124127,ON,6.9,4,NA,20.5,4,-3,4,9.2,4,NA,67.2,4,NA,0,11,NA,NA,NA,288.8,0,2016_11
-82.309,42.999,SARNIA,6127510,ON,7.1,12,NA,22.7,12,-6.4,12,NA,NA,NA,29.3,12,NA,NA,7,NA,NA,NA,196.3,0,2016_11
-82.3,43,SARNIA CLIMATE,6127519,ON,7,2,NA,22.7,2,-6.8,0,NA,NA,NA,40.0,2,NA,NA,10,NA,NA,NA,307.1,0,2016_11
-81.633,45.233,TOBERMORY RCS,6128330,ON,5.5,0,NA,15.5,0,-7.4,0,NA,NA,NA,38.2,0,NA,NA,8,NA,NA,NA,375.9,0,2016_11
-81.152,43.863,WROXETER,6129660,ON,NA,NA,NA,NA,NA,NA,NA,5.8,0,NA,62.8,0,NA,0,11,NA,NA,NA,NA,NA,2016_11
-83.094,42.103,AMHERSTBURG,6130257,ON,7.9,13,2.9,24,13,-6.5,13,0,13,NA,45.8,13,NA,0,7,NA,NA,NA,171,0,2016_11
-80.55,42.867,DELHI CS,6131983,ON,6.3,2,NA,22.2,2,-7.8,0,NA,NA,NA,55.6,2,NA,NA,10,NA,NA,NA,328.2,0,2016_11
-78.967,42.883,FORT ERIE,6132470,ON,6.8,3,1.9,22,3,-7.5,3,0,3,NA,81.2,3,NA,0,9,NA,NA,NA,301.7,0,2016_11
-79.558,43.184,GRIMSBY MOUNTAIN,6133055,ON,7.6,0,NA,21,0,-5,0,0.8,0,NA,66.4,0,NA,0,9,NA,NA,NA,312,0,2016_11
-82.9,42.033,HARROW CDA AUTO,6133362,ON,7.7,1,NA,22.7,1,-6.9,0,NA,NA,NA,40.2,1,NA,NA,4,NA,NA,NA,298.6,0,2016_11
-82.674,42.043,KINGSVILLE MOE,6134190,ON,8.2,5,3.2,21,5,-5,5,0,6,NA,38.0,6,NA,0,5,NA,NA,NA,244.6,0.3,2016_11
-80.05,42.533,LONG POINT (AUT),6134F10,ON,8.9,2,NA,21,1,-1,1,NA,NA,NA,NA,NA,NA,NA,NA,NA,NA,NA,253.8,0,2016_11
-81.636,42.514,NEW GLASGOW,6135583,ON,7.7,1,2.9,24,1,-6,1,0,1,NA,41.0,1,NA,0,6,NA,NA,NA,299,0,2016_11
-79.25,42.883,PORT COLBORNE,6136606,ON,7.4,4,2,20,4,-5,4,0,4,NA,67.4,4,NA,0,7,NA,NA,NA,275.2,0,2016_11
-79.217,43.25,PORT WELLER (AUT),6136699,ON,9.1,2,NA,21.5,2,0.4,0,NA,NA,NA,50.2,2,NA,NA,8,NA,NA,NA,249.6,0,2016_11
-81.883,42.45,RIDGETOWN RCS,6137154,ON,7.1,0,NA,22.7,0,-6.4,0,NA,NA,NA,30.3,0,NA,NA,9,NA,NA,NA,325.7,0,2016_11
-79.248,43.118,ST CATHARINES BROCK U,6137290,ON,NA,NA,NA,NA,NA,NA,NA,0,0,NA,53.6,0,NA,0,8,NA,NA,NA,NA,NA,2016_11
-81.205,42.768,ST THOMAS WPCP,6137362,ON,6.5,6,2,20.5,3,-4,3,4,5,NA,51.0,5,NA,NA,8,NA,NA,NA,276.4,0,2016_11
-80.722,42.855,TILLSONBURG WWTP,6138270,ON,NA,NA,NA,NA,NA,NA,NA,0,3,NA,60.4,3,NA,0,10,NA,NA,NA,NA,NA,2016_11
-79.4,43.183,VINELAND STATION RCS,6139148,ON,7.7,0,NA,21.9,0,-2.2,0,NA,NA,NA,52.6,0,NA,NA,9,NA,NA,NA,308.7,0,2016_11
-79.333,42.967,WELLAND-PELHAM,6139449,ON,6.1,0,NA,21.2,0,-7,0,NA,NA,NA,56.7,0,NA,NA,10,NA,NA,NA,356.7,0,2016_11
-82.933,42.333,WINDSOR RIVERSIDE,6139520,ON,8.3,0,NA,24.5,0,-6,0,0,0,NA,57.5,0,NA,0,7,NA,NA,NA,290.7,0,2016_11
-82.955,42.276,WINDSOR A,6139527,ON,8.1,3,NA,23.9,3,-3.6,3,0,3,NA,47.6,3,NA,NA,7,NA,NA,NA,266.3,0,2016_11
-79.25,42.867,PORT COLBORNE (AUT),613F606,ON,8.2,0,NA,19.6,0,-2.3,0,NA,NA,NA,NA,NA,NA,NA,NA,NA,NA,NA,294.4,0,2016_11
-81.9,42.25,ERIEAU (AUT),613KLLM,ON,9,1,NA,18.7,1,-3.6,0,NA,NA,NA,NA,NA,NA,NA,NA,NA,NA,NA,259.7,0,2016_11
-82.519,41.949,POINT PELEE CS,613P001,ON,8.2,0,NA,20.8,0,-5.6,0,NA,NA,NA,NA,NA,NA,NA,NA,NA,NA,NA,293.2,0,2016_11
-80.331,43.138,BRANTFORD AIRPORT,6140942,ON,5.8,1,NA,21.4,1,-7.4,0,NA,NA,NA,50.1,1,NA,NA,12,NA,NA,NA,355.1,0,2016_11
-81.033,43.002,DORCHESTER,6142066,ON,NA,NA,NA,NA,NA,NA,NA,10.2,0,NA,66.9,0,NA,0,12,NA,NA,NA,NA,NA,2016_11
-80.417,43.65,ELORA RCS,6142286,ON,4.8,0,NA,19.8,0,-7,0,NA,NA,NA,55.6,1,NA,NA,17,NA,NA,NA,397.5,0,2016_11
-80.33,43.735,FERGUS SHAND DAM,6142400,ON,5.2,0,3.1,21.5,0,-7,0,8.2,0,65,67.6,0,73,0,7,NA,NA,NA,382.7,0,2016_11
-80.379,43.702,FERGUS MOE,6142402,ON,4.6,0,NA,20,0,-7,0,3.2,0,NA,59.2,0,NA,0,9,NA,NA,NA,402.5,0,2016_11
-80.217,43.55,GUELPH TURFGRASS,6143089,ON,4.6,0,NA,20.3,0,-8.9,0,NA,NA,NA,NA,NA,NA,NA,NA,NA,NA,NA,402.8,0,2016_11
-80.379,43.461,KITCHENER/WATERLOO,6144239,ON,5.1,0,NA,20.8,0,-7.5,0,NA,NA,NA,59.0,0,NA,NA,12,NA,NA,NA,388.2,0,2016_11
-81.151,43.033,LONDON A,6144473,ON,5.9,0,NA,20,0,-4.6,0,NA,NA,NA,NA,NA,NA,NA,NA,NA,NA,NA,364.5,0,2016_11
