Long,Lat,Stn_Name,Clim_ID,Prov_or_Ter,Tm,DwTm,D,Tx,DwTx,Tn,DwTn,S,DwS,S%N,P,DwP,P%N,S_G,Pd,BS,DwBS,BS%,HDD,CDD,YYYY_MM
-123.742,48.935,CHEMAINUS,1011500,BC,3.1,0,NA,13.5,0,-5.5,0,52.2,0,NA,215.1,0,NA,16,15,NA,NA,NA,418.3,0,2014_02
-124.133,48.824,COWICHAN LAKE FORESTRY,1012040,BC,1.3,0,-2.7,12,0,-11,0,46.3,0,178,276.6,0,111,12,16,NA,NA,NA,466.6,0,2014_02
-124.052,48.829,LAKE COWICHAN,1012055,BC,1.4,13,-2.6,11,9,-12,9,36,9,NA,273,9,NA,0,11,NA,NA,NA,248.9,0,2014_02
-123.226,48.425,DISCOVERY ISLAND,1012475,BC,NA,NA,NA,10.7,0,NA,NA,NA,NA,NA,NA,NA,NA,NA,NA,NA,NA,NA,NA,NA,2014_02
-123.728,48.735,DUNCAN KELVIN CREEK,1012573,BC,1.7,0,-2.7,11,0,-9,0,57,0,432,230.8,0,166,8,14,NA,NA,NA,457,0,2014_02
-123.439,48.432,ESQUIMALT HARBOUR,1012710,BC,4,0,NA,10.8,0,-4.1,0,NA,NA,NA,NA,NA,NA,NA,NA,NA,NA,NA,392.1,0,2014_02
-123.573,48.985,GALIANO NORTH,10130MN,BC,3.5,0,NA,11.5,0,-4,0,30.8,0,NA,162,0,NA,0,14,NA,NA,NA,407.3,0,2014_02
-123.53,48.575,MALAHAT,1014820,BC,1.2,1,NA,8.4,1,-8.2,0,NA,NA,NA,149.4,3,NA,NA,13,NA,NA,NA,453.2,0,2014_02
-123.561,48.374,METCHOSIN,1015105,BC,NA,NA,NA,NA,NA,NA,NA,10,0,143,168.6,0,157,0,15,NA,NA,NA,NA,NA,2014_02
-123.718,48.824,NORTH COWICHAN,1015628,BC,NA,NA,NA,NA,NA,NA,NA,8.4,13,NA,76.2,13,NA,NA,7,NA,NA,NA,NA,NA,2014_02
-123.719,48.824,NORTH COWICHAN,1015630,BC,2,0,NA,12.1,0,-10.7,0,NA,NA,NA,176.8,0,NA,3,13,NA,NA,NA,448.5,0,2014_02
-123.287,48.764,NORTH PENDER ISLAND,1015638,BC,3.3,0,NA,12,0,-5.5,0,39.2,0,NA,127.3,0,NA,2,15,NA,NA,NA,410.4,0,2014_02
-123.531,48.298,RACE ROCKS,1016640,BC,4.4,0,NA,11.3,0,-3.9,0,NA,NA,NA,NA,NA,NA,NA,NA,NA,NA,NA,381.3,0,2014_02
-123.419,48.622,SAANICHTON CDA,1016940,BC,3,3,-2.3,11.5,1,-6,3,13.5,1,NA,154.1,1,NA,0,14,NA,NA,NA,374.9,0,2014_02
-123.546,48.888,SALTSPRING ST MARY'S L,1016995,BC,3,3,-2,11,3,-5,3,43.2,3,NA,158.2,3,NA,12,12,NA,NA,NA,375.1,0,2014_02
-123.427,48.598,SAANICHTON MT NEWTON,1016RM0,BC,NA,NA,NA,NA,NA,NA,NA,13,19,NA,110.4,19,NA,1,9,NA,NA,NA,NA,NA,2014_02
-123.128,48.775,SATURNA CAPMON,1017098,BC,2.4,7,-2.6,10.6,6,-6.2,6,3.8,6,NA,61.4,6,NA,0,11,NA,NA,NA,327.8,0,2014_02
-123.128,48.775,SATURNA CAPMON CS,1017099,BC,2.3,5,NA,10.5,5,-6.3,4,NA,NA,NA,61.3,7,NA,18,8,NA,NA,NA,360.6,0,2014_02
-123.045,48.784,SATURNA ISLAND CS,1017101,BC,4.5,2,NA,12,2,-3.7,1,NA,NA,NA,70.8,2,NA,NA,12,NA,NA,NA,351.9,0,2014_02
-123.626,48.647,SHAWNIGAN LAKE,1017230,BC,1.8,0,-2.3,10.5,0,-9,0,56,0,398,217.2,0,161,18,16,NA,NA,NA,454.8,0,2014_02
-123.921,48.377,SHERINGHAM POINT,1017254,BC,4.6,2,NA,12.2,2,-4.7,1,NA,NA,NA,132,2,NA,NA,12,NA,NA,NA,348.9,0,2014_02
-123.305,48.457,VICTORIA UNIVERSITY CS,1018598,BC,3.6,1,NA,12,1,-5.2,0,NA,NA,NA,15.2,22,NA,NA,5,NA,NA,NA,389.7,0,2014_02
-123.443,48.476,VICTORIA FRANCIS PARK,1018605,BC,NA,NA,NA,NA,NA,NA,NA,0.8,2,NA,146.2,2,NA,0,12,NA,NA,NA,NA,NA,2014_02
-123.325,48.413,VICTORIA GONZALES CS,1018611,BC,3.8,0,NA,11.2,0,-5.2,0,NA,NA,NA,17.4,22,NA,NA,4,NA,NA,NA,397.1,0,2014_02
-123.501,48.538,VICTORIA HIGHLANDS NORTH,1018618,BC,2.6,8,NA,10.2,5,-7.9,6,35,3,NA,234.9,3,NA,15,20,NA,NA,NA,307.9,0,2014_02
-123.426,48.647,VICTORIA INTL A,1018621,BC,2.8,0,NA,11.8,0,-7.4,0,39.6,0,NA,160.5,0,NA,NA,14,NA,NA,NA,425.7,0,2014_02
-123.539,48.34,WILLIAM HEAD,1018935,BC,4.9,19,-1.2,12.5,19,0.5,19,0,19,NA,50.2,19,NA,0,6,NA,NA,NA,117.5,0,2014_02
-124.16,49.35,BALLENAS ISLAND,1020590,BC,4,0,NA,12.1,0,-3,0,NA,NA,NA,49.2,21,NA,NA,7,NA,NA,NA,390.8,0,2014_02
-125.273,49.952,CAMPBELL RIVER A,1021261,BC,-0.2,1,-3.4,11.1,1,-15.1,1,58.8,1,NA,126.6,1,NA,14,14,NA,NA,NA,490.4,0,2014_02
-125.208,49.945,CAMPBELL RIVER SURFSIDE,1021266,BC,NA,NA,NA,NA,NA,NA,NA,33,0,392,163.6,0,110,10,13,NA,NA,NA,NA,NA,2014_02
-125.195,49.998,CAPE MUDGE,1021330,BC,2.7,0,-1.9,11.5,0,-6.5,0,26,0,408,160.8,0,114,0,16,NA,NA,NA,429.7,0,2014_02
-124.683,49.472,CHROME ISLAND,1021500,BC,3.5,1,NA,15,1,-5,1,25.6,1,NA,166,1,NA,0,13,NA,NA,NA,392.3,0,2014_02
-124.9,49.717,COMOX A,1021830,BC,2.1,0,-2.2,12.1,0,-8.8,0,35.6,0,595,167.4,0,146,5,11,NA,NA,NA,445.9,0,2014_02
-124.949,50.071,CORTES ISLAND TIBER BAY,1021960,BC,0.8,13,NA,11,13,-9.5,13,5.2,13,NA,59.1,13,NA,NA,7,NA,NA,NA,257.5,0,2014_02
-124.999,49.763,COURTENAY GRANTHAM,1021988,BC,2,5,NA,10,5,-8.5,5,23.8,5,NA,178.8,5,NA,0,12,NA,NA,NA,368.7,0,2014_02
-125.033,49.686,COURTENAY PUNTLEDGE,1021989,BC,1.7,4,NA,12.5,3,-11,3,15.5,3,NA,149.3,3,NA,0,11,NA,NA,NA,392.1,0,2014_02
-123.811,49.209,ENTRANCE ISLAND,1022689,BC,4,0,NA,12.3,0,-2.6,0,NA,NA,NA,40,22,NA,NA,5,NA,NA,NA,391.6,0,2014_02
-125.993,50.454,FANNY ISLAND,1022795,BC,2.7,1,NA,10.4,1,-6.3,0,NA,NA,NA,0.6,26,NA,NA,0,NA,NA,NA,412.6,0,2014_02
-123.734,49.154,GABRIOLA ISLAND,1023042,BC,2.2,0,-2,13,0,-9,0,19,0,311,132.4,0,138,0,11,NA,NA,NA,442.9,0,2014_02
-125.203,50.099,HERIOT BAY SE,1023462,BC,1.7,3,NA,9.5,3,-8,3,36,3,NA,131.4,3,NA,5,13,NA,NA,NA,408.1,0,2014_02
-124.512,49.353,LITTLE QUALICUM HATCHERY,1024638,BC,1.5,1,-2.2,12.5,1,-11.5,1,15.5,1,NA,126.7,1,NA,NA,13,NA,NA,NA,445.6,0,2014_02
-124.794,49.471,MUD BAY,1025240,BC,1.3,1,-2.7,11,1,-7,0,16,1,NA,209.2,1,NA,0,15,NA,NA,NA,451.5,0,2014_02
-125.606,49.576,MYRA CREEK,1025254,BC,-0.5,3,NA,9,2,-11,1,78.7,2,NA,206.3,2,NA,0,14,NA,NA,NA,461.8,0,2014_02
-123.87,49.054,NANAIMO A,1025370,BC,1.3,0,-3,12.6,0,-9.3,0,70.9,0,648,207,0,164,14,16,NA,NA,NA,467.1,0,2014_02
-123.988,49.199,NANAIMO CITY YARD,10253G0,BC,NA,NA,NA,NA,NA,NA,NA,44,0,554,161.5,0,141,0,15,NA,NA,NA,NA,NA,2014_02
-127.728,50.976,PINE ISLAND,1026170,BC,3.6,10,-2.3,11,10,-3,10,0,10,NA,138.6,10,NA,NA,10,NA,NA,NA,259.7,0,2014_02
-127.367,50.681,PORT HARDY A,1026271,BC,1.7,0,NA,9.6,0,-10.9,0,16,1,NA,170.6,0,NA,NA,16,NA,NA,NA,455.4,0,2014_02
-124.394,49.337,QUALICUM BEACH AIRPORT,1026562,BC,2,0,NA,13.1,0,-10.1,0,NA,NA,NA,119.6,1,NA,NA,12,NA,NA,NA,448.6,0,2014_02
-124.617,49.394,QUALICUM R FISH RESEARCH,1026565,BC,1.6,6,-2.5,12,6,-8.5,6,19.2,6,NA,94,6,NA,0,10,NA,NA,NA,359.8,0,2014_02
-125.304,50.016,QUINSAM RIVER HATCHERY,1026639,BC,1.1,12,-2.7,11,12,-20,4,51,4,NA,165.6,4,NA,NA,14,NA,NA,NA,271.1,0,2014_02
-124.435,49.487,SISTERS ISLAND,1027403,BC,4.4,0,NA,10.9,0,-2.9,0,NA,NA,NA,NA,NA,NA,NA,NA,NA,NA,NA,381.5,0,2014_02
-123.809,49.209,ENTRANCE ISLAND,102BFHH,BC,4,0,NA,12.5,0,-3,0,3.6,0,NA,147.4,0,NA,0,15,NA,NA,NA,391.4,0,2014_02
-124.982,49.337,ALBERNI ROBERTSON CREEK,1030230,BC,0.8,3,-2.2,9,3,-12,3,37,3,NA,153.4,3,NA,3,11,NA,NA,NA,430.2,0,2014_02
-125.216,48.786,CAPE BEALE LIGHT,1031316,BC,4.5,0,-1.6,11.5,0,-5,0,0,0,0,292.2,0,109,0,16,NA,NA,NA,378.3,0,2014_02
-128.427,50.782,CAPE SCOTT,1031353,BC,3.6,0,-2,10,0,-5,0,2,0,22,214.2,0,90,0,18,NA,NA,NA,403,0,2014_02
-124.751,48.612,CARMANAH POINT,1031402,BC,NA,NA,NA,NA,NA,NA,NA,5.6,0,59,254.2,0,83,0,17,NA,NA,NA,NA,NA,2014_02
-126.418,49.8,CONUMA RIVER HATCHERY,1031844,BC,NA,NA,NA,NA,NA,NA,NA,8.5,3,NA,258.1,3,NA,0,15,NA,NA,NA,NA,NA,2014_02
-126.543,49.383,ESTEVAN POINT,1032730,BC,4.3,0,-1.6,10,0,-6,0,8.4,0,238,229.6,0,73,0,16,NA,NA,NA,383.6,0,2014_02
-126.543,49.383,ESTEVAN POINT CS,1032731,BC,4.3,0,NA,10.9,0,-5.6,0,NA,NA,NA,NA,NA,NA,NA,NA,NA,NA,NA,383.7,0,2014_02
-126.055,49.779,GOLD RIVER TOWNSITE,1033232,BC,2.2,2,-1.1,13.5,2,-12,2,24,2,NA,209.8,2,NA,0,16,NA,NA,NA,410.3,0,2014_02
-125.923,49.111,LENNARD ISLAND,1034600,BC,4.6,0,NA,10.5,0,-3.5,0,2.2,0,43,254,0,80,0,20,NA,NA,NA,375,0,2014_02
-126.617,49.6,NOOTKA LIGHTSTATION,1035614,BC,4.4,0,-1.5,11.5,0,-3,0,19.2,0,384,234.2,0,72,0,17,NA,NA,NA,382,0,2014_02
-125.097,48.723,PACHENA POINT,1035940,BC,4.2,0,-1.8,12,0,-5,0,5,0,108,281.6,0,95,0,16,NA,NA,NA,387.1,0,2014_02
-124.752,49.202,PORT ALBERNI COX LAKE,1036208,BC,1.8,2,-2,11,2,-11.5,2,53,2,NA,195.4,2,NA,5,14,NA,NA,NA,421.4,0,2014_02
-127.455,50.386,PORT ALICE,1036240,BC,3.3,0,-1.8,11.5,0,-5.5,0,2,0,23,278.4,0,79,0,18,NA,NA,NA,412.8,0,2014_02
-127.653,50.534,QUATSINO,1036570,BC,2,12,-2.9,9,12,-6,12,1,12,NA,147.6,12,NA,0,8,NA,NA,NA,255.4,0,2014_02
-128.033,50.441,QUATSINO LIGHTSTATION,1036572,BC,4.6,0,-1.6,12,0,-3,0,9,0,240,175.4,0,79,0,17,NA,NA,NA,374.4,0,2014_02
-124.927,49.317,PORT ALBERNI (AUT),1036B06,BC,1,4,NA,10.5,4,-13.4,2,NA,NA,NA,246,4,NA,NA,15,NA,NA,NA,409.2,0,2014_02
-128.908,50.821,SARTINE ISLAND (AUT),1037090,BC,4,0,NA,10.3,0,-2.2,0,NA,NA,NA,88.6,0,NA,NA,14,NA,NA,NA,393.4,0,2014_02
-127.94,50.112,SOLANDER ISLAND (AUT),1037553,BC,4.5,0,NA,10.6,0,-3.5,0,NA,NA,NA,89,0,NA,NA,14,NA,NA,NA,379.4,0,2014_02
-126.654,49.932,TAHSIS VILLAGE NORTH,1037899,BC,3.1,9,NA,15,9,-8,9,10,9,NA,239.2,9,NA,0,14,NA,NA,NA,282.7,0,2014_02
-125.773,49.082,TOFINO A,1038205,BC,3.8,1,-1.6,13.3,1,-7.1,1,0,1,NA,237.8,1,NA,0,16,NA,NA,NA,383.1,0,2014_02
-125.527,48.945,UCLUELET KENNEDY CAMP,1038332,BC,4,0,-1.5,13.5,0,-8.5,0,0.6,0,6,302.2,0,86,0,16,NA,NA,NA,391.6,0,2014_02
-126.779,50.053,ZEBALLOS MURAUDE CREEK,1039035,BC,2.2,1,NA,14.5,1,-8,1,45.6,1,NA,351.5,1,NA,0,17,NA,NA,NA,425.6,0,2014_02
-123.42,49.365,BOWEN ISLAND BOWEN BAY,104090R,BC,NA,NA,NA,NA,NA,NA,NA,1,16,NA,91.7,16,NA,NA,8,NA,NA,NA,NA,NA,2014_02
-123.541,49.386,GIBSONS GOWER POINT,1043152,BC,3.4,0,-1.8,11,0,-6,0,20.4,0,334,128,0,103,0,14,NA,NA,NA,409.5,0,2014_02
-123.913,49.468,MERRY ISLAND LIGHTSTATION,1045100,BC,4.3,2,-1.4,12,2,-3.5,2,3.8,2,NA,93.5,2,NA,0,11,NA,NA,NA,356.6,0,2014_02
-123.299,49.488,HOWE SOUND - PAM ROCKS,10459NN,BC,3.9,0,NA,12.1,0,-3.6,0,NA,NA,NA,16.8,23,NA,NA,3,NA,NA,NA,395.9,0,2014_02
-124.032,49.634,PENDER HARBOUR,1046115,BC,NA,NA,NA,NA,NA,NA,NA,25.5,0,NA,82.2,0,NA,3,14,NA,NA,NA,NA,NA,2014_02
-123.496,49.526,PORT MELLON,1046332,BC,2.4,0,NA,13.8,0,-8,0,NA,NA,NA,287.5,1,NA,10,14,NA,NA,NA,436.3,0,2014_02
-124.5,49.834,POWELL RIVER A,1046391,BC,1.7,0,-2.3,11.3,0,-12.1,0,42.6,0,548,142.2,0,130,0,13,NA,NA,NA,457.5,0,2014_02
-124.497,49.835,POWELL RIVER,1046392,BC,1.4,1,NA,10.8,1,-11.1,0,NA,NA,NA,147.9,0,NA,NA,14,NA,NA,NA,447.8,0,2014_02
-123.715,49.458,SECHELT AUT,1047172,BC,2.2,0,NA,11.7,0,-10,0,NA,NA,NA,104.7,1,NA,NA,13,NA,NA,NA,443.2,0,2014_02
-123.161,49.783,SQUAMISH AIRPORT,10476F0,BC,1.5,0,NA,13.6,0,-9.2,0,NA,NA,NA,230.1,0,NA,NA,13,NA,NA,NA,461.1,0,2014_02
-122.955,50.129,WHISTLER,1048898,BC,-3.5,8,-3.1,5.8,8,-15.9,8,104.8,8,NA,83.9,8,NA,66,11,NA,NA,NA,430.9,0,2014_02
-131.016,51.936,CAPE ST JAMES,1051351,BC,3.4,0,NA,7.8,0,-2.1,0,NA,NA,NA,210.4,0,NA,NA,18,NA,NA,NA,409.2,0,2014_02
-132.772,53.316,KINDAKUN ROCKS (AUT),1054222,BC,3.4,0,NA,10.9,0,-2.8,0,NA,NA,NA,60.4,0,NA,NA,11,NA,NA,NA,407.6,0,2014_02
-133.058,54.255,LANGARA,1054500,BC,1.9,0,-2.2,9,0,-3.5,0,18.4,0,141,65.5,0,47,0,12,NA,NA,NA,450.8,0,2014_02
-133.058,54.255,LANGARA ISLAND RCS,1054503,BC,1.9,0,NA,8.8,0,-3.3,0,NA,NA,NA,63.6,0,NA,NA,11,NA,NA,NA,451.3,0,2014_02
-132.167,54,MASSET A,1054925,BC,1,1,NA,11,1,-10.5,1,27.3,1,NA,79.4,1,NA,0,11,NA,NA,NA,459.2,0,2014_02
-131.661,54.159,ROSE SPIT (AUT),1056869,BC,2.2,0,NA,7.4,0,-4.5,0,NA,NA,NA,102.3,0,NA,NA,13,NA,NA,NA,442.9,0,2014_02
-131.813,53.254,SANDSPIT A,1057050,BC,2,0,-2.1,7.5,0,-5,0,0,0,0,122,0,93,0,15,NA,NA,NA,448.5,0,2014_02
-131.813,53.249,SANDSPIT AIRPORT AUTO,1057051,BC,2,0,NA,8.7,0,-4.6,0,NA,NA,NA,NA,NA,NA,NA,NA,NA,NA,NA,447.6,0,2014_02
-131.814,53.254,SANDSPIT,1057052,BC,1.8,5,NA,7.6,5,-4,5,NA,NA,NA,50.5,5,NA,NA,9,NA,NA,NA,372.6,0,2014_02
-132.299,53.764,SEWALL MASSET INLET,105PA91,BC,6,1,NA,12.5,1,-1.5,1,0,1,NA,79.4,1,NA,0,14,NA,NA,NA,323.3,0,2014_02
-127.864,51.604,ADDENBROKE ISLAND,1060080,BC,3,2,-1.9,10.5,2,-6,2,4,2,NA,214,2,NA,0,12,NA,NA,NA,389.1,0,2014_02
-128.157,52.185,BELLA BELLA,1060815,BC,1,1,NA,11.6,1,-13.3,0,NA,NA,NA,146,0,NA,NA,13,NA,NA,NA,458.4,0,2014_02
-126.596,52.388,BELLA COOLA A,1060841,BC,-0.7,1,-2.7,11.4,1,-11,1,43.2,1,NA,67.7,1,NA,1,9,NA,NA,NA,503.7,0,2014_02
-128.524,52.643,BOAT BLUFF,1060901,BC,2.8,0,-1.1,10,0,-6,0,27.8,0,98,313.6,0,73,0,13,NA,NA,NA,425.8,0,2014_02
-130.638,53.493,BONILLA ISLAND,1060902,BC,3,0,-2,10,0,-4,0,0.2,0,2,108.4,0,61,0,10,NA,NA,NA,420,0,2014_02
-130.639,53.493,BONILLA ISLAND (AUT),1060R0K,BC,2.6,2,NA,8.6,2,-4.4,1,NA,NA,NA,53.6,3,NA,NA,11,NA,NA,NA,400.8,0,2014_02
-127.471,52.187,CATHEDRAL POINT (AUT),1061458,BC,3.2,10,NA,9.4,0,0,10,NA,NA,NA,0,27,NA,NA,0,NA,NA,NA,265.8,0,2014_02
-131.602,53.03,CUMSHEWA ISLAND,1062251,BC,3,0,NA,7.5,0,-2.5,0,NA,NA,NA,NA,NA,NA,NA,NA,NA,NA,NA,419.8,0,2014_02
-128.112,52.185,DRYAD POINT,1062544,BC,3,0,-1.6,11,0,-4.5,0,6.1,0,38,126.1,0,60,0,13,NA,NA,NA,419.3,0,2014_02
-127.835,51.247,EGG ISLAND,1062646,BC,3.1,0,-2,9,0,-5,0,15.8,0,143,153.2,0,70,0,16,NA,NA,NA,416.1,0,2014_02
-130.708,54.569,GREEN ISLAND,1063298,BC,1.5,0,-2.3,7.5,0,-4.5,0,28.6,0,265,65.6,0,38,0,10,NA,NA,NA,462.2,0,2014_02
-130.698,54.58,GREY ISLET (AUT),1063303,BC,1.4,0,NA,7.3,0,-4.2,0,NA,NA,NA,68.8,0,NA,NA,10,NA,NA,NA,465.4,0,2014_02
-127.632,50.94,HERBERT ISLAND (AUT),1063461,BC,4.1,0,NA,9.6,0,-2.1,0,NA,NA,NA,53.4,0,NA,NA,14,NA,NA,NA,390.5,0,2014_02
-130.361,54.172,HOLLAND ROCK,1063496,BC,2.1,0,NA,9.3,0,-4.5,0,NA,NA,NA,NA,NA,NA,NA,NA,NA,NA,NA,444.8,0,2014_02
-128.407,52.27,IVORY ISLAND,1063690,BC,3,0,-1.9,10.5,0,-4.5,0,3.6,0,34,127.8,0,66,0,14,NA,NA,NA,420.4,0,2014_02
-127.943,53.563,KEMANO,1064020,BC,-2.8,1,-3.1,10,1,-14,0,83.7,1,NA,117.7,1,NA,23,13,NA,NA,NA,560.8,0,2014_02
-128.634,54.054,KITIMAT TOWNSITE,1064320,BC,-3.3,14,-3.6,5,14,-12,14,106,14,NA,112,14,NA,NA,5,NA,NA,NA,298.1,0,2014_02
-128.705,54.01,KITIMAT 2,1064321,BC,-2.2,9,-3.1,10,9,-16,9,52.1,9,NA,103.7,9,NA,NA,11,NA,NA,NA,384.7,0,2014_02
-130.609,54.296,LUCY ISLAND LIGHTSTATION,1064728,BC,2.3,0,NA,9.3,0,-3.7,0,NA,NA,NA,NA,NA,NA,NA,NA,NA,NA,NA,440.9,0,2014_02
-128.719,52.262,MCINNES ISLAND,1065010,BC,3,27,-2.1,5,27,1,27,NA,NA,NA,7.2,27,NA,NA,1,NA,NA,NA,15,0,2014_02
-130.445,54.286,PRINCE RUPERT,1066482,BC,0.2,1,NA,9.1,1,-11,1,NA,NA,NA,87.9,1,NA,NA,12,NA,NA,NA,480.4,0,2014_02
-130.29,54.32,PRINCE RUPERT MONT CIRC,1066488,BC,NA,NA,NA,NA,NA,NA,NA,29,11,NA,115.4,11,NA,8,9,NA,NA,NA,NA,NA,2014_02
-129.985,55.936,STEWART A,1067742,BC,-4.6,0,-3.5,7.1,0,-17.5,0,43.3,0,51,50.6,0,37,81,10,NA,NA,NA,632.1,0,2014_02
-128.625,54.502,TERRACE PCC,1068131,BC,-2.5,2,-2.6,7.5,2,-14.5,2,34.6,2,NA,39,2,NA,7,9,NA,NA,NA,531.7,0,2014_02
-128.578,54.469,TERRACE A,1068134,BC,-4.9,0,NA,5.2,0,-16.1,0,72,0,NA,57.8,0,NA,16,11,NA,NA,NA,641.6,0,2014_02
-130.88,54.295,TRIPLE ISLAND,1068250,BC,2.3,0,NA,8.5,0,-3,0,2,0,NA,51.2,0,NA,0,12,NA,NA,NA,439.2,0,2014_02
-128.682,54.044,KITIMAT HATCHERY,106D289,BC,-2.2,8,NA,7.5,8,-14.5,8,116,8,NA,152.3,8,NA,37,10,NA,NA,NA,403.5,0,2014_02
-126.277,54.199,EQUITY SILVER,1072692,BC,-15.8,19,-9.1,-2,19,-31,19,0,19,NA,0,19,NA,NA,0,NA,NA,NA,304.6,0,2014_02
-126.668,54.396,HOUSTON,1073615,BC,-9.6,1,NA,6,1,-29,1,0,1,NA,0,1,NA,20,0,NA,NA,NA,745.8,0,2014_02
-129.03,55.238,NASS CAMP,1075384,BC,-7.5,0,-5.2,5,0,-30,0,47.4,0,131,47.4,0,68,39,11,NA,NA,NA,714.8,0,2014_02
-127.183,54.825,SMITHERS,1077499,BC,-10.6,0,NA,3.7,0,-27.6,0,NA,NA,NA,17.5,0,NA,NA,5,NA,NA,NA,801.6,0,2014_02
-127.183,54.825,SMITHERS A,1077500,BC,-10.6,0,-6.2,3.9,0,-29,0,28.1,0,120,14.6,0,63,40,8,NA,NA,NA,799.9,0,2014_02
-127.189,54.824,SMITHERS AIRPORT AUTO,1077501,BC,-11,0,NA,3.5,0,-29.8,0,NA,NA,NA,19.4,0,NA,36,7,NA,NA,NA,812.3,0,2014_02
-127.171,55.289,SUSKWA VALLEY,107G879,BC,-9.8,0,-6.3,3.5,0,-26,0,32,0,122,32,0,88,67,10,NA,NA,NA,778.9,0,2014_02
-125.997,53.772,OOTSA L SKINS L SPILLWAY,1085835,BC,-13,0,-6.8,3.5,0,-30,0,22.4,0,106,22.4,0,94,NA,7,NA,NA,NA,868.8,0,2014_02
-125.997,53.772,OOTSA LAKESKINS LAKE CLIMATE,1085836,BC,-12.4,0,NA,2.9,0,-29.5,0,NA,NA,NA,19.1,0,NA,12,7,NA,NA,NA,850.2,0,2014_02
-122.734,50.306,PEMBERTON AIRPORT CS,1086082,BC,-2,0,NA,10.4,0,-15.6,0,NA,NA,NA,80.2,0,NA,24,12,NA,NA,NA,559.6,0,2014_02
-124.136,52.114,PUNTZI MOUNTAIN (AUT),1086558,BC,-14.3,0,NA,6.7,0,-41.1,0,NA,NA,NA,65.9,0,NA,25,23,NA,NA,NA,905.1,0,2014_02
-124.403,51.675,TATLAYOKO LAKE RCS,1088015,BC,-8.6,0,NA,8,0,-30.4,0,NA,NA,NA,16.4,0,NA,11,6,NA,NA,NA,744.8,0,2014_02
-121.515,53.069,BARKERVILLE,1090660,BC,-12.5,0,-6.7,2,0,-30,0,69.5,0,121,69.5,0,114,130,11,NA,NA,NA,854.3,0,2014_02
-125.959,54.383,BURNS LAKE DECKER LAKE,1091174,BC,-14.4,0,NA,3.2,0,-36.2,0,NA,NA,NA,24.2,2,NA,58,6,NA,NA,NA,908.5,0,2014_02
-120.7,53.6,CRESCENT SPUR,1092120,BC,-10.2,0,NA,6.5,0,-31.5,0,41,0,NA,41.2,0,NA,47,6,NA,NA,NA,789.7,0,2014_02
-124.286,54.455,FORT ST JAMES,1092970,BC,-14.7,13,-8,4,13,-34,13,11,13,NA,11,13,NA,NA,4,NA,NA,NA,491.2,0,2014_02
-124.286,54.455,FORT ST JAMES AUTO,1092975,BC,-13.9,0,NA,4.7,0,-32.9,0,NA,NA,NA,32.2,0,NA,54,7,NA,NA,NA,892.1,0,2014_02
-122.699,53.531,HIXON,1093474,BC,-13.3,4,-9.5,6,3,-33.5,4,7.4,3,NA,7.4,3,NA,0,3,NA,NA,NA,751.4,0,2014_02
-121.364,52.363,HORSEFLY LAKE GRUHS LAKE,1093600,BC,-11.2,7,-7.2,4.5,7,-34,7,18.2,7,NA,18.2,7,NA,80,4,NA,NA,NA,612.5,0,2014_02
-122.374,52.38,MCLEESE LAKE FRASERVIEW,1095015,BC,-8.4,0,-5.4,9.5,0,-30.5,0,2,0,19,2,0,14,28,2,NA,NA,NA,738.1,0,2014_02
-122.286,52.531,MCLEESE LAKE GRANITE MT,1095018,BC,-11.1,0,NA,5,0,-30,0,17.2,4,NA,17.2,0,NA,62,7,NA,NA,NA,814.5,0,2014_02
-122.678,53.884,PRINCE GEORGE,1096439,BC,-13,0,NA,3.4,0,-33.6,0,NA,NA,NA,14.2,1,NA,NA,5,NA,NA,NA,867.1,0,2014_02
-122.672,53.889,PRINCE GEORGE AIRPORT AUTO,1096453,BC,-13.1,0,NA,3.3,0,-33.6,0,NA,NA,NA,20.9,0,NA,67,7,NA,NA,NA,869.5,0,2014_02
-122.768,53.88,PRINCE GEORGE STP,1096468,BC,-10.7,2,-7,5.5,2,-30,2,34.4,2,NA,34.6,2,NA,NA,7,NA,NA,NA,744.9,0,2014_02
-122.51,53.026,QUESNEL,1096629,BC,-10.7,3,NA,7.6,3,-34.8,3,NA,NA,NA,2.9,3,NA,NA,1,NA,NA,NA,716.7,0,2014_02
-122.506,53.027,QUESNEL AIRPORT AUTO,1096631,BC,-11.4,0,NA,7.7,0,-35.1,0,NA,NA,NA,7.7,0,NA,59,0,NA,NA,NA,823.9,0,2014_02
-121.686,52.184,SPOKIN LAKE 4E,1097646,BC,-12.3,2,-6.9,5.5,2,-36.5,2,21.5,2,NA,21.5,2,NA,69,7,NA,NA,NA,787.6,0,2014_02
-122.054,52.183,WILLIAMS LAKE A,1098941,BC,-10.8,0,NA,6.7,0,-32.7,0,7.8,0,NA,7.4,0,NA,54,2,NA,NA,NA,805.2,0,2014_02
-124.017,54.033,VANDERHOOF,1098D90,BC,-12.6,1,-7.1,5,1,-33.5,1,30.2,1,NA,30.2,1,NA,0,5,NA,NA,NA,826.8,0,2014_02
-122.489,52.541,CASTLE ROCK 6 NORTH,109A4NG,BC,-9.7,0,NA,12,0,-33,0,2.6,0,NA,4.6,0,NA,47,3,NA,NA,NA,774.9,0,2014_02
-121.404,51.705,108 MILE HOUSE ABEL LAKE,109E7R6,BC,-9.9,10,NA,5,10,-33,10,10,2,NA,10,2,NA,46,2,NA,NA,NA,502.1,0,2014_02
-122.36,49.025,ABBOTSFORD A,1100031,BC,2.5,0,NA,11.7,0,-6.9,0,21.8,0,NA,100.3,1,NA,5,13,NA,NA,NA,434.5,0,2014_02
-121.76,49.243,AGASSIZ RCS,1100119,BC,2.4,0,-3.4,12.4,0,-6.6,0,NA,NA,NA,131.8,0,NA,NA,14,NA,NA,NA,437.4,0,2014_02
-121.76,49.243,AGASSIZ CDA,1100120,BC,3,3,-2.1,12,2,-6.5,2,5,1,NA,142,1,NA,0,15,NA,NA,NA,376,0,2014_02
-122.955,50.129,WHISTLER - NESTERS,1100875,BC,-3.5,0,NA,5.5,0,-17.1,0,NA,NA,NA,93.2,0,NA,60,11,NA,NA,NA,602.9,0,2014_02
-122.936,50.102,BLACKCOMB BASE SLIDING CENTER,1100881,BC,-4.6,0,NA,5,0,-17.1,0,NA,NA,NA,79.9,2,NA,96,11,NA,NA,NA,631.5,0,2014_02
-122.918,49.278,BURNABY SIMON FRASER U,1101158,BC,1.4,7,-2.9,10,7,-8,7,0,7,NA,126.3,7,NA,NA,11,NA,NA,NA,349.2,0,2014_02
-123.111,50.144,CALLAGHAN VALLEY,1101300,BC,-3.9,0,NA,7.7,0,-17.1,0,NA,NA,NA,377.5,1,NA,144,13,NA,NA,NA,611.9,0,2014_02
-121.925,49.172,CHILLIWACK,1101530,BC,2.8,0,-2.1,13,0,-7.5,0,53.8,0,482,151.7,0,121,2,16,NA,NA,NA,426.1,0,2014_02
-122.866,49.269,COQUITLAM COMO LAKE AVE,1101889,BC,NA,NA,NA,NA,NA,NA,NA,59,0,516,180.8,0,100,6,15,NA,NA,NA,NA,NA,2014_02
-121.7,49.083,CHILLIWACK R HATCHERY,1101N65,BC,0.8,0,-2.7,11,0,-11.5,0,40.7,0,276,155.6,0,122,0,15,NA,NA,NA,481.1,0,2014_02
-123.002,49.126,DELTA BURNS BOG,1102415,BC,1.9,0,NA,12.7,0,-13,0,NA,NA,NA,126,1,NA,NA,13,NA,NA,NA,450,0,2014_02
-123.093,49.011,DELTA TSAWWASSEN BEACH,1102425,BC,3.5,0,-2.3,12,0,-5,0,20.4,0,620,119.8,0,149,0,14,NA,NA,NA,406.4,0,2014_02
-122.551,49.144,FORT LANGLEY TELEGRAPH TRAIL,1102912,BC,2.7,3,NA,12,3,-7.5,3,31,3,NA,144.8,3,NA,0,15,NA,NA,NA,382,0,2014_02
-122.573,49.264,HANEY UBC RF ADMIN,1103332,BC,1.7,1,-2.5,11,1,-7.5,1,22.1,1,NA,133.9,1,NA,0,12,NA,NA,NA,441,0,2014_02
-121.58,49.357,LAIDLAW,1104488,BC,1.3,0,-2.9,10.5,0,-8,0,32.5,0,196,189.1,0,97,0,16,NA,NA,NA,467.2,0,2014_02
-122.271,49.153,MISSION WEST ABBEY,1105192,BC,1.3,1,-3.3,11,1,-8,1,20.6,1,NA,125.6,1,NA,0,12,NA,NA,NA,451,0,2014_02
-123.078,49.182,RICHMOND OPERATIONS CENTRE,1105210,BC,NA,NA,NA,NA,NA,NA,NA,NA,NA,NA,87.4,14,NA,NA,9,NA,NA,NA,NA,NA,2014_02
-123.078,49.381,N VANC GROUSE MTN RESORT,1105658,BC,-2.4,2,-2.4,9,2,-13,2,79,2,NA,79,2,NA,0,11,NA,NA,NA,530.5,0,2014_02
-123.119,49.314,N VANCOUVER WHARVES,1105669,BC,NA,NA,NA,NA,NA,NA,NA,0,8,NA,148.9,8,NA,0,13,NA,NA,NA,NA,NA,2014_02
-122.69,49.208,PITT MEADOWS CS,1106178,BC,2.1,0,NA,13,0,-10,0,NA,NA,NA,141,1,NA,NA,14,NA,NA,NA,444,0,2014_02
-123.265,49.33,POINT ATKINSON,1106200,BC,3.9,0,NA,11.8,0,-4.8,0,NA,NA,NA,101.3,1,NA,NA,13,NA,NA,NA,395,0,2014_02
-123.087,49.179,RICHMOND DALLYN 2,1106764,BC,NA,NA,NA,NA,NA,NA,NA,34.2,0,NA,147.2,0,NA,0,14,NA,NA,NA,NA,NA,2014_02
-123.093,49.171,RICHMOND NATURE PARK,1106PF7,BC,2.9,2,-2,13.5,2,-12,2,14.2,2,NA,130.7,2,NA,0,12,NA,NA,NA,393.4,0,2014_02
-123.303,49.106,SANDHEADS CS,1107010,BC,3.7,0,NA,10.9,0,-4.8,0,NA,NA,NA,NA,NA,NA,NA,NA,NA,NA,NA,399.2,0,2014_02
-122.11,49.113,SUMAS CANAL,1107785,BC,1.7,21,NA,10.5,15,-6.5,15,18,15,NA,100.4,15,NA,NA,7,NA,NA,NA,113.8,0,2014_02
-123.187,49.183,VANCOUVER SEA ISLAND CCG,1108380,BC,2.8,0,NA,12.1,0,-9.5,0,NA,NA,NA,137.9,0,NA,NA,13,NA,NA,NA,424.8,0,2014_02
-123.184,49.195,VANCOUVER INTL A,1108395,BC,2.5,0,NA,12.6,0,-9.9,0,23.4,0,NA,141.8,0,NA,NA,13,NA,NA,NA,432.9,0,2014_02
-123.122,49.295,VANCOUVER HARBOUR CS,1108446,BC,3.7,3,NA,11.9,3,-6,1,NA,NA,NA,74.5,7,NA,NA,18,NA,NA,NA,357.2,0,2014_02
-123.193,49.347,WEST VANCOUVER AUT,1108824,BC,2.9,0,NA,12.9,0,-8.1,0,NA,NA,NA,180.6,1,NA,4,14,NA,NA,NA,424,0,2014_02
-122.947,50.068,WHISTLER ROUNDHOUSE,1108906,BC,-9.6,0,NA,8,0,-24.5,0,237.1,0,NA,237.1,0,NA,212,16,NA,NA,NA,772.2,0,2014_02
-122.784,49.018,WHITE ROCK CAMPBELL SCIENTIFIC,1108910,BC,3.5,0,NA,14.3,0,-6.5,0,NA,NA,NA,26.4,23,NA,NA,5,NA,NA,NA,405.1,0,2014_02
-122.967,49.438,N VAN SEYMOUR HATCHERY,110N666,BC,1,5,-2,8,5,-8,5,30,5,NA,265.9,5,NA,NA,13,NA,NA,NA,390.9,0,2014_02
-121.498,49.368,HOPE A,1113542,BC,0.7,3,NA,10.1,3,-9.2,3,NA,NA,NA,171.1,3,NA,NA,12,NA,NA,NA,432.8,0,2014_02
-121.493,49.37,HOPE AIRPORT,1113543,BC,1,0,NA,10.3,0,-9.2,0,NA,NA,NA,161.5,7,NA,NA,10,NA,NA,NA,477.4,0,2014_02
-121.233,49.267,HOPE SLIDE,1113581,BC,-4.3,0,-4,5,0,-17,0,172,0,385,211.6,0,202,70,16,NA,NA,NA,624.3,0,2014_02
-121.934,50.684,LILLOOET,1114619,BC,-3,0,NA,11.6,0,-17.4,0,NA,NA,NA,18.4,0,NA,NA,8,NA,NA,NA,588.3,0,2014_02
-121.582,50.224,LYTTON A,1114738,BC,-2.1,0,NA,10.9,0,-15.7,0,NA,NA,NA,48.5,0,NA,NA,8,NA,NA,NA,563.3,0,2014_02
-121.608,50.257,LYTTON 2,1114745,BC,NA,NA,NA,NA,NA,NA,NA,33,21,NA,69.6,21,NA,NA,5,NA,NA,NA,NA,NA,2014_02
-121.582,50.224,LYTTON RCS,1114746,BC,-2.1,0,NA,11.2,0,-15.7,0,NA,NA,NA,34.4,6,NA,0,6,NA,NA,NA,562.5,0,2014_02
-120.069,49.364,HEDLEY N,1123370,BC,-4.7,2,NA,11.5,2,-24,2,29.4,2,NA,33,2,NA,0,6,NA,NA,NA,589.2,0,2014_02
-120.022,49.369,HEDLEY NP MINE,1123390,BC,-8.7,2,-5,4.5,2,-22.5,2,101.8,2,NA,101.8,2,NA,72,12,NA,NA,NA,694.1,0,2014_02
-120.333,49.673,JELLICOE,1123721,BC,-6.9,1,NA,7.5,1,-25.5,1,118,1,NA,118.4,1,NA,78,12,NA,NA,NA,673.2,0,2014_02
-119.378,49.957,KELOWNA,1123939,BC,-5,2,NA,9.9,2,-21.3,2,NA,NA,NA,9.2,3,NA,NA,3,NA,NA,NA,598.9,0,2014_02
-119.573,49.842,KELOWNA QUAILS GATE,1123993,BC,-2.1,5,NA,12,4,-15.5,3,16,3,NA,25.4,3,NA,NA,9,NA,NA,NA,462.6,0,2014_02
-119.4,49.941,KELOWNA UBCO,1123996,BC,-3.8,0,NA,11.1,0,-18,0,NA,NA,NA,10.8,0,NA,0,3,NA,NA,NA,610,0,2014_02
-119.4,49.95,KELOWNA MWS0,11239R0,BC,-3.6,1,NA,10.1,1,-18.1,1,11,1,NA,12.2,1,NA,0,4,NA,NA,NA,583.6,0,2014_02
-120.778,50.113,MERRITT,1125073,BC,-5.4,0,NA,9.4,0,-24.2,0,NA,NA,NA,NA,NA,NA,NA,NA,NA,NA,NA,654.6,0,2014_02
-120.801,50.114,MERRITT STP,1125079,BC,-4.8,0,-4.2,9,0,-22.5,0,5.1,0,61,16.5,0,85,0,6,NA,NA,NA,637.8,0,2014_02
-119.444,50.056,OKANAGAN CENTRE,1125700,BC,-2.1,2,-3.1,12,2,-14.5,2,11.4,2,NA,18,2,NA,0,7,NA,NA,NA,521.6,0,2014_02
-119.544,49.179,OLIVER STP,1125766,BC,-1.5,10,-2.9,15,10,-19.5,10,2.1,10,NA,9.9,10,NA,0,4,NA,NA,NA,351.2,0,2014_02
-119.441,49.028,OSOYOOS CS,1125852,BC,-1.7,0,-3.6,14.1,0,-19.3,0,NA,NA,NA,31.6,0,NA,1,8,NA,NA,NA,551.6,0,2014_02
-119.717,49.783,PEACHLAND,1126070,BC,-1.3,2,-2.7,13,2,-14,2,26,2,NA,37.8,2,NA,7,9,NA,NA,NA,501.4,0,2014_02
-119.602,49.463,PENTICTON A,1126146,BC,-2.7,0,NA,13.3,0,-18.4,0,12.8,1,NA,25,0,NA,5,10,NA,NA,NA,579.8,0,2014_02
-120.513,49.468,PRINCETON A,1126510,BC,-6.4,1,-4.2,9,1,-30,1,62.1,1,NA,66.7,1,NA,44,10,NA,NA,NA,660.1,0,2014_02
-119.309,50.264,VERNON BELLA VISTA,1128553,BC,-3.7,0,-3.4,11,0,-18,0,6.6,0,55,14.6,0,60,0,5,NA,NA,NA,608.8,0,2014_02
-119.194,50.223,VERNON AUTO,1128582,BC,-4.7,0,NA,9.8,0,-21,0,NA,NA,NA,15.1,0,NA,NA,5,NA,NA,NA,635.9,0,2014_02
-119.27,50.344,VERNON NORTH,1128583,BC,-4.4,0,-4.2,9.5,0,-19.5,0,19.2,0,143,21.2,0,84,22,7,NA,NA,NA,626.4,0,2014_02
-119.056,50.359,VERNON SILVER STAR LODGE,1128584,BC,-12.1,3,NA,-1,3,-25,3,72,3,NA,72,3,NA,175,14,NA,NA,NA,752.8,0,2014_02
-119.415,50.037,WINFIELD,1128958,BC,-3.4,0,-3.3,11,0,-17,0,12,0,106,14.2,0,68,0,5,NA,NA,NA,598.3,0,2014_02
-120.51,49.465,PRINCETON CS,112FN0M,BC,-7.5,0,NA,8.5,0,-28.6,0,NA,NA,NA,61.6,1,NA,40,11,NA,NA,NA,713,0,2014_02
-119.649,49.563,SUMMERLAND CS,112G8L1,BC,-3.2,0,-4.1,13,0,-15.6,0,NA,NA,NA,11.2,0,NA,NA,5,NA,NA,NA,592.3,0,2014_02
-118.773,49,MIDWAY,1135126,BC,-5.1,0,-3.7,12.5,0,-28.5,0,23,0,173,27,0,105,26,10,NA,NA,NA,646.1,0,2014_02
-118.228,49.017,BILLINGS,1140876,BC,-4.8,0,-4,11.5,0,-24,0,24.4,0,128,35.8,0,109,25,10,NA,NA,NA,639.2,0,2014_02
-117.633,49.296,CASTLEGAR A,1141455,BC,-3.9,0,-3.7,9.3,0,-21.5,0,48.4,0,189,47.2,0,92,19,8,NA,NA,NA,612.2,0,2014_02
-117.774,49.343,CASTLEGAR BCHPA DAM,1141457,BC,-3,0,-3.2,14,0,-15,0,12,0,83,26.2,0,59,0,7,NA,NA,NA,587.7,0,2014_02
-116.518,49.097,CRESTON,1142160,BC,-3,1,-3,13,1,-20,1,38,1,NA,71.6,1,NA,0,10,NA,NA,NA,567.8,0,2014_02
-116.971,50.239,DUNCAN LAKE DAM,1142574,BC,-6.3,2,-4.9,5.5,1,-23.5,1,52.5,1,NA,78.4,1,NA,31,12,NA,NA,NA,632.3,0,2014_02
-118.068,49.872,FAUQUIER,1142820,BC,-4,1,-3.4,11,1,-18,1,44.6,1,NA,55.4,1,NA,NA,12,NA,NA,NA,592.7,0,2014_02
-116.921,49.913,KASLO,1143900,BC,-4.8,0,-4.2,5.5,0,-21,0,80.6,0,382,80.6,0,133,53,10,NA,NA,NA,638.8,0,2014_02
-116.458,49.032,LISTER,1144635,BC,-4.2,0,-3.9,10,0,-22.5,0,18,0,109,46.3,0,140,0,7,NA,NA,NA,620.7,0,2014_02
-117.817,50.269,NAKUSP CS,1145297,BC,-3.8,0,NA,9.9,0,-16.7,0,NA,NA,NA,52.8,3,NA,49,9,NA,NA,NA,609.5,0,2014_02
-117.206,49.586,NELSON NE,1145442,BC,-2.8,0,NA,11,0,-40,0,38.2,0,NA,54.4,0,NA,15,11,NA,NA,NA,581.9,0,2014_02
-117.37,49.996,NEW DENVER,1145460,BC,-3.7,0,-3.4,6,0,-19.5,0,41.4,0,204,64,0,112,36,10,NA,NA,NA,607.7,0,2014_02
-117.305,49.491,NELSON CS,1145M29,BC,-2.5,0,NA,10.2,0,-15,0,NA,NA,NA,36.8,0,NA,1,11,NA,NA,NA,573.6,0,2014_02
-117.739,49.112,WARFIELD RCS,1148705,BC,-1.7,25,NA,9.8,0,-8.2,25,NA,NA,NA,47.4,1,NA,28,10,NA,NA,NA,59.2,0,2014_02
-116.501,49.082,CRESTON CAMPBELL SCIENTIFIC,114B1F0,BC,-3.6,0,NA,12.1,0,-19.6,0,NA,NA,NA,42.3,0,NA,3,8,NA,NA,NA,605.6,0,2014_02
-117.399,49.512,NELSON RIXEN CREEK,114EMDM,BC,-4.6,1,NA,8,1,-19.5,1,67.6,1,NA,69.6,1,NA,54,11,NA,NA,NA,610.2,0,2014_02
-115.221,49.226,BAYNES LAKE KOOTENAY RIVER,1150690,BC,-7.7,1,-4.6,21.5,0,-33,1,6,0,39,6,0,26,3,4,NA,NA,NA,694.4,0,2014_02
-115.782,49.612,CRANBROOK A,1152105,BC,-9.9,0,NA,7.8,0,-30.5,0,25.6,0,NA,24.6,0,NA,24,6,NA,NA,NA,781.5,0,2014_02
-115.789,49.618,CRANBROOK AIRPORT AUTO,1152106,BC,-9.4,0,NA,7.6,0,-30.4,0,NA,NA,NA,21.9,3,NA,38,6,NA,NA,NA,768,0,2014_02
-115.072,49.489,FERNIE,1152850,BC,-10.2,8,-6.4,7,8,-31,8,25,8,NA,30.4,8,NA,48,4,NA,NA,NA,564.6,0,2014_02
-114.855,50.149,FORDING RIVER COMINCO,1152899,BC,-13.1,21,-4.9,1.4,15,-36,15,44.8,15,NA,44.8,15,NA,80,8,NA,NA,NA,217.4,0,2014_02
-115.461,49.524,FT STEELE DANDY CRK,1153034,BC,-13.5,17,NA,9,10,-32,11,10.5,10,NA,10.5,10,NA,NA,4,NA,NA,NA,347,0,2014_02
-115.962,49.631,KIMBERLEY PCC,1154203,BC,-8.9,9,-4.8,8,9,-31.5,9,28,9,NA,28,9,NA,42,4,NA,NA,NA,512,0,2014_02
-116.061,50.631,KOOTENAY NP WEST GATE,1154410,BC,-8.7,6,-4.6,3.5,6,-27.5,6,22.4,6,NA,22.4,6,NA,20,7,NA,NA,NA,588.2,0,2014_02
-114.883,49.745,SPARWOOD,1157630,BC,-10.2,0,-5.6,5.5,0,-32.2,0,89.1,0,241,47.6,0,116,34,10,NA,NA,NA,789.2,0,2014_02
-114.884,49.745,SPARWOOD CS,1157631,BC,-10.3,0,NA,5.4,0,-31.3,0,NA,NA,NA,0.2,0,NA,40,0,NA,NA,NA,792.2,0,2014_02
-115.46,49.473,WARDNER KTNY HATCHERY,1158692,BC,-10.4,11,-7.8,11,8,-31.5,11,14.5,4,NA,14.5,4,NA,0,4,NA,NA,NA,482.4,0,2014_02
-115.631,49.824,WASA,1158730,BC,-8.4,0,-5.2,8.5,0,-27.5,0,25,0,185,25,0,135,20,12,NA,NA,NA,738,0,2014_02
-121.281,50.708,ASHCROFT,1160515,BC,-4.1,0,NA,12.9,0,-20.5,0,NA,NA,NA,NA,NA,NA,NA,NA,NA,NA,NA,619.7,0,2014_02
-119.29,52.129,BLUE RIVER A,1160899,BC,-11.3,0,-6.9,4.9,0,-36.6,0,92,0,186,65.2,0,121,122,10,NA,NA,NA,819.2,0,2014_02
-119.29,52.129,BLUE RIVER CS,1160H99,BC,-12.7,2,NA,3.8,1,-35.5,1,NA,NA,NA,NA,NA,NA,NA,NA,NA,NA,NA,799.1,0,2014_02
-121.083,51.708,BUFFALO LAKE,1161104,BC,-12,0,-7.6,6,0,-37.5,0,21.6,0,134,21.6,0,116,60,4,NA,NA,NA,840.6,0,2014_02
-121.505,51.145,CLINTON (AUT),1161661,BC,-9.1,6,NA,6.7,6,-27.6,6,NA,NA,NA,9.5,6,NA,NA,4,NA,NA,NA,595.8,0,2014_02
-121.685,51.266,CLINTON A,1161662,BC,-11.7,2,NA,6.2,2,-36.2,2,NA,NA,NA,4,2,NA,NA,1,NA,NA,NA,771.7,0,2014_02
-120.728,51.03,CRISS CREEK,1162177,BC,-12.2,2,-7,6,2,-33.5,2,11.8,2,NA,11.8,2,NA,60,5,NA,NA,NA,786,0,2014_02
-120.183,51.297,DARFIELD,1162265,BC,-7.5,0,-5.7,7,0,-25.5,0,11,0,84,14.6,0,64,24,8,NA,NA,NA,713.5,0,2014_02
-120.449,50.703,KAMLOOPS A,1163781,BC,-4.9,0,NA,9.3,0,-21.7,0,1.6,0,NA,3.8,0,NA,NA,2,NA,NA,NA,641.8,0,2014_02
-120.442,50.702,KAMLOOPS AUT,1163842,BC,-4.6,0,NA,9.6,0,-20.9,0,NA,NA,NA,5,4,NA,0,2,NA,NA,NA,633.5,0,2014_02
-121.217,51.681,100 MILE HOUSE 6NE,1165793,BC,-10.5,0,NA,8.5,0,-37,0,29.8,0,NA,29.8,0,NA,59,6,NA,NA,NA,796.8,0,2014_02
-120.8,50.935,RED LAKE,1166658,BC,-9.1,1,-5,6,1,-26,1,14.5,1,NA,14.5,1,NA,37,4,NA,NA,NA,731.1,0,2014_02
-119.234,50.686,SALMON ARM A,1166R45,BC,-5.9,0,-4.3,10,0,-23,0,28,0,146,28,0,83,NA,5,NA,NA,NA,669.6,0,2014_02
-119.35,50.545,SILVER CREEK,1167337,BC,-5.9,0,-4.7,11,0,-23,0,25.8,0,158,30.2,0,97,26,9,NA,NA,NA,668.6,0,2014_02
-119.778,51.576,VAVENBY,1168520,BC,-9.1,0,-6.4,8,0,-29.5,0,8.6,0,73,12.4,0,55,43,5,NA,NA,NA,758.1,0,2014_02
-120.2,50.6,KAMLOOPS PRATT ROAD,116C8P0,BC,-7,1,NA,7,1,-22,1,3.6,1,NA,3.6,1,NA,0,2,NA,NA,NA,674.3,0,2014_02
-119.291,50.703,SALMON ARM CS,116FRMN,BC,-5.3,0,-5.3,12.6,0,-20.9,0,NA,NA,NA,25.5,0,NA,NA,8,NA,NA,NA,652.4,0,2014_02
-119.918,50.902,SUN PEAKS UPPER,116QK0M,BC,-12.9,2,NA,-1,1,-25,1,38,1,NA,38,1,NA,168,5,NA,NA,NA,803.6,0,2014_02
-117.516,51.301,GLACIER NP ROGERS PASS,1173191,BC,-11.3,0,-4.7,1,0,-26,0,188,0,146,188,0,141,167,12,NA,NA,NA,821,0,2014_02
-116.982,51.299,GOLDEN A,1173210,BC,-10.9,1,-5.9,3,1,-32,1,37.4,1,NA,28.4,1,NA,59,8,NA,NA,NA,779.4,0,2014_02
-118.425,51.63,GOLDSTREAM RIVER,1173242,BC,-10.5,0,-6.4,3,0,-28,0,132,0,213,132,0,198,118,11,NA,NA,NA,798,0,2014_02
-118.585,52.053,MICA DAM,1175122,BC,-9,4,-5.6,12,2,-22,2,119,2,NA,119,2,NA,170,9,NA,NA,NA,647.6,0,2014_02
-118.183,50.967,REVELSTOKE A,1176745,BC,-6.1,1,NA,3.3,1,-22.1,1,NA,NA,NA,64.4,1,NA,NA,9,NA,NA,NA,650,0,2014_02
-118.224,51.012,REVELSTOKE COLUMBIA PARK,1176754,BC,NA,NA,NA,NA,NA,NA,NA,63,26,NA,63,26,NA,NA,2,NA,NA,NA,NA,NA,2014_02
-118.176,50.958,REVELSTOKE AIRPORT AUTO,1176755,BC,-6,0,NA,3.9,0,-23.1,0,NA,NA,NA,80.4,0,NA,89,12,NA,NA,NA,673,0,2014_02
-116.345,51.443,YOHO PARK,11790J1,BC,-13.1,0,NA,1.6,0,-35.1,0,NA,NA,NA,0.2,1,NA,117,0,NA,NA,NA,870.2,0,2014_02
-117.701,51.236,GLACIER NP MT FIDELITY,117CA90,BC,-11.7,0,-4.5,1,0,-23,0,235,0,131,235,0,130,285,12,NA,NA,NA,832.6,0,2014_02
-116.337,51.356,YOHO NP OHARA LAKE,117R00H,BC,-14.8,0,NA,1,0,-35,0,53.7,0,NA,53.7,0,NA,0,10,NA,NA,NA,917.3,0,2014_02
-121.017,56.298,CHARLIE LAKE,11814FR,BC,-17.1,1,NA,1,0,-34,1,27,0,NA,27,0,NA,68,10,NA,NA,NA,947.5,0,2014_02
-121.627,55.687,CHETWYND A,1181508,BC,-13.5,0,-6.3,7,0,-31,0,44.6,0,197,19.3,0,119,11,7,NA,NA,NA,882.7,0,2014_02
-120.183,55.742,DAWSON CREEK A,1182289,BC,-17.9,1,NA,2.5,1,-35,1,NA,NA,NA,10.4,4,NA,NA,4,NA,NA,NA,969.7,0,2014_02
-120.74,56.238,FORT ST. JOHN A,1183001,BC,-16.2,0,NA,1.3,0,-29.3,0,34.8,0,NA,32.2,1,NA,22,7,NA,NA,NA,957.3,0,2014_02
-123.133,55.299,MACKENZIE,1184791,BC,-15.4,1,NA,0.4,1,-34.3,1,NA,NA,NA,0.8,1,NA,NA,0,NA,NA,NA,901.2,0,2014_02
-123.138,55.305,MACKENZIE AIRPORT AUTO,1184793,BC,-14.8,0,NA,0.8,0,-33.9,0,NA,NA,NA,24.8,4,NA,99,6,NA,NA,NA,917,0,2014_02
-122.718,57.25,SIKANNI CHIEF,1187335,BC,-15.5,18,NA,3,18,-26,18,9.6,18,NA,9.6,18,NA,NA,3,NA,NA,NA,334.7,0,2014_02
-120.688,56.167,TAYLOR FLATS,1188020,BC,NA,NA,NA,NA,NA,NA,NA,24,0,124,24,0,122,2,8,NA,NA,NA,NA,NA,2014_02
-130.031,58.422,DEASE LAKE A,1192341,BC,-18.4,0,NA,0.8,0,-37.1,0,NA,NA,NA,1.5,0,NA,NA,1,NA,NA,NA,1018.5,0,2014_02
-122.597,58.836,FORT NELSON A,1192946,BC,-19.7,0,NA,-3.5,0,-36.3,0,15.6,0,NA,11.3,0,NA,46,4,NA,NA,NA,1055.8,0,2014_02
-122.573,58.841,FORT NELSON UA,1192950,BC,-18.6,0,NA,-1.5,0,-35,0,10.3,0,NA,10.3,0,NA,58,4,NA,NA,NA,1024.2,0,2014_02
-125.767,58.93,MUNCHO LAKE,1195250,BC,-17.5,4,-6.1,2.5,4,-34,4,7,4,NA,7,4,NA,42,6,NA,NA,NA,853.1,0,2014_02
-130.025,58.426,DEASE LAKE (AUT),119BLM0,BC,-18.6,0,NA,0.7,0,-37.7,0,NA,NA,NA,8.5,0,NA,78,2,NA,NA,NA,1025.1,0,2014_02
-133.7,59.567,ATLIN,1200560,BC,-15.6,0,-4.9,1.5,0,-29.5,0,3.9,0,16,3.9,0,15,22,2,NA,NA,NA,941.5,0,2014_02
-136.367,59.45,PLEASANT CAMP,1206197,BC,-11.3,0,-5.9,5,0,-38,0,67,0,60,93,0,67,0,6,NA,NA,NA,821.3,0,2014_02
-139.04,61.371,BURWASH A,2100181,YT,-20.3,3,NA,-2.6,3,-40.1,3,NA,NA,NA,0.4,6,NA,NA,0,NA,NA,NA,958.2,0,2014_02
-139.05,61.367,BURWASH A,2100182,YT,-19.4,1,-3.1,0.5,1,-40.5,1,11.8,1,NA,9.6,1,NA,NA,3,NA,NA,NA,1010.9,0,2014_02
-139.017,61.367,BURWASH AIRPORT AUTO BC,2100184,YT,-20.1,0,NA,0.3,0,-41.3,0,NA,NA,NA,NA,NA,NA,4,NA,NA,NA,NA,1067.7,0,2014_02
-136.192,62.115,CARMACKS CS,2100301,YT,-23.3,0,NA,-1,0,-45.8,0,NA,NA,NA,5.7,0,NA,51,2,NA,NA,NA,1157.4,0,2014_02
-139.128,64.043,DAWSON A,2100402,YT,-26.8,3,-5.3,-0.8,3,-46.5,3,12,3,NA,7,3,NA,NA,3,NA,NA,NA,1120.3,0,2014_02
-133.373,62.207,FARO A,2100517,YT,-21.4,1,-5.9,-2,1,-40.4,1,3.2,1,NA,1.8,1,NA,NA,0,NA,NA,NA,1063.4,0,2014_02
-133.376,62.208,FARO (AUT),2100518,YT,-21.4,0,NA,-2.1,0,-41.4,0,NA,NA,NA,NA,NA,NA,NA,NA,NA,NA,NA,1102.3,0,2014_02
-137.58,60.773,HAINES JUNCTION,2100630,YT,-19,0,NA,2.1,0,-38.8,0,NA,NA,NA,NA,NA,NA,8,NA,NA,NA,NA,1035.8,0,2014_02
-138.913,69.568,HERSCHEL ISLAND,2100636,YT,-24.3,4,NA,-5.3,4,-39.4,4,NA,NA,NA,156.3,18,NA,NA,10,NA,NA,NA,1016.3,0,2014_02
-140.15,69.164,IVVAVIK NAT. PARK,2100660,YT,-23.1,0,NA,-3.7,0,-42.6,0,NA,NA,NA,8.6,1,NA,8,3,NA,NA,NA,1150.4,0,2014_02
-140.197,69.612,KOMAKUK BEACH,2100682,YT,-23.4,3,NA,-3.2,2,-41,3,NA,NA,NA,NA,NA,NA,NA,NA,NA,NA,NA,1035.6,0,2014_02
-130.037,63.244,MACMILLAN PASS,2100693,YT,-22.2,0,NA,-7.9,0,-36.5,0,NA,NA,NA,NA,NA,NA,60,NA,NA,NA,NA,1126.1,0,2014_02
-140.848,68.801,MARGARET LAKE,2100697,YT,-24.6,1,NA,-8.7,1,-37.9,0,NA,NA,NA,NA,NA,NA,NA,NA,NA,NA,NA,1150.8,0,2014_02
-135.868,63.616,MAYO A,2100701,YT,-23.8,0,NA,-0.7,0,-46.4,0,2,5,NA,7,0,NA,43,2,NA,NA,NA,1170.8,0,2014_02
-135.183,60.876,MAYO ROAD,2100709,YT,-20.5,0,-7.5,2,0,-42,0,1.8,0,13,1.8,0,13,0,1,NA,NA,NA,1078.6,0,2014_02
-137.523,63.594,MCQUESTEN,2100719,YT,-25.7,5,-6.9,-4.5,5,-47,5,4,5,NA,4,5,NA,55,2,NA,NA,NA,1005.4,0,2014_02
-139.839,67.571,OLD CROW RCS,2100805,YT,-28,0,NA,-10.6,0,-45,0,NA,NA,NA,NA,NA,NA,NA,NA,NA,NA,NA,1287.5,0,2014_02
-137.05,61.033,OTTER FALLS NCPC,2100840,YT,-16.2,1,-4.1,15,1,-36,1,2.8,1,NA,2.8,1,NA,NA,2,NA,NA,NA,924.7,0,2014_02
-137.311,62.83,PELLY RANCH,2100880,YT,-24.3,0,-4.8,8,0,-47,0,6.5,0,44,6.5,0,44,40,3,NA,NA,NA,1184.9,0,2014_02
-136.218,66.981,ROCK RIVER,2100935,YT,-20.2,2,NA,-0.9,2,-32.6,2,NA,NA,NA,0,3,NA,0,0,NA,NA,NA,993.1,0,2014_02
-137.217,68.95,SHINGLE POINT A,2100950,YT,-22.9,1,NA,-5.8,0,-42.8,1,NA,NA,NA,NA,NA,NA,NA,NA,NA,NA,NA,1104.3,0,2014_02
-129.132,61.182,HOUR LAKE,2100FCG,YT,-22.8,0,NA,-6,0,-43.5,0,15.2,0,NA,15.2,0,NA,NA,6,NA,NA,NA,1141.1,0,2014_02
-139.127,64.061,DAWSON,2100LRP,YT,-26.3,0,NA,-0.4,0,-46.7,0,NA,NA,NA,6.3,4,NA,50,1,NA,NA,NA,1241.5,0,2014_02
-132.736,60.174,TESLIN A,2101100,YT,-19.1,1,-5.6,0,1,-36.4,1,3.3,1,NA,2.8,1,NA,NA,0,NA,NA,NA,1002.8,0,2014_02
-132.733,60.167,TESLIN (AUT),2101102,YT,-19.9,0,NA,0.5,0,-37.3,0,NA,NA,NA,0.8,18,NA,59,0,NA,NA,NA,1061.6,0,2014_02
-129.217,60.933,TUCHITUA,2101135,YT,-25.4,6,NA,-7.5,3,-45,3,4,0,NA,4,0,NA,0,1,NA,NA,NA,955.1,0,2014_02
-128.822,60.117,WATSON LAKE A,2101200,YT,-23.7,0,-6.7,-9.5,0,-43.7,0,10.3,0,36,6.8,0,33,74,3,NA,NA,NA,1166.7,0,2014_02
-128.832,60.116,WATSON LAKE (AUT),2101204,YT,-25,0,NA,-10.1,0,-46.4,0,NA,NA,NA,6.5,0,NA,71,3,NA,NA,NA,1204.4,0,2014_02
-135.067,60.709,WHITEHORSE A,2101303,YT,-17.4,0,NA,0.6,0,-36.2,0,NA,NA,NA,NA,NA,NA,NA,NA,NA,NA,NA,992.4,0,2014_02
-135.098,60.733,WHITEHORSE AUTO,2101310,YT,-17,0,NA,0.8,0,-35.5,0,NA,NA,NA,1.5,0,NA,36,1,NA,NA,NA,981.3,0,2014_02
-124.717,70.167,CAPE PARRY A,2200675,NT,-25.2,1,NA,-9.5,0,-33.6,1,NA,NA,NA,NA,NA,NA,NA,NA,NA,NA,NA,1166.6,0,2014_02
-126.123,67.021,COLVILLE LAKE,2200824,NT,-26.7,1,NA,-9.4,1,-39.5,1,NA,NA,NA,NA,NA,NA,NA,NA,NA,NA,NA,1205.6,0,2014_02
-123.433,65.209,DELINE CS,2201022,NT,-24.9,0,NA,-7.7,0,-38.9,0,NA,NA,NA,NA,NA,NA,3,NA,NA,NA,NA,1200.8,0,2014_02
-124.468,61.257,DEADMEN VALLEY,22010H0,NT,-22.4,0,NA,-6.6,0,-39.9,0,NA,NA,NA,NA,NA,NA,29,NA,NA,NA,NA,1132.1,0,2014_02
-123.436,65.211,DELINE A,22010KA,NT,-25.3,1,NA,-7.5,1,-38.7,1,7,1,NA,7,1,NA,36,3,NA,NA,NA,1168.3,0,2014_02
-128.644,66.242,FORT GOOD HOPE CS,2201450,NT,-24.4,0,NA,-4.6,0,-38.5,0,NA,NA,NA,NA,NA,NA,46,NA,NA,NA,NA,1186.6,0,2014_02
-123.467,60.235,FORT LIARD A,2201575,NT,-21.5,17,-4.5,-10.7,17,-35.3,17,10.7,17,NA,10.7,17,NA,NA,5,NA,NA,NA,434.9,0,2014_02
-123.467,60.233,FORT LIARD,2201579,NT,-19.5,0,NA,-2.1,0,-34.5,0,NA,NA,NA,NA,NA,NA,NA,NA,NA,NA,NA,1050.6,0,2014_02
-134.86,67.408,FORT MCPHERSON A,2201601,NT,-23.8,0,1.1,-3.7,0,-40.5,0,0.4,0,3,0.4,0,3,44,0,NA,NA,NA,1169.3,0,2014_02
-125.568,64.909,TULITA A,2201700,NT,-21.5,13,NA,-5.5,13,-32,13,6.4,13,NA,6.4,13,NA,NA,3,NA,NA,NA,592.9,0,2014_02
-117.602,61.317,FORT PROVIDENCE,2201799,NT,-23.4,0,NA,-7.9,0,-39.2,0,NA,NA,NA,NA,NA,NA,NA,NA,NA,NA,NA,1158.9,0,2014_02
-109.168,62.711,FORT RELIANCE (AUT),2201903,NT,-27.2,0,NA,-13,0,-43.1,0,NA,NA,NA,4.6,1,NA,48,0,NA,NA,NA,1265.9,0,2014_02
-113.69,61.181,FORT RESOLUTION A,2202000,NT,-24.4,14,NA,-7.2,14,-39.2,14,2.4,14,NA,2.4,14,NA,NA,1,NA,NA,NA,594.2,0,2014_02
-121.237,61.76,FORT SIMPSON A,2202101,NT,-23.4,1,-2.7,-8.3,1,-38.6,1,11.2,2,NA,6.2,1,NA,58,2,NA,NA,NA,1116.8,0,2014_02
-121.237,61.76,FORT SIMPSON CLIMATE,2202102,NT,-23.8,0,NA,-8.6,0,-39.6,0,NA,NA,NA,6.6,0,NA,48,1,NA,NA,NA,1170.9,0,2014_02
-111.962,60.02,FORT SMITH A,2202200,NT,-23.1,0,-4,-7.8,0,-39.5,0,17,0,91,6,0,49,34,2,NA,NA,NA,1151.1,0,2014_02
-111.929,60.026,FORT SMITH CLIMATE,2202202,NT,-23.1,0,NA,-7.8,0,-41.2,0,NA,NA,NA,10.2,0,NA,NA,2,NA,NA,NA,1152.1,0,2014_02
-105.133,63.6,HANBURY RIVER,2202351,NT,-29.3,0,NA,-12.1,0,-41.2,0,NA,NA,NA,1.6,3,NA,7,0,NA,NA,NA,1324,0,2014_02
-115.783,60.84,HAY RIVER A,2202400,NT,-23.8,0,-4.2,-7.9,0,-39.9,0,26.4,0,156,15.2,0,106,34,3,NA,NA,NA,1169.6,0,2014_02
-115.777,60.839,HAY RIVER CLIMATE,2202402,NT,-23.6,0,NA,-7.8,0,-39.7,0,NA,NA,NA,9.9,0,NA,27,2,NA,NA,NA,1163.7,0,2014_02
-113.726,61.92,INNER WHALEBACKS,2202560,NT,-25.2,0,NA,-14.9,0,-37.6,0,NA,NA,NA,3.4,4,NA,NA,1,NA,NA,NA,1208.7,0,2014_02
-133.517,68.317,INUVIK CLIMATE,2202578,NT,-23.3,0,NA,-6,0,-40.4,0,NA,NA,NA,NA,NA,NA,51,NA,NA,NA,NA,1155.8,0,2014_02
-117.245,63.134,WHATI,2202678,NT,-26.8,0,NA,-12.1,0,-39.6,0,NA,NA,NA,NA,NA,NA,NA,NA,NA,NA,NA,1253.7,0,2014_02
-126.799,65.281,NORMAN WELLS A,2202801,NT,-25.5,0,NA,-5.3,0,-42.5,0,15.4,0,NA,13.2,0,NA,15,7,NA,NA,NA,1217,0,2014_02
-126.753,65.288,NORMAN WELLS CLIMATE,2202810,NT,-24.7,0,NA,-5.4,0,-40.8,0,NA,NA,NA,16.6,0,NA,37,5,NA,NA,NA,1196.7,0,2014_02
-124.075,69.361,PAULATUK A,2203057,NT,-25.6,4,NA,-9.2,4,-37.5,4,20,4,NA,20,4,NA,NA,7,NA,NA,NA,1046.9,0,2014_02
-124.083,69.358,PAULATUK,2203058,NT,-25.5,0,NA,-9.3,0,-37.3,0,NA,NA,NA,6.9,0,NA,NA,1,NA,NA,NA,1218.2,0,2014_02
-135.444,69.633,PELLY ISLAND,2203095,NT,-20.4,9,NA,-6.1,7,-30.9,9,NA,NA,NA,0,9,NA,NA,0,NA,NA,NA,729.4,0,2014_02
-127.209,61.963,RABBIT KETTLE,2203342,NT,-25.6,0,NA,-6.2,0,-46,0,NA,NA,NA,NA,NA,NA,NA,NA,NA,NA,NA,1219.9,0,2014_02
-117.309,64.117,GAMETI AIRPORT,2203361,NT,-27.4,0,NA,-13.2,0,-44.4,0,18.6,0,NA,18.6,0,NA,34,4,NA,NA,NA,1271.5,0,2014_02
-133.026,69.433,TUKTOYAKTUK A,2203912,NT,-25.4,2,1,-7.9,2,-39.5,2,10.8,2,NA,10.8,2,NA,NA,6,NA,NA,NA,1127.8,0,2014_02
-133.017,69.433,TUKTOYAKTUK,2203914,NT,-25.6,1,NA,-8.2,1,-39.9,0,NA,NA,NA,NA,NA,NA,NA,NA,NA,NA,NA,1178.2,0,2014_02
-123.437,63.209,WRIGLEY A,2204000,NT,-24,17,NA,-12,17,-36.7,17,5.8,17,NA,5.8,17,NA,NA,3,NA,NA,NA,462.5,0,2014_02
-114.44,62.463,YELLOWKNIFE A,2204101,NT,-26.1,0,NA,-14.9,0,-39.1,0,15,1,NA,7.6,0,NA,37,3,NA,NA,NA,1233.9,0,2014_02
-114.383,62.45,YELLOWKNIFE-HENDERSON,2204110,NT,-25.5,0,NA,-14.5,0,-39,0,7,0,NA,7,0,NA,43,3,NA,NA,NA,1218,0,2014_02
-123.742,61.242,YOHIN,2204300,NT,-20.5,0,NA,-2.2,0,-36.4,0,NA,NA,NA,NA,NA,NA,24,NA,NA,NA,NA,1078.3,0,2014_02
-130.911,69.604,LIVERPOOL BAY,220B68C,NT,-25.9,1,NA,-9.4,0,-38.2,1,NA,NA,NA,NA,NA,NA,NA,NA,NA,NA,NA,1185.8,0,2014_02
-130.228,67.179,LITTLE CHICAGO,220B6Q3,NT,-25.5,0,NA,-7,0,-41.7,0,NA,NA,NA,NA,NA,NA,NA,NA,NA,NA,NA,1218.7,0,2014_02
-110.682,62.419,LUTSELK'E A,220L001,NT,-25.5,5,NA,-13,5,-45,5,4,5,NA,4,5,NA,40,4,NA,NA,NA,1000.7,0,2014_02
-110.69,62.416,LUTSELK'E CS,220L002,NT,-26.4,0,NA,-12.7,0,-43.2,0,NA,NA,NA,NA,NA,NA,32,NA,NA,NA,NA,1242.2,0,2014_02
-133.942,68.911,STORM HILLS,220LQJJ,NT,-16.3,19,NA,-5.8,19,-30.1,18,NA,NA,NA,NA,NA,NA,NA,NA,NA,NA,NA,308.5,0,2014_02
-110.615,64.699,EKATI A,220N001,NT,-28,0,NA,-13.5,0,-39,0,18,0,NA,18,0,NA,70,6,NA,NA,NA,1288.6,0,2014_02
-122.851,61.125,LINDBURG LANDING,220N003,NT,-23.5,0,NA,-5.6,0,-39.9,0,NA,NA,NA,11.1,2,NA,55,4,NA,NA,NA,1161.7,0,2014_02
-113.863,63.603,LOWER CARP LAKE,220N004,NT,-26.3,0,NA,-16.7,0,-38.8,0,NA,NA,NA,NA,NA,NA,29,NA,NA,NA,NA,1241,0,2014_02
-133.502,68.746,TRAIL VALLEY,220N005,NT,-25.7,4,NA,-6,4,-41.5,4,NA,NA,NA,9.7,4,NA,NA,2,NA,NA,NA,1049.9,0,2014_02
-94.072,61.094,ARVIAT A,2300427,NU,-27.8,2,NA,-14,2,-37.9,2,NA,NA,NA,43.9,2,NA,NA,6,NA,NA,NA,1190.3,0,2014_02
-96,64.317,BAKER LAKE CLIMATE,2300501,NU,-30.1,1,NA,-15.4,1,-41,1,NA,NA,NA,27,1,NA,0,5,NA,NA,NA,1299.1,0,2014_02
-96.078,64.299,BAKER LAKE A,2300503,NU,-29.5,1,NA,-15,1,-40.5,0,1.4,2,NA,1.6,1,NA,16,0,NA,NA,NA,1282.4,0,2014_02
-108.015,66.838,BATHURST INLET,2300551,NU,-27.5,25,NA,-9.4,24,-39.2,24,NA,NA,NA,NA,NA,NA,NA,NA,NA,NA,NA,136.6,0,2014_02
-90.731,63.347,CHESTERFIELD INLET A,2300707,NU,-28.1,0,2.8,-16.8,0,-37.9,0,7,0,69,7,0,73,19,5,NA,NA,NA,1289.6,0,2014_02
-115.144,67.817,KUGLUKTUK A,2300902,NU,-27.2,0,0.5,-8.2,0,-42.3,0,54,0,332,13.8,0,164,50,3,NA,NA,NA,1264.7,0,2014_02
-115.135,67.817,KUGLUKTUK CLIMATE,2300904,NU,-27.3,0,NA,-8.1,0,-42.1,0,NA,NA,NA,9.2,0,NA,22,3,NA,NA,NA,1267.1,0,2014_02
-94.067,61.1,ARVIAT A,2300MKF,NU,-27.5,0,0.8,-14,0,-38,0,0.6,0,9,0.6,0,9,18,0,NA,NA,NA,1272.7,0,2014_02
-83.359,64.193,CORAL HARBOUR A,2301000,NU,-26.3,0,3.4,-15.6,0,-36.9,0,9.8,0,138,9.8,0,140,15,4,NA,NA,NA,1240.7,0,2014_02
-100.884,61.132,ENNADAI LAKE (AUT),2301102,NU,-30.8,17,NA,-18.6,17,-39.9,15,NA,NA,NA,0.5,18,NA,NA,0,NA,NA,NA,536.9,0,2014_02
-94.067,61.1,ARVIAT CLIMATE,2301153,NU,-27.9,2,NA,-14.1,2,-38.1,2,NA,NA,NA,9.9,3,NA,9,5,NA,NA,NA,1192.9,0,2014_02
-95.85,68.636,GJOA HAVEN A,2302337,NU,-31.7,0,NA,-15.4,0,-39.6,0,NA,NA,NA,2.5,2,NA,NA,1,NA,NA,NA,1392,0,2014_02
-95.85,68.636,GJOA HAVEN CLIMATE,2302340,NU,-31.8,0,NA,-15.5,0,-40,0,NA,NA,NA,1.2,0,NA,69,0,NA,NA,NA,1394.7,0,2014_02
-100.087,68.318,HAT ISLAND,2302370,NU,-30.7,0,NA,-14.6,0,-39.2,0,NA,NA,NA,NA,NA,NA,NA,NA,NA,NA,NA,1363.5,0,2014_02
-89.726,68.437,CAM FOUR,2303093,NU,-30.1,0,NA,-20.4,0,-38.7,0,NA,NA,NA,NA,NA,NA,NA,NA,NA,NA,NA,1346.7,0,2014_02
-89.796,68.538,KUGAARUK CLIMATE,2303094,NU,-31.8,0,NA,-17.7,0,-43.8,0,NA,NA,NA,2.4,0,NA,1,0,NA,NA,NA,1395.7,0,2014_02
-92.115,62.811,RANKIN INLET A,2303405,NU,-29.1,0,NA,-16.2,0,-39.3,0,6.8,0,NA,6.8,1,NA,52,1,NA,NA,NA,1317.9,0,2014_02
-102.429,65.1,ROBERTSON LAKE (AUT),2303610,NU,-29.9,1,NA,-14,1,-40.6,1,NA,NA,NA,0.6,9,NA,NA,0,NA,NA,NA,1292.1,0,2014_02
-93.433,68.817,SHEPHERD BAY A,2303685,NU,-33.8,0,NA,-16.6,0,-42.7,0,NA,NA,NA,NA,NA,NA,NA,NA,NA,NA,NA,1450.7,0,2014_02
-92.598,62.24,WHALE COVE A,2303986,NU,-27.7,7,1.6,-16,7,-38,7,2,7,NA,2,7,NA,NA,1,NA,NA,NA,959.6,0,2014_02
-119.219,69.276,CROKER RIVER,230J01Q,NU,-25.7,2,NA,-8.7,1,-36.3,2,NA,NA,NA,NA,NA,NA,NA,NA,NA,NA,NA,1136.5,0,2014_02
-111.246,65.755,LUPIN CS,230N002,NU,-23.6,17,NA,-14.6,16,-36.3,9,NA,NA,NA,0.9,22,NA,49,0,NA,NA,NA,457.6,0,2014_02
-62.333,82.5,ALERT CLIMATE,2400305,NU,-29,0,NA,-13,0,-44.5,0,NA,NA,NA,4,1,NA,21,0,NA,NA,NA,1316.6,0,2014_02
-62.333,82.5,ALERT UA,2400306,NU,NA,NA,NA,NA,NA,NA,NA,11.6,0,NA,7.2,0,NA,20,3,NA,NA,NA,NA,NA,2014_02
-85.012,72.993,ARCTIC BAY CS,2400404,NU,-32.5,0,NA,-18,0,-42.9,0,NA,NA,NA,2.4,3,NA,5,0,NA,NA,NA,1415.3,0,2014_02
-64.146,63.34,BREVOORT ISLAND,2400565,NU,-21,1,NA,-11.7,1,-27.2,1,NA,NA,NA,NA,NA,NA,NA,NA,NA,NA,NA,1052,0,2014_02
-63.789,67.536,FOX FIVE,2400570,NU,-23.3,1,NA,-12.4,1,-30.4,1,NA,NA,NA,NA,NA,NA,NA,NA,NA,NA,NA,1116.2,0,2014_02
-64.031,67.546,QIKIQTARJUAQ A,2400572,NU,-24.9,0,NA,-12.4,0,-36.2,0,7.5,0,NA,7.5,0,NA,40,2,NA,NA,NA,1201.1,0,2014_02
-64.033,67.547,QIKIQTARJUAQ CLIMATE,2400573,NU,-25,0,NA,-12.5,0,-36.8,0,NA,NA,NA,5.9,1,NA,44,2,NA,NA,NA,1202.8,0,2014_02
-64.032,67.547,QIKIQTARJUAQ A,2400577,NU,-24.6,2,NA,-12.4,1,-36.2,1,NA,NA,NA,0,3,NA,NA,0,NA,NA,NA,1108.6,0,2014_02
-105.138,69.108,CAMBRIDGE BAY A,2400600,NU,-30.6,0,1.9,-14.1,0,-40.3,0,0.8,0,13,0.8,0,16,19,0,NA,NA,NA,1361.4,0,2014_02
-105.138,69.108,CAMBRIDGE BAY GSN,2400602,NU,-30.5,0,NA,-14,0,-39.7,0,NA,NA,NA,5,0,NA,4,2,NA,NA,NA,1358.2,0,2014_02
-76.525,64.23,CAPE DORSET A,2400635,NU,-23,12,2.4,-16,12,-31.5,12,12.8,12,NA,12.8,12,NA,NA,2,NA,NA,NA,656,0,2014_02
-76.53,64.231,KINNGAIT,2400636,NU,-23,0,NA,-14.5,0,-31.9,0,NA,NA,NA,6.5,2,NA,NA,2,NA,NA,NA,1146.9,0,2014_02
-76.525,64.23,CAPE DORSET A,2400637,NU,-22.9,0,NA,-14.3,0,-31.5,0,NA,NA,NA,0.4,0,NA,NA,0,NA,NA,NA,1144.4,0,2014_02
-61.383,66.65,CAPE DYER,2400650,NU,-20.9,2,NA,-11,2,-30.8,2,NA,NA,NA,NA,NA,NA,NA,NA,NA,NA,NA,1012.1,0,2014_02
-66.815,68.473,CAPE HOOPER,2400660,NU,-23.7,2,NA,-14.7,2,-30.2,2,NA,NA,NA,NA,NA,NA,NA,NA,NA,NA,NA,1084.8,0,2014_02
-107.823,69.036,CAPE PEEL WEST,2400697,NU,-30.1,0,NA,-12.8,0,-41.2,0,NA,NA,NA,NA,NA,NA,NA,NA,NA,NA,NA,1347.9,0,2014_02
-68.517,70.483,CLYDE RIVER CLIMATE,2400802,NU,-27.3,1,NA,-11.2,1,-38.1,1,NA,NA,NA,3.4,2,NA,45,1,NA,NA,NA,1222.1,0,2014_02
-68.517,70.486,CLYDE RIVER A,2400804,NU,-27.5,2,NA,-11.2,2,-37.8,2,NA,NA,NA,3,2,NA,NA,2,NA,NA,NA,1182.5,0,2014_02
-63.578,64.958,CAPE MERCY,2400F63,NU,-21.1,3,NA,-11,3,-28.5,3,NA,NA,NA,NA,NA,NA,NA,NA,NA,NA,NA,978.6,0,2014_02
-71.167,68.65,DEWAR LAKES,2401030,NU,-25.5,0,NA,-9.2,0,-37.8,0,NA,NA,NA,NA,NA,NA,NA,NA,NA,NA,NA,1216.7,0,2014_02
-85.933,79.983,EUREKA A,2401200,NU,-39.1,0,-1.7,-21.7,0,-50.4,0,1.2,0,31,0.4,0,13,20,0,NA,NA,NA,1599,0,2014_02
-81.243,68.776,HALL BEACH A,2402350,NU,-29.9,0,2.6,-12.2,0,-40.2,0,5.2,0,86,5.2,0,109,25,3,NA,NA,NA,1341.7,0,2014_02
-82.902,76.423,GRISE FIORD CLIMATE,2402351,NU,-32.3,0,NA,-14.6,0,-42.9,0,NA,NA,NA,2.3,0,NA,11,0,NA,NA,NA,1407.5,0,2014_02
-81.244,68.776,SANIRAJAK,2402353,NU,-31.6,3,NA,-12.3,3,-40.5,3,NA,NA,NA,1.9,5,NA,25,0,NA,NA,NA,1241.1,0,2014_02
-81.243,68.776,HALL BEACH A,2402354,NU,-30.4,2,NA,-12.2,2,-40.2,2,NA,NA,NA,4.8,2,NA,NA,1,NA,NA,NA,1257.7,0,2014_02
-81.817,69.367,IGLOOLIK A,2402543,NU,-29.5,2,2.3,-17.5,2,-40,2,2,2,NA,2,2,NA,NA,1,NA,NA,NA,1234.9,0,2014_02
-68.55,63.75,IQALUIT AWOS,2402591,NU,-25.8,2,NA,-9.5,2,-33.6,2,NA,NA,NA,24.5,11,NA,NA,4,NA,NA,NA,1137.7,0,2014_02
-68.544,63.747,IQALUIT CLIMATE,2402592,NU,-25.8,0,NA,-9.4,0,-33.7,0,NA,NA,NA,129,1,NA,12,21,NA,NA,NA,1226.3,0,2014_02
-68.55,63.75,IQALUIT UA,2402594,NU,NA,NA,NA,NA,NA,NA,NA,13.6,11,NA,13.6,11,NA,NA,4,NA,NA,NA,NA,NA,2014_02
-103.554,78.792,ISACHSEN (AUT),2402604,NU,-30.1,22,NA,-21.5,22,-36.5,22,NA,NA,NA,0.2,24,NA,NA,0,NA,NA,NA,288.8,0,2014_02
-65.711,66.143,PANGNIRTUNG,2403049,NU,-23.3,0,NA,-5.7,0,-32.9,0,NA,NA,NA,5.1,2,NA,0,2,NA,NA,NA,1155.9,0,2014_02
-65.714,66.145,PANGNIRTUNG A,2403053,NU,-23.6,9,NA,-8.1,9,-32.5,9,8.2,9,NA,8.2,9,NA,NA,4,NA,NA,NA,790.5,0,2014_02
-77.969,72.689,POND INLET A,2403201,NU,NA,NA,NA,NA,NA,NA,NA,0.1,3,NA,0.1,3,NA,NA,0,NA,NA,NA,NA,NA,2014_02
-77.958,72.693,POND INLET CLIMATE,2403204,NU,-33.1,0,NA,-22.7,0,-42.6,0,NA,NA,NA,3.3,1,NA,13,1,NA,NA,NA,1429.5,0,2014_02
-77.969,72.689,POND INLET A,2403206,NU,-32.7,1,NA,-22.2,1,-41.6,0,NA,NA,NA,0.4,0,NA,NA,0,NA,NA,NA,1367.9,0,2014_02
-105.715,75.377,REA POINT,2403450,NU,-28,13,NA,-12.1,9,-41.6,11,NA,NA,NA,NA,NA,NA,NA,NA,NA,NA,NA,690,0,2014_02
-86.225,66.521,REPULSE BAY A,2403490,NU,-28.8,1,2.5,-18.3,1,-37.7,1,20,1,NA,20,1,NA,NA,4,NA,NA,NA,1264.7,0,2014_02
-94.969,74.717,RESOLUTE CARS,2403500,NU,-31.5,0,0.9,-15.6,0,-42.1,0,1.3,1,NA,1.3,1,NA,5,0,NA,NA,NA,1386.5,0,2014_02
-94.983,74.716,RESOLUTE CS,2403505,NU,-31.4,0,NA,-15.4,0,-42.1,0,NA,NA,NA,2,0,NA,3,0,NA,NA,NA,1382.5,0,2014_02
-79.033,69.083,ROWLEY ISLAND,2403625,NU,-26.2,0,NA,-13.9,0,-36,0,NA,NA,NA,NA,NA,NA,NA,NA,NA,NA,NA,1236.6,0,2014_02
-93.583,69.55,TALOYOAK A,2403854,NU,-32.3,1,1.4,-16.6,1,-40.5,1,5,1,NA,5,1,NA,NA,2,NA,NA,NA,1357.1,0,2014_02
-119.989,74.139,NANGMAGVIK LAKE,2500440,NT,-36.9,27,NA,-10.2,18,-39.6,27,NA,NA,NA,NA,NA,NA,25,NA,NA,NA,NA,54.9,0,2014_02
-117.8,70.761,HOLMAN CS,2502505,NT,-27.8,0,NA,-9,0,-38.5,0,NA,NA,NA,3.4,0,NA,17,0,NA,NA,NA,1281,0,2014_02
-125.254,71.993,SACHS HARBOUR CLIMATE,2503648,NT,-26.4,2,NA,-8.8,2,-36.1,1,NA,NA,NA,1,4,NA,5,0,NA,NA,NA,1153.4,0,2014_02
-119.538,73.231,THOMSEN RIVER,2503886,NT,-30.8,0,NA,-9.7,0,-39.8,0,NA,NA,NA,NA,NA,NA,21,NA,NA,NA,NA,1365.9,0,2014_02
-112.967,54.283,ABEE AGDM,3010010,AB,-18.6,0,NA,1.5,0,-37.3,0,NA,NA,NA,11,4,NA,NA,5,NA,NA,NA,1023.5,0,2014_02
-111.181,53.113,ALBERT HALL AGCM,3010060,AB,-18,0,NA,1.5,0,-35.7,0,NA,NA,NA,6,0,NA,NA,2,NA,NA,NA,1009.2,0,2014_02
-111.779,52.315,ALLIANCE AGCM,3010162,AB,-17.3,0,NA,2.4,0,-34,0,NA,NA,NA,10.6,2,NA,NA,1,NA,NA,NA,988.5,0,2014_02
-112.233,54.017,ANDREW,3010234,AB,-17.5,2,-6.9,-1,2,-33,2,13.5,2,NA,13.5,2,NA,NA,6,NA,NA,NA,923.5,0,2014_02
-112.279,53.917,ANDREW AGDM,3010237,AB,-17.8,0,NA,0.6,0,-35.4,0,NA,NA,NA,5.3,1,NA,NA,2,NA,NA,NA,1001.9,0,2014_02
-111.465,52.582,BELLSHILL AGCM,3010650,AB,-16.8,0,NA,1,0,-32.5,0,NA,NA,NA,4.7,4,NA,NA,1,NA,NA,NA,975.7,0,2014_02
-110.101,52.124,BODO AGDM,3010730,AB,-17,0,NA,3.4,0,-33.6,0,NA,NA,NA,5.6,0,NA,NA,2,NA,NA,NA,979.9,0,2014_02
-114.483,53.167,BRETON,3010815,AB,-13.6,0,NA,6,0,-33.5,0,10,0,NA,2,0,NA,86,1,NA,NA,NA,884.6,0,2014_02
-114.441,53.089,BRETON PLOTS,3010816,AB,-14.4,0,NA,6.9,0,-32.3,0,NA,NA,NA,6.9,0,NA,NA,2,NA,NA,NA,906.8,0,2014_02
-113.889,53.997,BUSBY,3010978,AB,-17.2,4,NA,4.5,3,-30.5,3,13,0,NA,13,0,NA,29,5,NA,NA,NA,844.7,0,2014_02
-113.922,53.931,BUSBY AGCM,3010979,AB,-17,0,NA,3,0,-32.3,0,NA,NA,NA,22.6,0,NA,NA,10,NA,NA,NA,980.3,0,2014_02
-110.51,52.334,CADOGAN AGCM,3010992,AB,-17,0,NA,2.7,0,-32.4,0,NA,NA,NA,4.6,3,NA,NA,1,NA,NA,NA,980.5,0,2014_02
-112.817,53.05,CAMROSE,3011240,AB,-16.8,0,-7.2,3,0,-32.2,0,NA,NA,NA,2.5,0,18,17,1,NA,NA,NA,975.6,0,2014_02
-114.654,53.234,CARNWOOD,3011350,AB,-15.8,0,NA,5,0,-36,0,4,0,NA,4,0,NA,48,3,NA,NA,NA,945.5,0,2014_02
-110.713,51.937,CONSORT AGDM,3011815,AB,-17.7,1,NA,1,1,-34.5,1,NA,NA,NA,8.1,9,NA,NA,1,NA,NA,NA,962.9,0,2014_02
-111.449,52.074,CORONATION CLIMATE,3011887,AB,-18.3,1,NA,0.8,1,-34.3,1,NA,NA,NA,6.2,1,NA,13,1,NA,NA,NA,980.6,0,2014_02
-113.903,52.733,CRESTOMERE AGCM,3011892,AB,-16.1,0,NA,3.8,0,-33.6,0,NA,NA,NA,5.5,2,NA,NA,1,NA,NA,NA,955.1,0,2014_02
-113.95,52.75,DAKOTA WEST,3011953,AB,-14.6,3,-6.9,5,3,-32,3,9,3,NA,9,3,NA,NA,1,NA,NA,NA,814.5,0,2014_02
-110.588,53.659,DEWBERRY AGCM,3012073,AB,-18.1,0,NA,0.7,0,-34.4,0,NA,NA,NA,7.6,5,NA,NA,3,NA,NA,NA,1010.6,0,2014_02
-112.351,52.517,DONALDA SOUTH,3012095,AB,-17.5,0,NA,2.5,0,-36,0,20,0,NA,20,0,NA,32,4,NA,NA,NA,995.2,0,2014_02
-110.433,52.778,EDGERTON AGCM,3012192,AB,-17.9,0,NA,1.1,0,-33.5,0,NA,NA,NA,5.7,2,NA,NA,2,NA,NA,NA,1004.3,0,2014_02
-113.519,53.572,EDMONTON CITY CENTRE AWOS,3012202,AB,-14.7,0,NA,4,0,-27.6,0,NA,NA,NA,4,1,NA,NA,2,NA,NA,NA,915.6,0,2014_02
-113.606,53.307,EDMONTON INTERNATIONAL CS,3012206,AB,-17.3,0,NA,2.9,0,-35.9,0,NA,NA,NA,5.8,0,NA,10,1,NA,NA,NA,989.6,0,2014_02
-113.517,53.573,EDMONTON BLATCHFORD,3012209,AB,-14.7,0,NA,4.1,0,-27.4,0,NA,NA,NA,NA,NA,NA,NA,NA,NA,NA,NA,916.2,0,2014_02
-113.467,53.667,EDMONTON NAMAO AWOS A,3012212,AB,-16.2,0,NA,3.4,0,-31.1,0,NA,NA,NA,3,1,NA,NA,1,NA,NA,NA,956.7,0,2014_02
-113.579,53.31,EDMONTON INTL A,3012216,AB,-17.4,0,NA,1.1,0,-35.6,0,9.9,2,NA,7.9,0,NA,25,1,NA,NA,NA,992.3,0,2014_02
-113.856,53.668,EDMONTON VILLENEUVE A,3012229,AB,-16.2,0,NA,3.8,0,-32.1,0,NA,NA,NA,2.9,0,NA,NA,1,NA,NA,NA,957.3,0,2014_02
-114.108,53.548,EDMONTON STONY PLAIN,301222F,AB,-14.3,0,-7,5.2,0,-28.9,0,19.4,0,124,12.2,0,84,26,2,NA,NA,NA,905.6,0,2014_02
-113.75,53.417,EDMONTON WOODBEND,3012230,AB,-15.7,0,-7.1,4,0,-33,0,13.6,0,97,13.6,0,95,34,2,NA,NA,NA,942.2,0,2014_02
-112.868,53.683,ELK ISLAND NAT PARK,3012275,AB,-15.2,0,-5.9,5.8,0,-33.2,0,NA,NA,NA,10.2,0,90,36,2,NA,NA,NA,929.2,0,2014_02
-111,52.967,FABYAN,3012515,AB,-18,0,-6.6,1,0,-35,0,10.5,0,101,10.5,0,100,0,6,NA,NA,NA,1008.6,0,2014_02
-112.858,52.744,FERINTOSH AGCM,3012590,AB,-16.1,5,NA,2.1,5,-35,1,NA,NA,NA,8.5,11,NA,NA,3,NA,NA,NA,783.7,0,2014_02
-112.12,52.467,FORESTBURG PLANT SITE,3012652,AB,-15.4,0,-7.9,4,0,-34,0,24.4,0,263,24.4,0,262,0,4,NA,NA,NA,933.8,0,2014_02
-112.123,52.548,FORESTBURG AGCM,3012653,AB,-16.8,1,NA,1.5,1,-34.5,0,NA,NA,NA,9.4,7,NA,NA,1,NA,NA,NA,938.7,0,2014_02
-113.183,53.717,FORT SASKATCHEWAN,3012710,AB,-16.1,15,-6.7,5,15,-31,15,27.5,15,NA,27.5,15,NA,0,4,NA,NA,NA,442.8,0,2014_02
-110.621,53.071,GILT EDGE NORTH AGCM,3012790,AB,-17,3,NA,0.4,3,-32.4,3,NA,NA,NA,9.6,6,NA,NA,2,NA,NA,NA,875.7,0,2014_02
-114.539,53.833,GLENEVIS AGCM,3012818,AB,-14.9,1,NA,6.2,1,-32.3,1,NA,NA,NA,27.3,10,NA,NA,5,NA,NA,NA,887.9,0,2014_02
-112.164,52.116,HALKIRK AGCM,3012999,AB,-18,0,NA,1.6,0,-35.1,0,NA,NA,NA,14.1,5,NA,NA,4,NA,NA,NA,1007.2,0,2014_02
-111.212,51.78,HEMARUKA AGCM,3013140,AB,-19.1,1,NA,1.4,1,-35.5,1,NA,NA,NA,9.4,7,NA,NA,1,NA,NA,NA,1002,0,2014_02
-112.246,53.185,HOLDEN AGDM,3013340,AB,-17.6,2,NA,2.3,2,-33.9,1,NA,NA,NA,NA,NA,NA,NA,NA,NA,NA,NA,925.3,0,2014_02
-110.784,52.578,HUGHENDEN AGCM,3013362,AB,-17.5,1,NA,0.8,1,-32.4,1,NA,NA,NA,2.1,8,NA,NA,0,NA,NA,NA,957.4,0,2014_02
-111.872,52.848,KILLAM AGDM,3013640,AB,-16.6,3,NA,1,3,-34.6,3,NA,NA,NA,24.9,6,NA,NA,14,NA,NA,NA,865.9,0,2014_02
-111.113,52.29,KESSLER AGCM,3013644,AB,-17.3,0,NA,2.6,0,-35,0,NA,NA,NA,1.8,7,NA,NA,0,NA,NA,NA,988.7,0,2014_02
-110.416,53.353,KITSCOTY AGCM,3013660,AB,-14.5,11,NA,-0.7,9,-22.9,10,NA,NA,NA,1.4,20,NA,NA,1,NA,NA,NA,552.2,0,2014_02
-113.474,54.003,LEGAL AGCM,3013790,AB,-16.8,1,NA,1.9,1,-31.6,1,NA,NA,NA,7.9,12,NA,NA,3,NA,NA,NA,938.6,0,2014_02
-110.579,53.943,LINDBERGH AGDM,3013921,AB,-18.6,2,NA,-0.1,2,-34.9,2,NA,NA,NA,45.1,8,NA,NA,12,NA,NA,NA,950.5,0,2014_02
-110.073,53.309,LLOYDMINSTER,3013959,AB,-18,0,NA,-1.1,0,-32.4,0,NA,NA,NA,2.5,0,NA,NA,1,NA,NA,NA,1007.9,0,2014_02
-110.073,53.309,LLOYDMINSTER A,3013961,AB,-18,0,-6.2,-1.4,0,-30.9,0,14,0,142,12.6,0,128,22,4,NA,NA,NA,1007.3,0,2014_02
-112.267,53.083,HOLDEN SOUTH,3013C44,AB,NA,NA,NA,NA,NA,NA,NA,5.6,0,53,5.6,0,52,33,3,NA,NA,NA,NA,NA,2014_02
-111.255,53.456,MANNVILLE AGCM,3014195,AB,-17.6,0,NA,0.9,0,-32.2,0,NA,NA,NA,10.3,0,NA,NA,3,NA,NA,NA,996.2,0,2014_02
-110.55,52.017,MONITOR,3014600,AB,NA,NA,NA,NA,NA,NA,NA,12.2,0,140,12.2,0,138,0,3,NA,NA,NA,NA,NA,2014_02
-112.3,53.567,MUNDARE AGDM,3014665,AB,-16.4,0,NA,3.3,0,-31.3,0,NA,NA,NA,5.2,2,NA,1,2,NA,NA,NA,962.9,0,2014_02
-111.114,53.72,MYRNAM AGCM,3014690,AB,-18.6,0,NA,1.4,0,-38.2,0,NA,NA,NA,6.3,4,NA,NA,3,NA,NA,NA,1025.8,0,2014_02
-113.165,53.262,NEW SEREPTA AGCM,3014795,AB,-16.7,0,NA,5.1,0,-32.3,0,NA,NA,NA,5.9,1,NA,NA,1,NA,NA,NA,970.4,0,2014_02
-113.35,53.65,OLIVER AGDM,3014921,AB,-16.5,0,NA,4.7,0,-33,0,NA,NA,NA,NA,NA,NA,NA,NA,NA,NA,NA,966.7,0,2014_02
-112.879,53.995,RADWAY AGCM,3015346,AB,-17.2,0,NA,3.2,0,-34.5,0,NA,NA,NA,NA,NA,NA,NA,NA,NA,NA,NA,985.8,0,2014_02
-111.726,53.425,RANFURLY AUTO,3015401,AB,-17.4,0,NA,0.7,0,-32.5,0,NA,NA,NA,6.7,0,NA,6,3,NA,NA,NA,991.3,0,2014_02
-111.733,53.417,RANFURLY 2NW,3015405,AB,-17.3,1,-6.9,2.5,1,-32,1,21.4,1,NA,21.4,1,NA,0,5,NA,NA,NA,954.2,0,2014_02
-110.343,52.587,RIBSTONE SOUTH AGCM,3015480,AB,-17.3,0,NA,1.6,0,-33.8,0,NA,NA,NA,4.8,7,NA,NA,2,NA,NA,NA,988,0,2014_02
-110.102,53.019,RIVERCOURSE AGCM,3015501,AB,-18.6,0,NA,-0.6,0,-33.1,0,NA,NA,NA,6.7,2,NA,NA,2,NA,NA,NA,1024.1,0,2014_02
-114.912,52.421,ROCKY MTN HOUSE (AUT),3015523,AB,-17.1,1,NA,3.6,1,-36.7,1,NA,NA,NA,2.4,1,NA,46,0,NA,NA,NA,948.9,0,2014_02
-112.428,52.78,ROSALIND AGCM,3015600,AB,-17.3,0,NA,1,0,-33.8,0,NA,NA,NA,1.8,10,NA,NA,0,NA,NA,NA,989.6,0,2014_02
-111.453,54.282,ST. LINA AGCM,3015673,AB,-17.1,1,NA,2.6,1,-34,1,NA,NA,NA,12.5,7,NA,NA,5,NA,NA,NA,946.5,0,2014_02
-111.272,54.011,ST. PAUL AGCM,3015676,AB,-19.1,0,NA,-1.6,0,-35.7,0,NA,NA,NA,NA,NA,NA,NA,NA,NA,NA,NA,1038.1,0,2014_02
-110.755,51.59,SEDALIA AGCM,3015797,AB,-17.8,1,NA,2.9,1,-34.5,1,NA,NA,NA,7.5,8,NA,NA,1,NA,NA,NA,966.6,0,2014_02
-111.7,52.783,SEDGEWICK TOWN,3015808,AB,-16.4,7,-5.4,4,4,-32,4,0,4,NA,0,4,NA,0,0,NA,NA,NA,721.5,0,2014_02
-112.539,53.333,SHONTS AGCM,3015900,AB,-16.8,0,NA,2.2,0,-33.8,0,NA,NA,NA,3.3,2,NA,NA,0,NA,NA,NA,973.6,0,2014_02
-112.499,54.278,SMOKY LAKE AGDM,3016022,AB,-17.8,0,NA,1,0,-36.3,0,NA,NA,NA,8.2,2,NA,NA,2,NA,NA,NA,1001,0,2014_02
-111.683,51.816,SPONDIN AGCM,3016070,AB,-18.3,0,NA,2.3,0,-34.6,0,NA,NA,NA,6.2,10,NA,NA,1,NA,NA,NA,1016.8,0,2014_02
-112.596,52.347,STETTLER AGDM,3016124,AB,-16,0,NA,3,0,-32.2,0,NA,NA,NA,32.7,2,NA,NA,12,NA,NA,NA,951,0,2014_02
-113.895,53.217,THORSBY AGCM,3016441,AB,-16.1,0,NA,4.5,0,-32.4,0,NA,NA,NA,4.1,5,NA,NA,1,NA,NA,NA,953.7,0,2014_02
-114.718,53.439,TOMAHAWK AGDM,3016505,AB,-14.3,0,NA,5,0,-31.4,0,NA,NA,NA,34.6,1,NA,NA,18,NA,NA,NA,904.8,0,2014_02
-110.081,53.664,TULLIBY LAKE AGCM,3016593,AB,-18.6,0,NA,-1.8,0,-36.4,0,NA,NA,NA,9.3,2,NA,NA,4,NA,NA,NA,1023.4,0,2014_02
-113.033,53.5,UNCAS,3016650,AB,NA,NA,NA,NA,NA,NA,NA,16.7,0,NA,16.7,0,NA,29,3,NA,NA,NA,NA,NA,2014_02
-111.678,53.625,TWO HILLS AGDM,3016655,AB,-16.6,3,NA,-0.3,3,-30.3,3,NA,NA,NA,6.5,7,NA,NA,2,NA,NA,NA,866.2,0,2014_02
-110.882,53.344,VERMILION AGDM,3016802,AB,-18,0,NA,-0.6,0,-34.2,0,NA,NA,NA,7,3,NA,NA,3,NA,NA,NA,1008.1,0,2014_02
-111.732,53.182,VIKING AGCM,3016841,AB,-17.3,0,NA,0.4,0,-31.7,0,NA,NA,NA,4.2,9,NA,NA,2,NA,NA,NA,987.9,0,2014_02
-111.767,53.283,VIKING NORTH 3,3016845,AB,-18,0,NA,2.5,0,-34,0,11.3,0,NA,11.3,0,NA,46,5,NA,NA,NA,1007.1,0,2014_02
-111.921,54.13,VILNA AGCM,3016852,AB,-17.3,2,NA,0.8,2,-34.2,2,NA,NA,NA,7.4,7,NA,NA,2,NA,NA,NA,918.7,0,2014_02
-115.126,53.144,VIOLET GROVE CS,3016860,AB,-13.5,0,NA,6.4,0,-32.2,0,NA,NA,NA,3.9,0,NA,42,0,NA,NA,NA,881,0,2014_02
-112.098,53.505,VEGREVILLE,3016GF0,AB,-17.6,0,-6.8,1.9,0,-35.3,0,NA,NA,NA,NA,NA,NA,21,NA,NA,NA,NA,995.9,0,2014_02
-113.444,52.98,WETASKIWIN AGCM,3017282,AB,-16.4,1,NA,2.9,1,-33.4,0,NA,NA,NA,10.9,9,NA,NA,2,NA,NA,NA,927.7,0,2014_02
-114.108,53.547,EDMONTON STONY PLAIN CS,301A001,AB,-14.7,0,NA,4.1,0,-28.7,0,NA,NA,NA,12.2,0,NA,26,2,NA,NA,NA,914.5,0,2014_02
-110.206,51.67,ESTHER 1,301B460,AB,-17.1,0,NA,3.6,0,-35.7,0,NA,NA,NA,8.5,0,NA,NA,1,NA,NA,NA,983.6,0,2014_02
-113.533,53.517,UNIVERSITY OF ALBERTA METABOLIC CENTRE,301FFNJ,AB,-16.1,13,-7.6,4,9,-30,9,5,0,51,5,0,51,0,4,NA,NA,NA,511.5,0,2014_02
-111.096,52.829,WAINWRIGHT CFB AIRFIELD 21,301S001,AB,-17.9,0,NA,0.2,0,-34,0,NA,NA,NA,6.5,0,NA,5,2,NA,NA,NA,1004,0,2014_02
-110.317,51.066,ACADIA VALLEY,3020035,AB,-15.9,0,NA,4.4,0,-33.4,0,NA,NA,NA,4.4,11,NA,NA,1,NA,NA,NA,950.3,0,2014_02
-111.006,50.81,ATLEE AGCM,3020405,AB,-15.8,0,NA,3.6,0,-32.1,0,NA,NA,NA,2.5,8,NA,NA,0,NA,NA,NA,945.4,0,2014_02
-113.357,51.379,BEISEKER AGCM,3020610,AB,-17.6,2,NA,4.5,2,-35.3,0,NA,NA,NA,1.2,3,NA,NA,0,NA,NA,NA,925.7,0,2014_02
-112.803,51.998,BIG VALLEY AGCM,3020679,AB,-16.3,1,NA,3.9,1,-30.6,1,NA,NA,NA,2.8,4,NA,NA,1,NA,NA,NA,926.1,0,2014_02
-112.252,51.775,CRAIGMYLE AGCM,3021912,AB,-17.3,0,NA,3,0,-34.9,0,NA,NA,NA,3.4,4,NA,NA,1,NA,NA,NA,989,0,2014_02
-112.283,51.767,CRAIGMYLE,3021940,AB,-17.9,0,-9.2,3,0,-34,0,8.5,0,68,8.5,0,67,0,6,NA,NA,NA,1005.7,0,2014_02
-112.677,51.445,DRUMHELLER EAST,30221LG,AB,-15.9,0,NA,7.5,0,-33.3,0,NA,NA,NA,NA,NA,NA,NA,NA,NA,NA,NA,950.4,0,2014_02
-114.486,52.31,HESPERO AGCM,3023200,AB,-16.9,1,NA,5.2,1,-35.9,0,NA,NA,NA,1.5,13,NA,NA,1,NA,NA,NA,942.8,0,2014_02
-112.5,51.183,HUSSAR AGDM,3023402,AB,-15.1,0,NA,2.3,0,-31,0,NA,NA,NA,0.8,4,NA,NA,0,NA,NA,NA,927.7,0,2014_02
-113.756,52.449,LACOMBE CDA 2,3023722,AB,-15.9,2,NA,5.2,2,-33.7,2,NA,NA,NA,4.1,2,NA,NA,1,NA,NA,NA,880.1,0,2014_02
-114.473,52.553,LEEDALE AGDM,3023740,AB,-17.5,0,NA,5.4,0,-36.9,0,NA,NA,NA,3,3,NA,3,0,NA,NA,NA,995.1,0,2014_02
-113.656,51.619,LINDEN AGCM,3023850,AB,-17.6,0,NA,4.4,0,-35.9,0,NA,NA,NA,1.8,3,NA,NA,0,NA,NA,NA,995.9,0,2014_02
-112.675,51.66,MORRIN AGDM,3024668,AB,-17,0,NA,3.8,0,-32.5,0,NA,NA,NA,7.9,5,NA,NA,2,NA,NA,NA,980.6,0,2014_02
-114.1,51.783,OLDS,3024920,AB,-13.7,0,-6.8,5.5,0,-31,0,3.5,0,24,3.5,0,24,67,2,NA,NA,NA,888.1,0,2014_02
-114.085,51.759,OLDS AGDM,3024925,AB,-15.2,0,NA,6.1,0,-31.2,0,NA,NA,NA,15.4,4,NA,NA,8,NA,NA,NA,928.5,0,2014_02
-110.472,51.353,OYEN CARA,3024962,AB,-16.6,4,NA,4,3,-35,3,1,0,NA,1,0,NA,0,1,NA,NA,NA,830.4,0,2014_02
-110.35,51.383,OYEN AGDM,3024965,AB,-17.1,1,NA,2.8,1,-33.6,1,NA,NA,NA,7.4,5,NA,NA,1,NA,NA,NA,947.7,0,2014_02
-111.705,51.125,POLLOCKVILLE AGDM,3025243,AB,-17.6,0,NA,3.2,0,-34.6,0,NA,NA,NA,1.9,6,NA,NA,1,NA,NA,NA,996.4,0,2014_02
-113.6,52.433,PRENTISS,3025297,AB,-15,1,NA,3.7,1,-30.1,1,NA,NA,NA,46.4,2,NA,NA,15,NA,NA,NA,890.6,0,2014_02
-113.893,52.179,RED DEER A,3025480,AB,-17.5,0,-8.4,4.6,0,-34.4,0,2.6,0,18,2.2,0,18,30,0,NA,NA,NA,993.9,0,2014_02
-110.091,50.307,SCHULER AGDM,3025768,AB,-14,1,NA,5.3,1,-30.5,1,NA,NA,NA,6.9,6,NA,NA,1,NA,NA,NA,863.4,0,2014_02
-110.146,51.425,SIBBALD WESTGARD,3025928,AB,-18.3,2,NA,3.5,2,-36.5,2,21,2,NA,21,2,NA,25,3,NA,NA,NA,944.6,0,2014_02
-112.959,51.492,SLEEPY HOLLOW,3026009,AB,-22.1,22,-13,3,15,-35,15,2,15,NA,2,15,NA,0,1,NA,NA,NA,240.5,0,2014_02
-113.206,51.768,THREE HILLS,3026479,AB,-17,0,NA,3,0,-33.5,0,NA,NA,NA,0.8,10,NA,NA,0,NA,NA,NA,979.1,0,2014_02
-114.683,51.778,SUNDRE A,3026KNQ,AB,-16,0,NA,7.7,0,-37.9,0,NA,NA,NA,6.4,0,NA,29,0,NA,NA,NA,952.2,0,2014_02
-113.591,51.936,WIMBORNE AGCM,3027582,AB,-13,9,NA,4.8,8,-31.9,5,NA,NA,NA,0,15,NA,NA,0,NA,NA,NA,588.3,0,2014_02
-114.013,50.512,AZURE,3030450,AB,-12,0,NA,8.3,0,-29.9,0,NA,NA,NA,11.8,8,NA,NA,5,NA,NA,NA,838.7,0,2014_02
-112.3,49.8,BARNWELL AGDM,3030525,AB,-10.6,1,NA,8.4,1,-30.2,1,NA,NA,NA,3.4,4,NA,NA,1,NA,NA,NA,771.9,0,2014_02
-113.224,50.026,BARONS AGCM,3030529,AB,-11.2,2,NA,7.8,2,-32.6,2,NA,NA,NA,6.3,3,NA,NA,1,NA,NA,NA,759.6,0,2014_02
-112.465,50.893,BASSANO AGCM,3030540,AB,-16.5,1,NA,3.7,1,-32.7,0,NA,NA,NA,0.4,8,NA,NA,0,NA,NA,NA,931.7,0,2014_02
-114.152,50.707,BLACK DIAMOND,3030680,AB,-14,1,NA,5.3,1,-33.9,1,NA,NA,NA,1.5,13,NA,NA,1,NA,NA,NA,863.5,0,2014_02
-113.05,49.567,BLOOD TRIBE AGDM,3030720,AB,-12.4,4,NA,7.6,4,-31.6,4,NA,NA,NA,0.9,17,NA,NA,0,NA,NA,NA,730.3,0,2014_02
-111.45,49.734,BOW ISLAND,3030768,AB,-11.4,0,NA,8.2,0,-29.3,0,NA,NA,NA,4.6,0,NA,NA,0,NA,NA,NA,822.6,0,2014_02
-111.366,49.868,BOW ISLAND IRRIGATION AGDM,3030772,AB,-11.7,0,NA,6.8,0,-29.1,0,NA,NA,NA,4,4,NA,NA,1,NA,NA,NA,832.1,0,2014_02
-113.817,49.617,BROCKET AGDM,3030830,AB,-9.8,3,NA,7.2,3,-29.8,3,NA,NA,NA,9.7,3,NA,NA,4,NA,NA,NA,695.3,0,2014_02
-111.849,50.555,BROOKS,3030QLP,AB,-14.9,0,NA,5.5,0,-31.1,0,NA,NA,NA,1.2,0,NA,9,0,NA,NA,NA,920.7,0,2014_02
-114.013,51.123,CALGARY INTL A,3031092,AB,-12.2,0,NA,5.9,0,-28.2,0,6.4,0,NA,4.2,0,NA,0,2,NA,NA,NA,844.7,0,2014_02
-114,51.109,CALGARY INT'L CS,3031094,AB,-12.1,0,NA,5.5,0,-27.6,0,NA,NA,NA,3.5,0,NA,5,1,NA,NA,NA,842.1,0,2014_02
-113.286,49.201,CARDSTON,3031322,AB,-10.2,2,NA,7.2,2,-28.4,2,NA,NA,NA,13.7,2,NA,NA,4,NA,NA,NA,733.5,0,2014_02
-113.376,49.001,CARWAY,3031402,AB,-11.4,1,NA,6.9,1,-32.2,1,NA,NA,NA,25.1,1,NA,25,7,NA,NA,NA,793,0,2014_02
-113.35,50.282,CHAMPION AGDM,3031480,AB,-12.9,3,NA,7,3,-32.4,3,NA,NA,NA,0.8,17,NA,NA,0,NA,NA,NA,773.1,0,2014_02
-113.639,50.004,CLARESHOLM,3031640,AB,-11.3,0,NA,7.8,0,-34.7,0,NA,NA,NA,10.1,0,NA,3,4,NA,NA,NA,819.7,0,2014_02
-114.222,51.076,COP UPPER,3031875,AB,-9.7,5,NA,5.3,5,-27.8,5,NA,NA,NA,1.9,5,NA,NA,1,NA,NA,NA,637.4,0,2014_02
-112.433,50.183,ENCHANT AGDM,3032422,AB,-11.3,1,NA,8,1,-30,0,NA,NA,NA,2.8,8,NA,NA,1,NA,NA,NA,790.5,0,2014_02
-111.054,49.553,ETZIKOM AGCM,3032450,AB,-12.5,0,NA,6.7,0,-32.5,0,NA,NA,NA,3.6,1,NA,NA,0,NA,NA,NA,853,0,2014_02
-112.033,49.8,FINCASTLE AGDM,3032550,AB,-10.7,1,NA,8,1,-30.6,1,NA,NA,NA,2.9,6,NA,NA,0,NA,NA,NA,775.7,0,2014_02
-111.486,49.483,FOREMOST AGDM,3032642,AB,-11.4,0,NA,6.6,0,-29.3,0,NA,NA,NA,3,8,NA,NA,0,NA,NA,NA,823.9,0,2014_02
-113.379,49.786,FORT MACLEOD AGCM,3032683,AB,-10.2,4,NA,8,4,-32.6,4,NA,NA,NA,3.5,7,NA,NA,1,NA,NA,NA,677.3,0,2014_02
-112.941,50.934,GLEICHEN AGCM,3032801,AB,-15.8,0,NA,3.3,0,-31.2,0,NA,NA,NA,1.6,4,NA,NA,0,NA,NA,NA,946.6,0,2014_02
-113.524,49.334,GLENWOOD,3032818,AB,-10.4,3,NA,5.5,3,-30.5,2,NA,NA,NA,10.2,13,NA,NA,5,NA,NA,NA,708.9,0,2014_02
-111.733,49.874,GRASSY LAKE,3032927,AB,-11.1,1,NA,7.9,1,-29.4,1,NA,NA,NA,3.3,5,NA,NA,1,NA,NA,NA,786.5,0,2014_02
-112.733,49.9,IRON SPRINGS AGDM,3033498,AB,-10.6,0,NA,7.4,0,-29.3,0,NA,NA,NA,0,27,NA,NA,0,NA,NA,NA,800.3,0,2014_02
-110.261,49.989,IRVINE AGCM,3033550,AB,-12,0,NA,6.9,0,-28.9,0,NA,NA,NA,1.6,4,NA,NA,0,NA,NA,NA,840.4,0,2014_02
-112.799,49.63,LETHBRIDGE,3033875,AB,-12.1,6,NA,7.6,6,-32.7,6,NA,NA,NA,0.2,6,NA,NA,0,NA,NA,NA,661.5,0,2014_02
-112.768,49.695,LETHBRIDGE CDA,3033890,AB,-9.8,0,NA,8.7,0,-30.2,0,NA,NA,NA,0,6,NA,NA,0,NA,NA,NA,779,0,2014_02
-112.783,49.7,LETHBRIDGE CDA 2,3033892,AB,NA,NA,NA,NA,NA,NA,NA,7.8,1,NA,6.7,1,NA,3,3,NA,NA,NA,NA,NA,2014_02
-112.75,49.683,LETHBRIDGE DEMO FARM AGDM,3033897,AB,-9.7,6,NA,7.9,6,-31,6,NA,NA,NA,3.6,11,NA,NA,1,NA,NA,NA,609.8,0,2014_02
-110.721,50.019,MEDICINE HAT,3034479,AB,-11.3,1,NA,8,1,-29.3,0,NA,NA,NA,0,2,NA,NA,0,NA,NA,NA,790,0,2014_02
-110.717,50.025,MEDICINE HAT RCS,3034485,AB,-11.5,0,NA,7.8,0,-29.5,0,NA,NA,NA,1.8,0,NA,0,0,NA,NA,NA,827.1,0,2014_02
-113.349,50.673,MOSSLEIGH AGCM,3034577,AB,-15.1,0,NA,3.8,0,-34.3,0,NA,NA,NA,3,5,NA,NA,0,NA,NA,NA,927.8,0,2014_02
-113.594,49.132,MOUNTAIN VIEW VILLAGE,3034725,AB,-11.5,12,NA,12.5,9,-36,12,31.8,5,NA,31.8,5,NA,12,7,NA,NA,NA,471.7,0,2014_02
-114.099,51.369,NIER AGDM,3034795,AB,-12.8,0,NA,5.4,0,-29.4,0,NA,NA,NA,2.2,4,NA,NA,0,NA,NA,NA,862,0,2014_02
-113.997,49.521,PINCHER CREEK,3035198,AB,-12.6,5,NA,4.4,5,-31.1,5,NA,NA,NA,5.7,5,NA,NA,2,NA,NA,NA,704.7,0,2014_02
-114.005,49.522,PINCHER CREEK CLIMATE,3035208,AB,-11.3,0,NA,5.6,0,-31.6,0,NA,NA,NA,19.1,0,NA,6,6,NA,NA,NA,819.3,0,2014_02
-112.983,50.606,QUEENSTOWN,3035340,AB,-13.7,0,-8.1,4.5,0,-32,0,3,0,19,3,0,19,0,2,NA,NA,NA,886.7,0,2014_02
-112.803,50.598,QUEENSTOWN,3035342,AB,-14.4,0,NA,4.8,0,-30.2,0,NA,NA,NA,6.3,2,NA,NA,1,NA,NA,NA,906.3,0,2014_02
-112.683,49.483,RAYMOND AGDM,3035422,AB,-10.9,0,NA,7.5,0,-31.2,0,NA,NA,NA,2.7,13,NA,NA,1,NA,NA,NA,808.6,0,2014_02
-111.701,50.265,ROLLING HILLS AGCM,3035530,AB,-13.8,0,NA,7.5,0,-30.8,0,NA,NA,NA,1.2,8,NA,NA,0,NA,NA,NA,890.1,0,2014_02
-112.05,50.833,ROSEMARY AGDM,3035650,AB,-17.6,0,NA,3.9,0,-35.1,0,NA,NA,NA,2.3,17,NA,NA,0,NA,NA,NA,996.5,0,2014_02
-110.917,49.917,SEVEN PERSONS AGDM,3035845,AB,-11.9,1,NA,7.1,1,-29.8,1,NA,NA,NA,2.4,8,NA,NA,0,NA,NA,NA,808.1,0,2014_02
-114.371,51.105,CALGARY SPRINGBANK A,3036077,AB,-19.8,16,NA,2.9,16,-33.2,15,NA,NA,NA,NA,NA,NA,NA,NA,NA,NA,NA,453,0,2014_02
-112.982,51.228,STANDARD AGCM,3036086,AB,-14.9,0,NA,2.9,0,-30.2,0,NA,NA,NA,4.4,0,NA,NA,1,NA,NA,NA,920,0,2014_02
-113.883,50.183,STAVELY AAFC,3036099,AB,-10.6,3,NA,5.3,3,-27.7,3,NA,NA,NA,15.3,3,NA,NA,8,NA,NA,NA,714.1,0,2014_02
-113.283,51.033,STRATHMORE AGDM,3036205,AB,-15.5,1,NA,2.8,1,-30.2,1,NA,NA,NA,2.4,7,NA,NA,1,NA,NA,NA,904.9,0,2014_02
-112.124,49.792,TABER,3036360,AB,-9.2,15,NA,9,10,-27.5,10,5,10,NA,5,10,NA,0,4,NA,NA,NA,353.4,0,2014_02
-112.863,50.304,TRAVERS AGCM,3036500,AB,-12,0,NA,5.7,0,-28.1,0,NA,NA,NA,3.9,2,NA,NA,1,NA,NA,NA,841.2,0,2014_02
-112.133,50.05,VAUXHALL CDA CS,3036682,AB,-11.4,0,NA,7.9,0,-28.8,0,NA,NA,NA,2.6,0,NA,NA,1,NA,NA,NA,824.4,0,2014_02
-114.721,51.269,WILDCAT HILLS,3037550,AB,-13.7,9,NA,5.5,8,-33.5,9,3.6,8,NA,3.6,8,NA,22,1,NA,NA,NA,602.6,0,2014_02
-112.117,49.5,WRENTHAM AGDM,3037675,AB,-10,8,NA,7.3,8,-30,8,NA,NA,NA,1.2,11,NA,NA,0,NA,NA,NA,560.1,0,2014_02
-113.961,50.729,OKOTOKS,303M9JM,AB,-12.9,0,-8,6,0,-31,0,8,0,46,8,0,46,28,4,NA,NA,NA,865.9,0,2014_02
-112.817,49.05,DEL BONITA AGDM,3042045,AB,-13.1,2,NA,5.6,2,-31.9,2,NA,NA,NA,10,2,NA,NA,4,NA,NA,NA,807.3,0,2014_02
-110.678,49.364,MANYBERRIES AGCM,3044203,AB,-13.9,0,NA,5,0,-36.5,0,NA,NA,NA,4.2,9,NA,NA,2,NA,NA,NA,893.6,0,2014_02
-111.652,49.137,MASINASIN AGDM,3044232,AB,-10.7,0,NA,7.9,0,-29.5,0,NA,NA,NA,3.9,3,NA,0,1,NA,NA,NA,803.9,0,2014_02
-112.05,49.133,MILK RIVER,3044533,AB,-11.1,2,NA,7.2,2,-32.6,2,NA,NA,NA,5.9,2,NA,5,2,NA,NA,NA,757.7,0,2014_02
-112.538,49.284,MILK RIVER RIDGE RESERVOIR,3044545,AB,-10.4,3,NA,4.5,3,-35.6,3,NA,NA,NA,7.5,11,NA,NA,4,NA,NA,NA,711.2,0,2014_02
-110.467,49.117,ONEFOUR CDA,3044923,AB,-12.2,0,NA,5.8,0,-32.7,0,NA,NA,NA,1.7,0,NA,NA,0,NA,NA,NA,845.3,0,2014_02
-111.126,49.225,PAKOWKI LAKE AGCM,3045000,AB,-10.9,1,NA,7.5,1,-31.6,1,NA,NA,NA,2.7,3,NA,NA,1,NA,NA,NA,779.1,0,2014_02
-115.552,51.193,BANFF CS,3050519,AB,-11.9,1,NA,3.1,1,-35.4,1,NA,NA,NA,12.1,1,NA,33,5,NA,NA,NA,807.3,0,2014_02
-114.175,49.468,BEAVER MINES,3050602,AB,-10,2,NA,5.9,2,-34.5,2,NA,NA,NA,34.2,2,NA,16,11,NA,NA,NA,727.5,0,2014_02
-115.067,51.083,BOW VALLEY,3050778,AB,-11.1,0,NA,4.8,0,-37,0,NA,NA,NA,4.4,0,NA,NA,1,NA,NA,NA,815.2,0,2014_02
-114.482,49.628,CROWSNEST,3051R4R,AB,-10.8,0,NA,6.8,0,-35.8,0,NA,NA,NA,NA,NA,NA,NA,NA,NA,NA,NA,805.9,0,2014_02
-118.03,52.926,JASPER WARDEN,3053536,AB,-12.9,2,NA,6.2,2,-35.7,2,NA,NA,NA,8.9,2,NA,30,3,NA,NA,NA,802.6,0,2014_02
-115.035,51.028,KANANASKIS,3053600,AB,-10.7,0,-6,5,0,-35,0,10.1,0,43,9,0,43,10,3,NA,NA,NA,803,0,2014_02
-115.12,50.713,KANANASKIS POCATERRA,3053604,AB,-15.6,13,-7.5,2,9,-38,8,27,10,NA,27,9,NA,58,8,NA,NA,NA,504,0,2014_02
-116.04,52.492,NORDEGG CS,3054843,AB,-13.3,1,NA,8.2,1,-38.2,1,NA,NA,NA,3,6,NA,58,1,NA,NA,NA,844.3,0,2014_02
-114.416,50.368,PEKISKO,3055119,AB,-12.8,0,NA,5.1,0,-34.1,0,NA,NA,NA,15.3,0,NA,80,7,NA,NA,NA,863,0,2014_02
-113.11,49.361,ST. MARY RESERVOIR,3056100,AB,-10.7,2,NA,5.7,2,-32.3,2,NA,NA,NA,4.6,11,NA,NA,2,NA,NA,NA,746.2,0,2014_02
-113.809,49.131,WATERTON PARK GATE,3056214,AB,-10.8,3,NA,5,3,-36.1,3,NA,NA,NA,28.8,3,NA,NA,9,NA,NA,NA,720.5,0,2014_02
-115.19,50.943,NAKISKA RIDGETOP,305MGFF,AB,-14.6,2,NA,1.9,2,-32,1,NA,NA,NA,NA,NA,NA,NA,NA,NA,NA,NA,847.9,0,2014_02
-113.382,54.635,ATHABASCA AGCM,3060330,AB,-16.2,0,NA,3.8,0,-32.8,0,NA,NA,NA,10.4,0,NA,NA,2,NA,NA,NA,957.9,0,2014_02
-112.825,54.782,ATMORE AGDM,3060406,AB,-15.8,5,NA,2.1,4,-35.3,3,NA,NA,NA,10,7,NA,36,4,NA,NA,NA,778,0,2014_02
-114.448,54.095,BARRHEAD CS,3060535,AB,-16.5,3,NA,4.6,3,-36.5,3,NA,NA,NA,9.1,3,NA,27,3,NA,NA,NA,863.2,0,2014_02
-117.867,53.35,BRULE BLACK CAT,3060903,AB,-13.6,0,-7.1,5,0,-35,0,6,0,39,6,0,37,48,3,NA,NA,NA,885.7,0,2014_02
-114.678,54.131,CAMPSIE AUTO,3061201,AB,-17.3,0,NA,5.3,0,-37.9,0,NA,NA,NA,14.2,0,NA,29,3,NA,NA,NA,989.2,0,2014_02
-113.95,54.317,DAPP AGDM,3061975,AB,-18.6,0,NA,2.3,0,-35.5,0,NA,NA,NA,4.8,0,NA,NA,1,NA,NA,NA,1023.8,0,2014_02
-116.465,53.579,EDSON,3062239,AB,-15.6,3,NA,4.9,3,-37,3,NA,NA,NA,3.4,3,NA,NA,1,NA,NA,NA,839,0,2014_02
-116.453,53.58,EDSON CLIMATE,3062246,AB,-15,1,NA,5.2,1,-34.9,1,NA,NA,NA,6,1,NA,34,1,NA,NA,NA,890,0,2014_02
-114.983,53.6,ENTWISTLE,3062451,AB,-15.2,3,-7.8,6.8,3,-32,3,7,3,NA,7,3,NA,60,4,NA,NA,NA,831.2,0,2014_02
-115.124,53.573,EVANSBURG AGCM,3062475,AB,-15.2,0,NA,5.6,0,-33.2,0,NA,NA,NA,13.3,0,NA,NA,3,NA,NA,NA,930.8,0,2014_02
-114.769,54.41,FORT ASSINIBOINE AGCM,3062660,AB,-15.6,0,NA,4.5,0,-31.9,0,NA,NA,NA,8.6,1,NA,NA,3,NA,NA,NA,939.5,0,2014_02
-111.213,56.651,FORT MCMURRAY CS,3062696,AB,-20.5,4,NA,-1.1,4,-36.2,4,NA,NA,NA,5.6,4,NA,33,3,NA,NA,NA,923.9,0,2014_02
-111.223,56.653,FORT MCMURRAY A,3062697,AB,-19.8,3,NA,-0.7,3,-34.7,3,NA,NA,NA,5.5,3,NA,NA,1,NA,NA,NA,945.3,0,2014_02
-118.447,53.795,HENDRICKSON CREEK,3063135,AB,-16.4,0,NA,6.1,0,-39.9,0,NA,NA,NA,16.2,0,NA,80,3,NA,NA,NA,963.9,0,2014_02
-116.479,55.396,HIGH PRAIRIE AGDM,3063165,AB,-17.2,1,NA,2.5,1,-35.2,0,NA,NA,NA,9.6,15,NA,NA,5,NA,NA,NA,951.1,0,2014_02
-112.024,54.769,LAC LA BICHE CLIMATE,3063686,AB,-17.4,0,NA,1.5,0,-36.2,0,NA,NA,NA,17.4,0,NA,NA,5,NA,NA,NA,992.3,0,2014_02
-111.559,57.041,MILDRED LAKE,3064528,AB,-18.7,1,NA,-2.4,1,-32.4,1,NA,NA,NA,23.3,1,NA,37,12,NA,NA,NA,991.9,0,2014_02
-111.7,54.5,RICH LAKE AGDM,3065475,AB,-18.1,3,NA,1.5,3,-35.3,3,NA,NA,NA,12.4,3,NA,NA,4,NA,NA,NA,903.1,0,2014_02
-114.777,55.293,SLAVE LAKE,3065995,AB,-16.3,1,NA,1.4,1,-33,1,NA,NA,NA,0.9,1,NA,NA,0,NA,NA,NA,926.8,0,2014_02
-114.777,55.293,SLAVE LAKE RCS,3065997,AB,-16.3,1,NA,1.2,1,-33.7,1,NA,NA,NA,10,1,NA,8,4,NA,NA,NA,927.3,0,2014_02
-114.777,55.293,SLAVE LAKE AWOS A,3066002,AB,-18.2,8,NA,-2.5,8,-33.6,7,NA,NA,NA,3.5,8,NA,NA,1,NA,NA,NA,724.2,0,2014_02
-113.52,54.3,TAWATINAW AGCM,3066367,AB,-16.9,0,NA,2.4,0,-33.3,0,NA,NA,NA,4.8,5,NA,NA,1,NA,NA,NA,977.1,0,2014_02
-115.784,54.14,WHITECOURT,3067371,AB,-14.4,0,NA,6.3,0,-31.4,0,NA,NA,NA,NA,NA,NA,NA,NA,NA,NA,NA,906.5,0,2014_02
-115.787,54.144,WHITECOURT A,3067372,AB,-15.1,0,-7.2,4,0,-31.6,0,NA,NA,NA,16.4,0,107,50,4,NA,NA,NA,926,0,2014_02
-118.348,53.386,WILLOW CREEK 1,306GE70,AB,-5.6,26,NA,3.5,26,-16.1,25,NA,NA,NA,0.4,25,NA,NA,0,NA,NA,NA,47.1,0,2014_02
-117.209,55.578,BALLATER,3070493,AB,-16.8,5,-6.7,10.6,5,-34.6,5,6.8,5,NA,6.8,5,NA,15,2,NA,NA,NA,800.3,0,2014_02
-119.396,55.197,BEAVERLODGE RCS,3070600,AB,-14.9,4,NA,2.3,4,-30.5,2,NA,NA,NA,2,25,NA,22,1,NA,NA,NA,790,0,2014_02
-117.886,56.118,BROWNVALE AGCM,3070800,AB,-17.9,0,NA,0.4,0,-35.7,0,NA,NA,NA,22,2,NA,NA,10,NA,NA,NA,1005.8,0,2014_02
-117.887,55.808,EAGLESHAM AGCM,3072151,AB,-18.6,0,NA,1.6,0,-35.7,0,NA,NA,NA,15.9,4,NA,NA,6,NA,NA,NA,1023.8,0,2014_02
-110.439,58.981,EGG ISLAND,3072246,AB,-24.3,1,NA,-8.6,1,-40.5,1,NA,NA,NA,NA,NA,NA,NA,NA,NA,NA,NA,1140.9,0,2014_02
-118.439,56.081,FAIRVIEW AGDM,3072525,AB,-18.8,1,NA,-0.4,1,-36.6,1,NA,NA,NA,11,7,NA,NA,5,NA,NA,NA,992.3,0,2014_02
-111.117,58.767,FORT CHIPEWYAN,3072655,AB,-23.1,3,NA,-8.2,3,-41.1,3,NA,NA,NA,1.4,3,NA,NA,1,NA,NA,NA,1026.7,0,2014_02
-111.117,58.767,FORT CHIPEWYAN RCS,3072659,AB,-23.7,0,NA,-8.4,0,-41.4,0,NA,NA,NA,34.3,0,NA,38,19,NA,NA,NA,1166.9,0,2014_02
-116.04,58.382,FORT VERMILION,3072723,AB,-19.6,1,NA,-4.5,1,-36.1,0,NA,NA,NA,5.8,0,NA,0,1,NA,NA,NA,1014.8,0,2014_02
-118.885,55.18,GRANDE PRAIRIE A,3072921,AB,-17.6,0,NA,2.3,0,-34,0,25.5,0,NA,16.8,0,NA,47,4,NA,NA,NA,997,0,2014_02
-117.298,57.265,HAWK HILLS AGCM,3073071,AB,-20.5,0,NA,-2.4,0,-37.6,0,NA,NA,NA,9.5,0,NA,NA,4,NA,NA,NA,1077.8,0,2014_02
-117.165,58.622,HIGH LEVEL,3073140,AB,-21.1,0,NA,-6.3,0,-36.4,0,NA,NA,NA,0.8,0,NA,NA,0,NA,NA,NA,1093.7,0,2014_02
-117.165,58.621,HIGH LEVEL A,3073146,AB,-21.3,0,-4.5,-6.3,0,-36.9,0,17.7,0,84,8.8,0,50,43,4,NA,NA,NA,1101.1,0,2014_02
-117.12,55.913,JEAN COTE AGCM,3073535,AB,-17.2,1,NA,0.6,1,-32.5,1,NA,NA,NA,8.2,10,NA,NA,2,NA,NA,NA,950.6,0,2014_02
-116.343,58.172,LA CRETE AGCM,3073730,AB,-20.3,0,NA,-6.7,0,-34.8,0,NA,NA,NA,10.8,0,NA,NA,3,NA,NA,NA,1071.6,0,2014_02
-119.255,55.422,LA GLACE AGCM,3073740,AB,-17.9,1,NA,0.8,1,-36.3,1,NA,NA,NA,14.2,1,NA,NA,5,NA,NA,NA,969.9,0,2014_02
-117.451,56.974,MANNING AGDM,3074190,AB,-21.4,3,NA,-4.4,3,-39,3,NA,NA,NA,31,11,NA,NA,11,NA,NA,NA,984.2,0,2014_02
-119.745,56.314,CLEARDALE AGDM,3074935,AB,-17.2,0,NA,2.3,0,-34.1,0,NA,NA,NA,37.3,8,NA,NA,11,NA,NA,NA,985.9,0,2014_02
-117.447,56.227,PEACE RIVER A,3075040,AB,-18.2,1,-6.3,0.6,1,-34.1,1,19,1,NA,18.4,1,NA,23,7,NA,NA,NA,977.5,0,2014_02
-118.293,55.621,PEORIA AGDM,3075160,AB,-13.9,12,NA,4.1,11,-35.5,2,NA,NA,NA,1.3,26,NA,NA,1,NA,NA,NA,510.6,0,2014_02
-115.278,56.552,RED EARTH,3075488,AB,-18.6,1,NA,3.3,1,-35.7,1,NA,NA,NA,36.2,1,NA,39,20,NA,NA,NA,989.2,0,2014_02
-118.668,55.777,RYCROFT AGCM,3075601,AB,-18.1,0,NA,1.9,0,-35.6,0,NA,NA,NA,7.6,14,NA,NA,2,NA,NA,NA,1010.5,0,2014_02
-119.345,56.076,SAVANNA AGCM,3075770,AB,-17.4,2,NA,1.8,2,-30.7,2,NA,NA,NA,20.9,8,NA,NA,6,NA,NA,NA,919.7,0,2014_02
-117.741,54.425,SIMONETTE,3075937,AB,-16,22,-9.2,2,20,-28,20,0,20,NA,0,20,NA,0,0,NA,NA,NA,204,0,2014_02
-119.23,55.695,SPIRIT RIVER AUTO STATION,3076069,AB,-14.5,0,NA,2.8,0,-28.1,0,NA,NA,NA,30.8,0,NA,79,8,NA,NA,NA,911,0,2014_02
-118.408,55.352,TEEPEE CREEK AGCM,3076366,AB,-18.1,0,NA,2.7,0,-37.3,0,NA,NA,NA,13.3,4,NA,NA,5,NA,NA,NA,1009.6,0,2014_02
-117.199,55.098,VALLEYVIEW AGDM,3076680,AB,-16.4,2,NA,4.1,2,-32.1,2,NA,NA,NA,32.4,13,NA,NA,11,NA,NA,NA,893.1,0,2014_02
-113.866,58.711,GARDEN RIVER,307KPFP,AB,-21.3,0,NA,-5.1,0,-38.7,0,NA,NA,NA,NA,NA,NA,45,NA,NA,NA,NA,1100.6,0,2014_02
-110.283,54.417,COLD LAKE A,3081680,AB,-17.7,0,-5.8,1.3,0,-33.2,0,22.2,0,146,13.9,0,128,18,5,NA,NA,NA,998.9,0,2014_02
-110.868,54.367,DUPRE AGCM,3081690,AB,-18.4,0,NA,1.9,0,-37,0,NA,NA,NA,12.8,0,NA,NA,5,NA,NA,NA,1018.8,0,2014_02
-104.71,50.201,BRATT'S LAKE CLIMATE,4010811,SK,-20.2,0,NA,2.2,0,-33.9,0,NA,NA,NA,7,0,NA,13,2,NA,NA,NA,1070.7,0,2014_02
-102.571,50.368,BROADVIEW,4010879,SK,-20.2,0,-7.6,1.6,0,-36.6,0,NA,NA,NA,5.4,1,NA,12,2,NA,NA,NA,1068.5,0,2014_02
-105.383,50.55,BUFFALO POUND LAKE,4010984,SK,-19.5,0,NA,3,0,-34,0,0,0,NA,0,0,NA,0,0,NA,NA,NA,1051.1,0,2014_02
-104.267,50.85,CUPAR,4011980,SK,-21.3,10,-8.4,14,8,-36,7,12.5,8,NA,12.5,8,NA,0,1,NA,NA,NA,707,0,2014_02
-104.867,51.183,DUVAL,4012300,SK,-18.8,4,-7.6,1,4,-32,4,25.2,4,NA,25.2,4,NA,0,4,NA,NA,NA,882.6,0,2014_02
-102.967,49.217,ESTEVAN A,4012400,SK,-18.1,0,-7.4,4.1,0,-30.7,0,7.6,0,50,7.6,0,54,16,3,NA,NA,NA,1011,0,2014_02
-102.967,49.217,ESTEVAN,4012410,SK,-17.9,0,NA,4.4,0,-30.4,0,NA,NA,NA,2.7,2,NA,5,0,NA,NA,NA,1006.5,0,2014_02
-103.65,50.55,INDIAN HEAD CDA,4013480,SK,-20.5,0,-8.4,0.5,0,-35.2,0,NA,NA,NA,7.1,0,50,8,2,NA,NA,NA,1076.6,0,2014_02
-103.753,51.257,KELLIHER,4013660,SK,-20.7,0,-8.1,0.5,0,-32.5,0,22.5,0,154,22.5,0,148,44,4,NA,NA,NA,1082.2,0,2014_02
-102.733,50.2,KIPLING,4014040,SK,-19.2,1,-7.3,1.3,1,-31.5,1,12,1,NA,12,1,NA,0,3,NA,NA,NA,1005.2,0,2014_02
-101.717,50.9,LANGENBURG,4014145,SK,-20.3,0,-6.6,0.5,0,-36,0,23.9,0,149,23.9,0,147,70,6,NA,NA,NA,1073,0,2014_02
-105.25,51.417,LAST MOUNTAIN CS,4014156,SK,-20.6,0,-8.6,0.8,0,-35.8,0,NA,NA,NA,6.6,1,NA,11,3,NA,NA,NA,1080.7,0,2014_02
-104.633,52,LEROY,4014322,SK,-21,0,-7.6,-2.5,0,-36,0,10.6,0,93,10.6,0,88,24,3,NA,NA,NA,1092.4,0,2014_02
-103.889,51.152,LIPTON 2,4014481,SK,-20.5,10,-6.6,1,10,-34,10,7.2,10,NA,7.2,10,NA,47,1,NA,NA,NA,692.7,0,2014_02
-103.3,49.383,MIDALE,4015159,SK,-17.9,2,NA,3,2,-30.5,2,8.6,2,NA,8.6,2,NA,0,2,NA,NA,NA,932.7,0,2014_02
-105.538,50.332,MOOSE JAW CS,4015322,SK,-18.1,0,NA,3.9,0,-34.3,0,NA,NA,NA,5.1,1,NA,21,2,NA,NA,NA,1009.7,0,2014_02
-105.551,50.341,MOOSE JAW SNOW,4015328,SK,NA,NA,NA,NA,NA,NA,NA,20.1,0,NA,20.1,0,NA,34,5,NA,NA,NA,NA,NA,2014_02
-105,52.333,MUENSTER,4015440,SK,-20.8,3,-7.8,-2,2,-32.5,3,18,2,NA,18,2,NA,0,4,NA,NA,NA,969.6,0,2014_02
-102.117,49.317,OXBOW,4015800,SK,-18.1,11,NA,4.5,11,-36,11,2.1,11,NA,2.1,11,NA,NA,1,NA,NA,NA,613.2,0,2014_02
-103.265,51.403,PARKERVIEW,4015870,SK,-25.1,24,-11.9,-15,24,-36,24,3,24,NA,3,24,NA,24,1,NA,NA,NA,172.3,0,2014_02
-103.983,50.567,QU'APPELLE 1,4016322,SK,-19.1,0,-7.7,2.5,0,-32.5,0,22.5,0,205,22.5,0,197,53,4,NA,NA,NA,1039.1,0,2014_02
-104.582,50.408,REGINA SIAST SNOW,4016563,SK,NA,NA,NA,NA,NA,NA,NA,19,1,NA,19,1,NA,20,3,NA,NA,NA,NA,NA,2014_02
-104.667,50.451,REGINA RCMP SNOW,4016565,SK,NA,NA,NA,NA,NA,NA,NA,18,2,NA,18,2,NA,36,5,NA,NA,NA,NA,NA,2014_02
-104.833,50.567,REGINA GILMOUR,4016651,SK,NA,NA,NA,NA,NA,NA,NA,12,2,NA,12,2,NA,28,2,NA,NA,NA,NA,NA,2014_02
-104.667,50.433,REGINA RCS,4016699,SK,-20.3,0,NA,1.9,0,-35.6,0,NA,NA,NA,2.6,2,NA,18,1,NA,NA,NA,1072.3,0,2014_02
-101.55,50.467,ROCANVILLE,4016842,SK,-19.5,18,-8,-12,18,-30,18,4,18,NA,4,18,NA,0,1,NA,NA,NA,375,0,2014_02
-105.4,51.667,WATROUS EAST,4018642,SK,-20.2,0,NA,0.6,0,-34.7,0,NA,NA,NA,4.1,1,NA,2,2,NA,NA,NA,1069.1,0,2014_02
-104.183,49.817,YELLOW GRASS,4019040,SK,-18.4,0,-7.9,4,0,-34,0,9,0,57,9,0,57,0,2,NA,NA,NA,1019.4,0,2014_02
-102.464,51.265,YORKTON,4019073,SK,-20.5,0,NA,-0.5,0,-33.6,0,NA,NA,NA,7.5,2,NA,15,4,NA,NA,NA,1078.5,0,2014_02
-102.462,51.265,YORKTON,4019075,SK,-20.1,1,NA,-0.3,1,-32.8,1,NA,NA,NA,7.8,1,NA,NA,2,NA,NA,NA,1027.9,0,2014_02
-102.233,51.2,TONKIN,4019082,SK,-21.1,0,NA,0,0,-35,0,34,0,NA,34,0,NA,51,6,NA,NA,NA,1095.5,0,2014_02
-104.2,51.767,WYNYARD (AUT),40190LN,SK,-20.1,0,NA,-0.4,0,-33.4,0,NA,NA,NA,4.9,2,NA,3,1,NA,NA,NA,1066.7,0,2014_02
-103.8,49.7,WEYBURN,401HP5R,SK,-19.3,0,NA,4.3,0,-33.5,0,NA,NA,NA,1.3,1,NA,11,0,NA,NA,NA,1043.8,0,2014_02
-105.946,49.729,ASSINIBOIA AIRPORT,4020286,SK,-16.5,0,NA,3.9,0,-31.4,0,NA,NA,NA,3.9,2,NA,10,1,NA,NA,NA,966.5,0,2014_02
-107.311,50.832,BEECHY,4020560,SK,-17.4,0,-8.2,5,0,-35,0,20.6,0,263,20.6,0,242,39,5,NA,NA,NA,991.2,0,2014_02
-106.583,51.133,ELBOW CS,4022359,SK,-19.5,0,NA,3.8,0,-33.9,0,NA,NA,NA,15.5,1,NA,41,3,NA,NA,NA,1049.2,0,2014_02
-106.55,51.167,ELBOW 2 NE,4022363,SK,-18.3,3,-7.7,3.5,3,-35,3,9.8,3,NA,9.8,3,NA,NA,2,NA,NA,NA,906.5,0,2014_02
-107.15,50.95,LUCKY LAKE,4024714,SK,-18.5,0,NA,3.7,0,-35.1,0,NA,NA,NA,10,1,NA,8,3,NA,NA,NA,1023.3,0,2014_02
-109.466,49.903,MAPLE CREEK,4024919,SK,-12.5,0,NA,8.6,0,-29.7,0,NA,NA,NA,2.7,1,NA,NA,1,NA,NA,NA,853.2,0,2014_02
-107.263,51.154,ROCK POINT,4026847,SK,-17.8,0,-7.8,3,0,-32,0,24.4,0,270,24.4,0,261,17,6,NA,NA,NA,1001.3,0,2014_02
-107.8,50.6,STEWART VALLEY,4027775,SK,-16.9,2,-8,4,2,-34,2,7,2,NA,7,2,NA,46,5,NA,NA,NA,907,0,2014_02
-107.691,50.292,SWIFT CURRENT,4028038,SK,-16.2,0,NA,4.4,0,-33.4,0,NA,NA,NA,4.9,1,NA,NA,2,NA,NA,NA,958,0,2014_02
-107.733,50.267,SWIFT CURRENT CDA,4028060,SK,-16.3,0,-8.1,3.8,0,-33.4,0,NA,NA,NA,4.8,1,NA,10,1,NA,NA,NA,959.7,0,2014_02
-109.501,50.909,LEADER AIRPORT,402DAF0,SK,-16.7,0,NA,4.6,0,-33.5,0,NA,NA,NA,4.5,1,NA,1,1,NA,NA,NA,972.6,0,2014_02
-109.1,49.133,CLAYDON,4031581,SK,-12.8,2,-5.2,5.5,2,-32.5,2,0,2,NA,0,2,NA,0,0,NA,NA,NA,801.7,0,2014_02
-105.517,49.117,CORONACH,4031844,SK,-15.4,0,-6.5,6,0,-30.5,0,14.2,0,109,14.3,0,101,8,6,NA,NA,NA,936,0,2014_02
-105.483,49.05,CORONACH SPC,40318MN,SK,-14.8,0,-6.6,5.7,0,-31.1,0,NA,NA,NA,6.3,1,NA,1,1,NA,NA,NA,917.1,0,2014_02
-109.514,49.641,CYPRESS HILLS PARK,4031999,SK,-13.4,0,NA,4.2,0,-31.9,0,NA,NA,NA,15.1,1,NA,11,5,NA,NA,NA,880.4,0,2014_02
-108.989,49.438,EASTEND CYPRESS (AUT),4032322,SK,-14.7,0,NA,3.5,0,-30.5,0,NA,NA,NA,0.8,2,NA,4,0,NA,NA,NA,915.2,0,2014_02
-107.024,49.099,MANKOTA,4034910,SK,-14.1,0,-4.7,6.5,0,-29.2,0,NA,NA,NA,5.1,0,52,19,2,NA,NA,NA,897.9,0,2014_02
-105.979,49.168,ROCKGLEN (AUT),4036844,SK,-15.2,0,NA,3.4,0,-31.1,0,NA,NA,NA,3.8,2,NA,8,0,NA,NA,NA,930.1,0,2014_02
-108.383,49,TREELON,4038116,SK,-14.5,26,-7.5,5,26,-28,26,0.2,26,NA,0.2,26,NA,NA,0,NA,NA,NA,65,0,2014_02
-107.586,49.058,VAL MARIE SOUTHEAST,4038412,SK,-14,0,NA,7.1,0,-30.5,0,NA,NA,NA,0,27,NA,NA,0,NA,NA,NA,895,0,2014_02
-108.407,51.294,BICKLEIGH,4040587,SK,-16.4,7,-5.7,4,7,-31.5,6,29.6,0,323,22.8,0,250,0,4,NA,NA,NA,722.9,0,2014_02
-109.2,53.45,BUTTE ST PIERRE,4041000,SK,-19.1,0,-5.5,3,0,-38.5,0,8.7,0,94,8.7,0,92,19,1,NA,NA,NA,1038.4,0,2014_02
-109.181,51.515,KINDERSLEY A,4043901,SK,-18.6,0,NA,3.2,0,-37.1,0,19.6,0,NA,13.6,0,NA,15,3,NA,NA,NA,1023.6,0,2014_02
-109.948,52.333,MACKLIN,4044850,SK,-18.1,0,NA,2,0,-36,0,9,0,NA,9,0,NA,38,3,NA,NA,NA,1011.6,0,2014_02
-108.256,52.772,NORTH BATTLEFORD RCS,4045607,SK,-19.4,0,NA,0.2,0,-34.2,0,NA,NA,NA,3.7,1,NA,8,1,NA,NA,NA,1048.4,0,2014_02
-108.244,52.769,NORTH BATTLEFORD,4045695,SK,-19.1,0,NA,0.4,0,-33.4,0,NA,NA,NA,2.1,0,NA,NA,1,NA,NA,NA,1038.8,0,2014_02
-107.917,51.567,ROSETOWN EAST,4046884,SK,-19.6,0,NA,4,0,-35.3,0,NA,NA,NA,12.2,1,NA,6,4,NA,NA,NA,1051.8,0,2014_02
-108.835,52.36,SCOTT CDA,4047240,SK,-19.7,0,-6.8,0.8,0,-35.3,0,NA,NA,NA,5.6,1,NA,12,1,NA,NA,NA,1056.3,0,2014_02
-109.404,53.131,WASECA,4048520,SK,-18,3,-6.4,-0.5,3,-32.5,3,7,3,NA,7,3,NA,0,4,NA,NA,NA,899.7,0,2014_02
-109.405,53.131,WASECA RCS,4048521,SK,-18.6,0,NA,-1.2,0,-33.1,0,NA,NA,NA,7.8,8,NA,23,2,NA,NA,NA,1025.7,0,2014_02
-104.6,52.817,MELFORT,4055079,SK,-21.2,0,NA,-3.3,0,-34.2,0,NA,NA,NA,5.5,1,NA,22,1,NA,NA,NA,1098.8,0,2014_02
-107.05,51.483,OUTLOOK PFRA,4055736,SK,-18.2,0,-8.1,4.2,0,-31,0,NA,NA,NA,5.9,1,NA,29,2,NA,NA,NA,1013.1,0,2014_02
-105.673,53.214,PRINCE ALBERT A,4056241,SK,-21.5,0,NA,-0.6,0,-37.2,0,17.2,0,NA,13,0,NA,35,4,NA,NA,NA,1105,0,2014_02
-106.719,52.174,SASKATOON RCS,4057165,SK,-19.2,0,NA,1.4,0,-32.9,0,NA,NA,NA,2.1,1,NA,15,0,NA,NA,NA,1042.8,0,2014_02
-109.626,54.335,BEACON HILL,4060452,SK,-18.9,3,NA,2.5,3,-39.5,3,29,2,NA,29,2,NA,44,7,NA,NA,NA,922,0,2014_02
-108.421,55.841,BUFFALO NARROWS (AUT),4060983,SK,-20.5,0,NA,-6.3,0,-36.5,0,NA,NA,NA,15.4,3,NA,44,4,NA,NA,NA,1078.8,0,2014_02
-104.483,58.083,CIGAR LAKE,4061570,SK,-24.7,0,-4.2,-10.5,0,-41.5,0,3,0,14,3,0,14,47,2,NA,NA,NA,1194.4,0,2014_02
-103.712,58.19,COLLINS BAY,4061629,SK,-23.8,0,NA,-12.2,0,-39.8,0,NA,NA,NA,0.6,0,NA,51,0,NA,NA,NA,1169.7,0,2014_02
-103.7,58.183,COLLINS BAY CAMECO,4061632,SK,-24.7,7,NA,-12,7,-40,7,4.4,7,NA,4.4,7,NA,0,1,NA,NA,NA,896,0,2014_02
-102.35,55.533,ISLAND FALLS (AUT),4063605,SK,-22.6,0,NA,-9,0,-37.8,0,NA,NA,NA,7.6,2,NA,56,2,NA,NA,NA,1137.2,0,2014_02
-109.962,54.908,JIMMY LAKE AWOS,4063623,SK,-18.6,2,NA,2.4,2,-34.4,2,NA,NA,NA,13.5,2,NA,NA,5,NA,NA,NA,951.7,0,2014_02
-105.6,57.25,KEY LAKE,4063753,SK,-25.6,0,NA,-11,0,-45.1,0,NA,NA,NA,4.5,2,NA,40,0,NA,NA,NA,1220.2,0,2014_02
-105.617,57.25,KEY LAKE,4063755,SK,-24.8,1,-6.1,-10.5,1,-44,1,2.6,1,NA,2.6,1,NA,58,1,NA,NA,NA,1155.6,0,2014_02
-105.618,57.256,KEY LAKE,4063757,SK,-24.8,0,NA,-10.7,0,-42.4,0,NA,NA,NA,0,1,NA,NA,0,NA,NA,NA,1198.4,0,2014_02
-105.27,55.146,LA RONGE RCS,4064149,SK,-22.1,0,NA,-8.9,0,-38,0,NA,NA,NA,18.9,9,NA,59,7,NA,NA,NA,1123.8,0,2014_02
-105.267,55.151,LA RONGE A,4064155,SK,-22.6,0,NA,-9.2,0,-38.2,0,10.2,0,NA,10,0,NA,66,4,NA,NA,NA,1136.7,0,2014_02
-109.138,54.02,LOON LAKE RCS,4064620,SK,-18.9,0,NA,3,0,-37.4,0,NA,NA,NA,16.2,2,NA,26,3,NA,NA,NA,1033.7,0,2014_02
-108.05,54.125,MEADOW LAKE A,4065057,SK,-20.8,1,NA,-0.8,1,-36.8,1,NA,NA,NA,NA,NA,NA,25,NA,NA,NA,NA,1047.2,0,2014_02
-103.283,56.333,SOUTHEND,4067655,SK,-23.5,0,NA,-10.7,0,-38.3,0,NA,NA,NA,7.1,1,NA,57,1,NA,NA,NA,1162,0,2014_02
-107.55,53.367,SPIRITWOOD WEST,4067723,SK,-20.6,0,NA,0,0,-36.8,0,NA,NA,NA,6.3,1,NA,5,3,NA,NA,NA,1079.5,0,2014_02
-105.841,59.25,STONY RAPIDS,4067799,SK,-25.2,3,NA,-7.3,3,-41.8,2,NA,NA,NA,0,3,NA,NA,0,NA,NA,NA,1080.1,0,2014_02
-106.067,53.917,WASKESIU LAKE,4068559,SK,-20.2,0,NA,0.8,0,-34.7,0,NA,NA,NA,10.7,1,NA,50,4,NA,NA,NA,1070.4,0,2014_02
-108.517,54.133,MEADOW LAKE,406N0NM,SK,-20.8,0,NA,-0.6,0,-36.5,0,NA,NA,NA,11.9,1,NA,15,4,NA,NA,NA,1087.6,0,2014_02
-108.483,59.567,URANIUM CITY (AUT),406QLD0,SK,-24.5,0,NA,-6.5,0,-41.6,0,NA,NA,NA,7.1,2,NA,55,2,NA,NA,NA,1189.4,0,2014_02
-104.008,53.333,NIPAWIN,4075525,SK,-21.3,0,NA,-3.6,0,-37.3,0,NA,NA,NA,0.4,1,NA,NA,0,NA,NA,NA,1100.8,0,2014_02
-104,53.333,NIPAWIN,407N51G,SK,-21.6,0,NA,-3.9,0,-37.6,0,NA,NA,NA,7.6,1,NA,32,2,NA,NA,NA,1108.6,0,2014_02
-102.583,52.883,HUDSON BAY 13W,4083323,SK,-19.9,3,NA,1,3,-36,3,12,3,NA,12,3,NA,NA,5,NA,NA,NA,947.3,0,2014_02
-102.317,52.817,HUDSON BAY(AUT),4083324,SK,-21,0,NA,0.7,0,-36.5,0,NA,NA,NA,6.6,2,NA,28,1,NA,NA,NA,1090.8,0,2014_02
-103.833,52.583,MCKAGUE 2,4085052,SK,-19.8,9,-5.7,-2.5,9,-35,9,8.4,9,NA,8.4,9,NA,NA,3,NA,NA,NA,717.6,0,2014_02
-101.867,52.083,PELLY,4086000,SK,-19.8,1,-5.6,-0.5,1,-35,1,13.2,1,NA,13.2,1,NA,55,5,NA,NA,NA,1021.3,0,2014_02
-101.9,51.733,PELLY 2,4086001,SK,-20.3,0,-6.5,-1.5,0,-34,0,9.2,0,55,9.2,0,54,38,5,NA,NA,NA,1071.9,0,2014_02
-99.292,49.276,BALDUR,5010140,MB,-18,0,-5.7,-2,0,-32.5,0,8.5,0,45,8.5,0,43,0,2,NA,NA,NA,1007.6,0,2014_02
-99.45,49.3,BELMONT,5010191,MB,NA,NA,NA,NA,NA,NA,NA,15.6,0,62,15.6,0,60,83,3,NA,NA,NA,NA,NA,2014_02
-99.952,49.91,BRANDON A,5010481,MB,-20.7,0,NA,-0.2,0,-36.5,0,27.2,0,NA,19,0,NA,56,6,NA,NA,NA,1083.4,0,2014_02
-99.95,49.9,BRANDON RCS,5010490,MB,-20.2,0,NA,-0.6,0,-34.7,0,NA,NA,NA,7.6,2,NA,16,4,NA,NA,NA,1070.5,0,2014_02
-99.357,49.906,CARBERRY CS,5010547,MB,-21.1,0,NA,-0.3,0,-37.1,0,NA,NA,NA,9.2,1,NA,NA,3,NA,NA,NA,1094.3,0,2014_02
-99.074,49.562,CYPRESS RIVER RCS,5010641,MB,-19.9,0,NA,0.9,0,-34.5,0,NA,NA,NA,4.4,1,NA,21,1,NA,NA,NA,1061,0,2014_02
-101.203,49.927,ELKHORN 2 EAST,5010QFQ,MB,-18.8,1,-6.7,1.5,1,-33,1,11.2,1,NA,11.2,1,NA,26,3,NA,NA,NA,993.1,0,2014_02
-98.3,49.983,PORTAGE ROMANCE,5012300,MB,NA,NA,NA,NA,NA,NA,NA,16.9,0,NA,16.9,0,NA,48,4,NA,NA,NA,NA,NA,2014_02
-98.267,49.95,PORTAGE LA PRAIRIE CDA,5012321,MB,NA,NA,NA,NA,NA,NA,NA,25.8,11,NA,25.8,11,NA,60,8,NA,NA,NA,NA,NA,2014_02
-98.284,49.903,PORTAGE SOUTHPORT,5012324,MB,-18.3,0,NA,2,0,-32.2,0,NA,NA,NA,9.9,1,NA,24,6,NA,NA,NA,1016.5,0,2014_02
-101.363,51.183,ROBLIN,5012469,MB,-21.7,0,NA,-2.7,0,-35,0,NA,NA,NA,10.5,1,NA,26,4,NA,NA,NA,1111.2,0,2014_02
-99.017,49.45,ST ALPHONSE,5012545,MB,-17.4,1,-5.6,3,1,-33,1,10.2,1,NA,10.2,1,NA,33,3,NA,NA,NA,956.3,0,2014_02
-100.604,50.455,SHOAL LAKE CS,5012654,MB,-21.6,0,NA,-2,0,-37.8,0,NA,NA,NA,NA,NA,NA,NA,NA,NA,NA,NA,1108.8,0,2014_02
-100.934,49.842,VIRDEN WATER,5012961,MB,-17.6,10,NA,2.5,10,-34,10,720,13,NA,720,13,NA,NA,15,NA,NA,NA,641.3,0,2014_02
-99.942,50.655,WASAGAMING,5013117,MB,-21.5,0,-7.3,-1,0,-39,0,NA,NA,NA,19.1,1,NA,60,5,NA,NA,NA,1104.6,0,2014_02
-100.986,49.281,MELITA,501A7AR,MB,-19.1,0,NA,1.2,0,-32.6,0,NA,NA,NA,3.2,1,NA,35,1,NA,NA,NA,1039.5,0,2014_02
-101.4,51.267,ROBLIN FRIESEN 3 NORTHWEST,501B4G2,MB,NA,NA,NA,NA,NA,NA,NA,30.8,0,NA,30.8,0,NA,42,5,NA,NA,NA,NA,NA,2014_02
-100.179,50.108,RIVERS PETTAPIECE,501BMMA,MB,NA,NA,NA,NA,NA,NA,NA,22.6,0,164,22.6,0,159,62,5,NA,NA,NA,NA,NA,2014_02
-100.817,50.75,ROSSBURN 4 NORTH,501KE01,MB,NA,NA,NA,NA,NA,NA,NA,26,1,NA,26,1,NA,77,5,NA,NA,NA,NA,NA,2014_02
-98.15,49.433,CARMAN,5020551,MB,-16.8,1,-5.1,19,1,-34.5,1,13,1,NA,13,1,NA,55,4,NA,NA,NA,940.7,0,2014_02
-98.319,49.4,DEERWOOD RCS,5020725,MB,-18,0,NA,0.9,0,-33.8,0,NA,NA,NA,8.2,1,NA,21,1,NA,NA,NA,1008.3,0,2014_02
-97.238,49,EMERSON AUTO,5020881,MB,-19.1,0,NA,0.2,0,-33.9,0,NA,NA,NA,5.7,2,NA,49,2,NA,NA,NA,1037.8,0,2014_02
-97.56,49.031,GRETNA (AUT),5021220,MB,-18.6,0,NA,1.9,0,-32.4,0,NA,NA,NA,NA,NA,NA,7,NA,NA,NA,NA,1026.1,0,2014_02
-98.875,49.606,HOLLAND,5021302,MB,NA,NA,NA,NA,NA,NA,NA,2,14,NA,2,14,NA,NA,1,NA,NA,NA,NA,NA,2014_02
-97.807,50.013,MARQUETTE,5021695,MB,-18,0,-5.5,13.5,0,-33,0,17.2,0,119,17.2,0,103,53,4,NA,NA,NA,1009.2,0,2014_02
-98.25,49.45,MIAMI THIESSEN,5021737,MB,-16.7,0,NA,3,0,-33,0,19.1,0,NA,19.1,0,NA,32,3,NA,NA,NA,972.3,0,2014_02
-98.084,49.188,MORDEN CDA CS,5021849,MB,-17.3,0,NA,2.4,0,-32.8,0,NA,NA,NA,5.4,0,NA,17,2,NA,NA,NA,987.1,0,2014_02
-96.85,49.933,OAKBANK,5022051,MB,NA,NA,NA,NA,NA,NA,NA,25.8,0,160,25.8,0,138,70,6,NA,NA,NA,NA,NA,2014_02
-98.905,49.191,PILOT MOUND (AUT),5022125,MB,-19.5,0,NA,2.1,0,-32.5,0,NA,NA,NA,4.4,1,NA,35,2,NA,NA,NA,1048.8,0,2014_02
-98.367,49.65,ST CLAUDE,5022550,MB,NA,NA,NA,NA,NA,NA,NA,19.7,2,NA,19.7,2,NA,NA,3,NA,NA,NA,NA,NA,2014_02
-96.035,49.353,ST LABRE,5022575,MB,NA,NA,NA,NA,NA,NA,NA,43,2,NA,43,2,NA,0,9,NA,NA,NA,NA,NA,2014_02
-97.95,49.133,SCHANZENFELD,5022623,MB,NA,NA,NA,NA,NA,NA,NA,11.5,0,79,11.5,0,70,48,2,NA,NA,NA,NA,NA,2014_02
-95.598,49.024,SPRAGUE,5022759,MB,-19,0,NA,3.4,0,-39.5,0,NA,NA,NA,14.9,1,NA,NA,4,NA,NA,NA,1035.9,0,2014_02
-97.167,50.117,STONY MOUNTAIN,5022791,MB,-18.6,0,-5.5,0,0,-34,0,16.5,0,115,16.5,0,101,0,5,NA,NA,NA,1025.2,0,2014_02
-97.273,49.85,WINNIPEG CHARLESWOOD 2,5023225,MB,NA,NA,NA,NA,NA,NA,NA,24,0,NA,24,0,NA,47,5,NA,NA,NA,NA,NA,2014_02
-97.129,49.888,WINNIPEG THE FORKS,5023262,MB,-17.5,0,NA,1.9,0,-29.3,0,NA,NA,NA,17.6,1,NA,NA,6,NA,NA,NA,993.6,0,2014_02
-98.03,49.498,CARMAN U OF M CS,502I001,MB,-18.5,0,NA,2.1,0,-35.5,0,NA,NA,NA,3.9,1,NA,NA,2,NA,NA,NA,1022.7,0,2014_02
-97.249,49.917,WINNIPEG A CS,502S001,MB,-20,0,NA,0.1,0,-34.9,0,NA,NA,NA,8.4,1,NA,20,6,NA,NA,NA,1064.2,0,2014_02
-97.083,50.933,ARBORG,5030080,MB,-19.5,0,-4.6,1,0,-37,0,43.4,0,428,43.4,0,349,115,6,NA,NA,NA,1049.6,0,2014_02
-97.022,52.36,BERENS RIVER CS,5030203,MB,-21.4,0,-5.2,-5.2,0,-38.4,0,NA,NA,NA,15,1,NA,20,4,NA,NA,NA,1103.4,0,2014_02
-97.616,52.819,GEORGE ISLAND (AUT),5030984,MB,-21.3,0,NA,-5.9,0,-32.9,0,NA,NA,NA,143.6,0,NA,72,17,NA,NA,NA,1099.6,0,2014_02
-97.555,51.083,FISHER BRANCH (AUT),50309J6,MB,-20.5,0,NA,0.1,0,-35.6,0,NA,NA,NA,39.2,1,NA,37,9,NA,NA,NA,1077.3,0,2014_02
-96.982,50.631,GIMLI HARBOUR CS,5031041,MB,-18.4,0,NA,3.7,0,-32,0,NA,NA,NA,NA,NA,NA,NA,NA,NA,NA,NA,1020.5,0,2014_02
-97.05,50.633,GIMLI CLIMATE,5031042,MB,-20,0,NA,1.3,0,-35.1,0,NA,NA,NA,16.6,1,NA,56,5,NA,NA,NA,1062.9,0,2014_02
-99.283,53.158,GRAND RAPIDS HYDRO,5031111,MB,-21.8,1,-6.8,-5,1,-36,1,3.8,1,NA,3.8,1,NA,0,1,NA,NA,NA,1074.5,0,2014_02
-95.977,50.522,GREAT FALLS CLIMATE,5031201,MB,-19.5,0,NA,1.2,0,-39.9,0,NA,NA,NA,25.6,2,NA,49,7,NA,NA,NA,1050.3,0,2014_02
-97.465,51.186,HODGSON 2,5031301,MB,-20,0,-4.8,0,0,-38,0,56.4,0,257,56.4,0,246,88,9,NA,NA,NA,1062.6,0,2014_02
-95.197,49.624,INDIAN BAY,5031320,MB,-18.2,0,-4.8,3.5,0,-40,0,22,0,136,22,0,130,50,7,NA,NA,NA,1014.6,0,2014_02
-97.65,50.667,NARCISSE,5031991,MB,NA,NA,NA,NA,NA,NA,NA,48.8,0,357,48.8,0,333,0,5,NA,NA,NA,NA,NA,2014_02
-99.268,53.186,GRAND RAPIDS (AUT),5031A10,MB,-21.5,0,NA,-2.9,0,-34.5,0,NA,NA,NA,8.1,2,NA,49,2,NA,NA,NA,1106,0,2014_02
-95.89,50.148,PINAWA CANWARN,5032161,MB,NA,NA,NA,NA,NA,NA,NA,20,10,NA,20,10,NA,80,5,NA,NA,NA,NA,NA,2014_02
-96.058,50.181,PINAWA WNRE,5032162,MB,-19,3,-5.8,2.5,3,-40.5,3,53.5,3,NA,53.5,3,NA,46,10,NA,NA,NA,925.1,0,2014_02
-95.533,49.85,RENNIE,5032360,MB,-19.6,14,NA,4,10,-42,10,18.6,10,NA,18.6,10,NA,72,6,NA,NA,NA,526,0,2014_02
-96.567,50.7,VICTORIA BEACH (AUT),5032951,MB,-19.9,0,NA,-1.3,0,-34.4,0,NA,NA,NA,NA,NA,NA,NA,NA,NA,NA,NA,1061.3,0,2014_02
-96.065,50.177,PINAWA,503B1ER,MB,-19.9,0,NA,1.8,0,-39.3,0,NA,NA,NA,26,1,NA,47,7,NA,NA,NA,1061.2,0,2014_02
-98.7,50.05,BEAVER,5040166,MB,NA,NA,NA,NA,NA,NA,NA,8,25,NA,8,25,NA,0,3,NA,NA,NA,NA,NA,2014_02
-100.057,51.1,DAUPHIN CS,5040681,MB,-19.8,0,NA,0.6,0,-34.8,0,NA,NA,NA,16.1,1,NA,36,5,NA,NA,NA,1058.7,0,2014_02
-100.053,51.101,DAUPHIN,5040689,MB,-19.5,1,NA,0.7,1,-34,1,NA,NA,NA,6.6,1,NA,NA,3,NA,NA,NA,1013.4,0,2014_02
-100.467,51.1,GILBERT PLAINS,5040985,MB,-21.1,0,-7.5,1,0,-35.5,0,30.3,0,206,30.3,0,200,45,11,NA,NA,NA,1095.7,0,2014_02
-100.65,52.033,COWAN,5040FJ3,MB,-19.2,0,-5.6,2,0,-35,0,10,0,43,10,0,40,0,6,NA,NA,NA,1040.3,0,2014_02
-101.098,52.666,MAFEKING,5041685,MB,-18.7,0,-5.9,3,0,-31.5,0,16,0,77,16,0,76,50,4,NA,NA,NA,1027.7,0,2014_02
-99.53,50.712,MCCREARY,5043158,MB,-18.3,0,-6.5,4.1,0,-33.2,0,NA,NA,NA,20.7,0,115,19,6,NA,NA,NA,1017.2,0,2014_02
-98.037,50.499,OAKPOINT MARINE,504K0NM,MB,-20.5,1,NA,-3,1,-33.6,0,NA,NA,NA,NA,NA,NA,NA,NA,NA,NA,NA,1040.6,0,2014_02
-101.233,52.115,SWAN RIVER RCS,504K80K,MB,-20.2,0,NA,-1,0,-32.7,0,NA,NA,NA,7.5,1,NA,20,3,NA,NA,NA,1069,0,2014_02
-101.683,54.683,FLIN FLON,5050919,MB,-22.2,0,NA,-7.9,0,-36,0,NA,NA,NA,NA,NA,NA,56,NA,NA,NA,NA,1126.4,0,2014_02
-101.883,54.767,FLIN FLON,5050920,MB,-20.8,0,-5.9,-9,0,-32,0,27,0,162,27,0,162,58,4,NA,NA,NA,1087.6,0,2014_02
-101.683,54.683,FLIN FLON A,5050960,MB,-21.6,0,-5.5,-8,0,-36,0,15,0,82,15,0,101,48,5,NA,NA,NA,1110.1,0,2014_02
-101.1,53.967,THE PAS A,5052880,MB,-21.7,0,-5.8,-4.8,0,-34,0,3.4,0,18,1.8,0,13,38,1,NA,NA,NA,1110.2,0,2014_02
-101.1,53.967,THE PAS CLIMATE,5052890,MB,-21.4,0,NA,-4.7,0,-33.8,0,NA,NA,NA,3,1,NA,24,1,NA,NA,NA,1104.2,0,2014_02
-94.066,58.739,CHURCHILL,5060595,MB,-23.8,1,NA,-12.2,1,-35.6,1,NA,NA,NA,0,3,NA,NA,0,NA,NA,NA,1129.9,0,2014_02
-94.067,58.733,CHURCHILL CLIMATE,5060608,MB,-24,0,NA,-12.3,0,-35.7,0,NA,NA,NA,2.4,2,NA,0,0,NA,NA,NA,1175.3,0,2014_02
-98.033,54.533,CROSS LAKE JENPEG,5060623,MB,-21.8,0,-4.6,-8.1,0,-38.4,0,2,0,11,2,0,11,0,1,NA,NA,NA,1113.6,0,2014_02
-94.711,56.358,GILLAM A,5061001,MB,-23.2,0,-1.6,-10.1,0,-39.5,0,26.7,0,108,26.5,0,139,15,8,NA,NA,NA,1154.4,0,2014_02
-94.65,53.85,ISLAND LAKE A,5061376,MB,-22.4,0,-3.9,-5.1,0,-41,0,44.6,0,186,44.4,0,227,87,9,NA,NA,NA,1130.8,0,2014_02
-96.51,56.038,KELSEY DAM CS,5061422,MB,-23.3,0,NA,-10,0,-41.7,0,NA,NA,NA,14.8,0,NA,57,6,NA,NA,NA,1156,0,2014_02
-101.076,56.864,LYNN LAKE,5061645,MB,-24.3,0,NA,-11.1,0,-40.8,0,NA,NA,NA,3.6,0,NA,NA,2,NA,NA,NA,1185.2,0,2014_02
-101.067,56.85,LYNN LAKE RCS,5061649,MB,-24.9,2,NA,-11.2,2,-41.5,2,NA,NA,NA,6.8,4,NA,57,1,NA,NA,NA,1115.8,0,2014_02
-97.844,53.958,NORWAY HOUSE,5062040,MB,-21.8,0,NA,-8,0,-38.4,0,NA,NA,NA,2.9,0,NA,NA,1,NA,NA,NA,1114.5,0,2014_02
-98.512,58.706,TADOULE LAKE,5062835,MB,-25.1,0,NA,-12.3,0,-39.6,0,NA,NA,NA,0,3,NA,NA,0,NA,NA,NA,1206,0,2014_02
-98.502,58.716,TADOULE LAKE CS,5062840,MB,-25.4,0,NA,-12.4,0,-39.8,0,NA,NA,NA,16.5,1,NA,32,8,NA,NA,NA,1214.4,0,2014_02
-97.863,55.803,THOMPSON A,5062922,MB,-23.4,0,-3.4,-10.3,0,-42.9,0,18.4,0,97,15.6,0,95,51,4,NA,NA,NA,1160,0,2014_02
-89.897,53.818,BIG TROUT LAKE A,6010735,ON,-22.2,0,NA,-5.7,0,-39.3,0,NA,NA,NA,3.1,2,NA,NA,0,NA,NA,NA,1126.8,0,2014_02
-89.892,53.816,BIG TROUT LAKE,6010740,ON,-22.3,0,NA,-5.2,0,-39.9,0,NA,NA,NA,26.9,0,NA,18,8,NA,NA,NA,1128.9,0,2014_02
-93.221,50.631,EAR FALLS (AUT),6012199,ON,-17.8,0,NA,1.2,0,-36,0,NA,NA,NA,28,1,NA,61,6,NA,NA,NA,1001.5,0,2014_02
-87.676,56.019,FORT SEVERN A,6012501,ON,-22.5,0,NA,-10.6,0,-45.9,0,NA,NA,NA,2.2,0,NA,NA,1,NA,NA,NA,1133.3,0,2014_02
-87.936,52.196,LANSDOWNE HOUSE (AUT),6014353,ON,-21.1,2,NA,-4.4,1,-40.6,2,NA,NA,NA,15.4,6,NA,32,6,NA,NA,NA,1016.1,0,2014_02
-91.763,53.441,MUSKRAT DAM,6015026,ON,-22,1,NA,-5,1,-42.6,1,NA,NA,NA,1.1,2,NA,NA,0,NA,NA,NA,1080.4,0,2014_02
-85.433,54.983,PEAWANUCK (AUT),6016295,ON,-22,0,NA,-6.1,0,-44.3,0,NA,NA,NA,23.9,0,NA,36,5,NA,NA,NA,1119.7,0,2014_02
-90.218,51.449,PICKLE LAKE (AUT),6016525,ON,-19.8,0,NA,-2.9,0,-37.9,0,NA,NA,NA,28.9,0,NA,32,9,NA,NA,NA,1057.4,0,2014_02
-90.214,51.446,PICKLE LAKE A,6016529,ON,-19.5,0,NA,-4.1,0,-38,0,NA,NA,NA,NA,NA,NA,43,NA,NA,NA,NA,1050.4,0,2014_02
-93.793,51.067,RED LAKE A,6016970,ON,-19,0,NA,0.7,0,-37.8,0,NA,NA,NA,NA,NA,NA,57,NA,NA,NA,NA,1034.6,0,2014_02
-93.344,53.064,SANDY LAKE A,6017401,ON,-21.4,0,NA,-3.6,0,-39.7,0,NA,NA,NA,0.4,1,NA,NA,0,NA,NA,NA,1103.1,0,2014_02
-93.967,48.633,BARWICK,6020559,ON,-17.4,3,-5.8,4.5,3,-35,3,26.4,3,NA,26.4,3,NA,NA,7,NA,NA,NA,885.5,0,2014_02
-91.628,48.761,ATIKOKAN (AUT),6020LPQ,ON,-18.5,0,NA,3.7,0,-38.6,0,NA,NA,NA,75.5,0,NA,70,21,NA,NA,NA,1021.8,0,2014_02
-93.439,48.651,FORT FRANCES RCS,6022474,ON,-18.3,0,NA,4,0,-37.3,0,NA,NA,NA,84.4,1,NA,43,23,NA,NA,NA,1015.5,0,2014_02
-92.623,48.76,MINE CENTRE SOUTHWEST,6025205,ON,-17.9,0,NA,4.5,0,-38,0,48.3,0,NA,48.3,0,NA,77,11,NA,NA,NA,1004.6,0,2014_02
-92.744,49.828,DRYDEN REGIONAL,6032125,ON,-17.6,1,NA,2.4,1,-36.1,0,NA,NA,NA,12.1,5,NA,NA,4,NA,NA,NA,961.7,0,2014_02
-94.378,49.791,KENORA RCS,6034073,ON,-17.9,2,NA,2.4,2,-34.9,1,NA,NA,NA,26.8,2,NA,81,11,NA,NA,NA,934,0,2014_02
-94.363,49.788,KENORA A,6034076,ON,-18.2,0,NA,2.4,0,-34.1,0,56.3,0,NA,49.8,0,NA,65,10,NA,NA,NA,1012.6,0,2014_02
-93.717,49.65,RAWSON LAKE,6036904,ON,-19.1,14,-7.1,-8.5,14,-28.5,14,32.3,14,NA,17.1,14,NA,NA,4,NA,NA,NA,518.9,0,2014_02
-91.908,50.114,SIOUX LOOKOUT A,6037776,ON,-18.8,0,NA,1.6,0,-40,0,50.5,0,NA,47.9,0,NA,36,10,NA,NA,NA,1030.5,0,2014_02
-88.905,50.294,ARMSTRONG (AUT),6040325,ON,-20.7,0,NA,-3.1,0,-37.7,0,NA,NA,NA,32.3,0,NA,62,4,NA,NA,NA,1084.8,0,2014_02
-88.345,49.154,CAMERON FALLS (AUT),6041110,ON,-16.7,0,NA,2.1,0,-32.6,0,NA,NA,NA,38.7,0,NA,62,6,NA,NA,NA,971.6,0,2014_02
-85.833,47.333,CARIBOU ISLAND (AUT),6041222,ON,NA,NA,NA,NA,NA,-22.7,26,NA,NA,NA,NA,NA,NA,NA,NA,NA,NA,NA,NA,NA,2014_02
-86.931,49.783,GERALDTON A,6042716,ON,-19.8,0,-4,-1.7,0,-39.9,0,53.8,0,183,46.9,0,197,49,8,NA,NA,NA,1057.3,0,2014_02
-89.683,48.35,FLINT,6042MJ7,ON,-17.5,0,-6.1,1.5,0,-38,0,69,0,269,69,0,245,NA,10,NA,NA,NA,994.3,0,2014_02
-86.287,48.608,PUKASKWA (AUT),6046768,ON,-16.1,0,NA,4.4,0,-33.5,0,NA,NA,NA,42.3,0,NA,88,11,NA,NA,NA,955.8,0,2014_02
-89.322,48.372,THUNDER BAY,6048260,ON,-17.1,0,NA,0.9,0,-33.6,0,NA,NA,NA,0.8,0,NA,NA,0,NA,NA,NA,981.6,0,2014_02
-89.278,48.414,THUNDER BAY BURWOOD,6048266,ON,-16.7,8,NA,1,8,-30,8,42.2,8,NA,30.1,8,NA,NA,5,NA,NA,NA,694.1,0,2014_02
-89.327,48.369,THUNDER BAY CS,6048268,ON,-16.9,0,NA,0.6,0,-34.6,0,NA,NA,NA,25.7,0,NA,41,6,NA,NA,NA,978.4,0,2014_02
-90.467,49.033,UPSALA (AUT),6049095,ON,-18.6,0,NA,2.5,0,-36.2,0,NA,NA,NA,33.5,0,NA,69,5,NA,NA,NA,1025.9,0,2014_02
-89.119,48.369,WELCOME ISLAND (AUT),6049443,ON,-15.4,0,NA,-0.1,0,-30.8,0,NA,NA,NA,NA,NA,NA,NA,NA,NA,NA,NA,935.7,0,2014_02
-88.306,49.69,LITTLE FLATLAND ISLAND (AUT),6049470,ON,-18.6,0,NA,-2.2,0,-35.6,0,NA,NA,NA,50.3,1,NA,27,15,NA,NA,NA,1024.8,0,2014_02
-89.317,48.367,THUNDER BAY A FIREHALL,604S003,ON,NA,NA,NA,NA,NA,NA,NA,42.2,0,NA,41.8,0,NA,34,5,NA,NA,NA,NA,NA,2014_02
-84.814,47.723,LAKE SUPERIOR PROVINCIAL PARK,6054425,ON,-16,0,NA,2.1,0,-36.2,0,NA,NA,NA,61.2,3,NA,119,15,NA,NA,NA,951.5,0,2014_02
-84.51,46.485,SAULT STE MARIE A,6057591,ON,-14.6,0,NA,2.1,0,-34.4,0,55.8,0,NA,29.4,0,NA,42,12,NA,NA,NA,912,0,2014_02
