Long,Lat,Stn_Name,Clim_ID,Prov_or_Ter,Tm,DwTm,D,Tx,DwTx,Tn,DwTn,S,DwS,S%N,P,DwP,P%N,S_G,Pd,BS,DwBS,BS%,HDD,CDD,YYYY_MM
-123.742,48.935,CHEMAINUS,1011500,BC,15.7,0,NA,25.5,0,5,0,0,0,NA,12.8,0,NA,0,3,NA,NA,NA,76.1,6,2015_05
-124.052,48.829,LAKE COWICHAN,1012055,BC,14.9,16,2.8,29,11,1,11,0,11,NA,18.6,11,NA,NA,5,NA,NA,NA,50,3.4,2015_05
-123.226,48.425,DISCOVERY ISLAND,1012475,BC,NA,NA,NA,21.6,0,NA,NA,NA,NA,NA,NA,NA,NA,NA,NA,NA,NA,NA,NA,NA,2015_05
-123.728,48.735,DUNCAN KELVIN CREEK,1012573,BC,14.6,1,2.2,26,1,2,1,0,1,NA,8.6,1,NA,0,2,NA,NA,NA,103.6,1.3,2015_05
-123.439,48.432,ESQUIMALT HARBOUR,1012710,BC,13.3,0,NA,23.5,0,5.6,0,NA,NA,NA,0.6,0,NA,NA,0,NA,NA,NA,145.3,0,2015_05
-123.573,48.985,GALIANO NORTH,10130MN,BC,15.2,7,NA,23,7,5.5,7,0,7,NA,8,7,NA,0,3,NA,NA,NA,70.8,4.1,2015_05
-123.53,48.575,MALAHAT,1014820,BC,14.4,0,NA,25.8,0,4.4,0,NA,NA,NA,8.2,1,NA,NA,3,NA,NA,NA,115.2,3.6,2015_05
-123.561,48.374,METCHOSIN,1015105,BC,NA,NA,NA,NA,NA,NA,NA,0,0,NA,4.8,0,12,0,1,NA,NA,NA,NA,NA,2015_05
-123.718,48.824,NORTH COWICHAN,1015628,BC,NA,NA,NA,NA,NA,NA,NA,0,0,NA,9.3,0,18,0,2,NA,NA,NA,NA,NA,2015_05
-123.719,48.824,NORTH COWICHAN,1015630,BC,15,0,NA,26.7,0,1,0,NA,NA,NA,7.8,0,NA,NA,2,NA,NA,NA,96.7,2.3,2015_05
-123.287,48.764,NORTH PENDER ISLAND,1015638,BC,15.5,14,NA,25,14,9,14,0,14,NA,2.4,14,NA,0,1,NA,NA,NA,42.7,0,2015_05
-123.531,48.298,RACE ROCKS,1016640,BC,11.4,0,NA,21.9,0,7.2,0,NA,NA,NA,NA,NA,NA,NA,NA,NA,NA,NA,205.3,0,2015_05
-123.419,48.622,SAANICHTON CDA,1016940,BC,14.2,3,1.9,25,1,3.5,2,0,0,NA,5.6,0,14,0,3,NA,NA,NA,107,0.3,2015_05
-123.546,48.888,SALTSPRING ST MARY'S L,1016995,BC,15.9,4,3,25,4,6,4,0,4,NA,5.7,4,NA,NA,1,NA,NA,NA,61.3,5.6,2015_05
-123.128,48.775,SATURNA CAPMON,1017098,BC,14.1,0,2.1,23.7,0,4,0,0,0,NA,4.5,0,10,0,2,NA,NA,NA,121.5,1.3,2015_05
-123.128,48.775,SATURNA CAPMON CS,1017099,BC,13.8,0,NA,23.5,0,5.3,0,NA,NA,NA,2.6,0,NA,NA,1,NA,NA,NA,131.3,1,2015_05
-123.045,48.784,SATURNA ISLAND CS,1017101,BC,14.2,0,NA,22.1,0,7.6,0,NA,NA,NA,1.6,0,NA,NA,0,NA,NA,NA,118.9,0,2015_05
-123.626,48.647,SHAWNIGAN LAKE,1017230,BC,14.9,0,2.8,26.5,0,3,0,0,0,NA,6.6,0,13,0,2,NA,NA,NA,98.3,2.1,2015_05
-123.921,48.377,SHERINGHAM POINT,1017254,BC,10.7,0,NA,22.6,0,6.7,0,NA,NA,NA,9.2,0,NA,NA,3,NA,NA,NA,225.6,0,2015_05
-123.305,48.457,VICTORIA UNIVERSITY CS,1018598,BC,13.8,0,NA,26.3,0,2.7,0,NA,NA,NA,1.8,2,NA,NA,1,NA,NA,NA,130.2,0.1,2015_05
-123.325,48.413,VICTORIA GONZALES CS,1018611,BC,13.2,1,NA,20.9,1,5.4,0,NA,NA,NA,0.8,3,NA,NA,0,NA,NA,NA,145.4,0,2015_05
-123.501,48.538,VICTORIA HIGHLANDS NORTH,1018618,BC,10.6,29,NA,17.1,29,2.5,28,0,29,NA,0,29,NA,NA,0,NA,NA,NA,14.9,0,2015_05
-123.426,48.647,VICTORIA INTL A,1018621,BC,14,0,NA,23.8,0,2.8,0,0,0,NA,2,0,NA,NA,1,NA,NA,NA,125.1,0,2015_05
-124.16,49.35,BALLENAS ISLAND,1020590,BC,15.3,0,NA,22.3,0,7.9,0,NA,NA,NA,7,0,NA,NA,2,NA,NA,NA,85,2,2015_05
-125.273,49.952,CAMPBELL RIVER A,1021261,BC,14.4,0,2.8,27.2,0,1.6,0,0,0,NA,9.2,0,13,0,4,NA,NA,NA,113.2,1.5,2015_05
-125.208,49.945,CAMPBELL RIVER SURFSIDE,1021266,BC,NA,NA,NA,NA,NA,NA,NA,0,0,NA,3.9,0,7,0,1,NA,NA,NA,NA,NA,2015_05
-125.195,49.998,CAPE MUDGE,1021330,BC,15.1,0,3,26,0,5.5,0,0,0,NA,2.4,0,3,0,1,NA,NA,NA,90.5,2,2015_05
-125.446,50.333,CHATHAM POINT,1021480,BC,13.8,0,2,23,0,6,0,0,0,NA,8.2,0,6,0,2,NA,NA,NA,131.6,0,2015_05
-124.683,49.472,CHROME ISLAND,1021500,BC,15.1,0,NA,24.5,0,5.5,0,0,0,NA,4,0,NA,0,1,NA,NA,NA,89.5,0.5,2015_05
-124.9,49.717,COMOX A,1021830,BC,15.2,0,2.8,26.4,0,5.1,0,0,0,NA,13.2,0,29,0,3,NA,NA,NA,90.8,2.7,2015_05
-124.949,50.071,CORTES ISLAND TIBER BAY,1021960,BC,15.9,2,NA,27.8,2,3.5,2,0,2,NA,1,2,NA,0,0,NA,NA,NA,65.5,5.5,2015_05
-124.999,49.763,COURTENAY GRANTHAM,1021988,BC,15.2,4,NA,27,4,4,4,0,4,NA,8.6,4,NA,0,2,NA,NA,NA,78.2,3,2015_05
-125.033,49.686,COURTENAY PUNTLEDGE,1021989,BC,14.5,10,NA,28,5,0,6,0,1,NA,4.2,1,NA,0,1,NA,NA,NA,72.5,0,2015_05
-123.811,49.209,ENTRANCE ISLAND,1022689,BC,15.2,0,NA,22.6,0,8.2,0,NA,NA,NA,0.8,0,NA,NA,0,NA,NA,NA,90,2.4,2015_05
-125.993,50.454,FANNY ISLAND,1022795,BC,11.7,0,NA,22.8,0,6.8,0,NA,NA,NA,12.8,0,NA,NA,3,NA,NA,NA,194.5,0,2015_05
-123.734,49.154,GABRIOLA ISLAND,1023042,BC,13.9,1,2.2,24.5,1,2,1,0,1,NA,3.6,1,NA,NA,2,NA,NA,NA,124.3,0,2015_05
-125.203,50.099,HERIOT BAY SE,1023462,BC,15,6,NA,27,6,5,6,0,6,NA,3,6,NA,0,2,NA,NA,NA,75.1,1,2015_05
-124.512,49.353,LITTLE QUALICUM HATCHERY,1024638,BC,12.7,4,1.2,23.5,2,0,4,0,0,NA,9.4,0,19,0,3,NA,NA,NA,143.3,0,2015_05
-125.606,49.576,MYRA CREEK,1025254,BC,15.1,9,NA,27,7,2.5,6,0,7,NA,48.4,7,NA,NA,10,NA,NA,NA,66.2,1.5,2015_05
-123.87,49.054,NANAIMO A,1025370,BC,14.8,0,2.3,26.1,0,1.9,0,0,0,0,5,0,9,0,2,NA,NA,NA,100.9,0.8,2015_05
-123.988,49.199,NANAIMO CITY YARD,10253G0,BC,NA,NA,NA,NA,NA,NA,NA,0,0,NA,3.8,0,7,0,1,NA,NA,NA,NA,NA,2015_05
-127.367,50.681,PORT HARDY A,1026271,BC,10.8,0,NA,19.9,0,1.7,0,0,0,NA,17.8,0,NA,NA,3,NA,NA,NA,224,0,2015_05
-124.394,49.337,QUALICUM BEACH AIRPORT,1026562,BC,14.9,0,NA,27,0,3,0,NA,NA,NA,5.3,0,NA,NA,1,NA,NA,NA,98.1,0.5,2015_05
-124.617,49.394,QUALICUM R FISH RESEARCH,1026565,BC,14.3,2,2.3,26,2,2,2,0,2,NA,5.2,2,NA,0,3,NA,NA,NA,107.1,0,2015_05
-125.304,50.016,QUINSAM RIVER HATCHERY,1026639,BC,14.6,1,2.7,27,0,2,1,0,0,NA,11,0,15,0,4,NA,NA,NA,103.9,3,2015_05
-124.435,49.487,SISTERS ISLAND,1027403,BC,15.6,0,NA,22.3,0,7.2,0,NA,NA,NA,NA,NA,NA,NA,NA,NA,NA,NA,77.9,2.3,2015_05
-123.809,49.209,ENTRANCE ISLAND,102BFHH,BC,14.9,2,NA,22,2,7.5,2,0,2,NA,1.4,2,NA,0,1,NA,NA,NA,90.9,0.5,2015_05
-124.982,49.337,ALBERNI ROBERTSON CREEK,1030230,BC,15.8,4,3.5,30,4,2,4,0,4,NA,14.1,4,NA,0,3,NA,NA,NA,68.3,8.4,2015_05
-125.216,48.786,CAPE BEALE LIGHT,1031316,BC,11.8,2,1,21.5,2,6,2,0,2,NA,6.8,2,NA,0,2,NA,NA,NA,179.2,0,2015_05
-124.751,48.612,CARMANAH POINT,1031402,BC,NA,NA,NA,NA,NA,NA,NA,0,0,0,9.4,0,6,0,3,NA,NA,NA,NA,NA,2015_05
-126.418,49.8,CONUMA RIVER HATCHERY,1031844,BC,NA,NA,NA,NA,NA,NA,NA,0,10,NA,19.2,10,NA,NA,4,NA,NA,NA,NA,NA,2015_05
-126.543,49.383,ESTEVAN POINT,1032730,BC,11.9,0,1.2,17,0,4,0,0,0,NA,17.6,0,11,0,3,NA,NA,NA,189.3,0,2015_05
-126.543,49.383,ESTEVAN POINT CS,1032731,BC,11.5,0,NA,17.3,0,4.2,0,NA,NA,NA,26.8,0,NA,NA,5,NA,NA,NA,200.2,0,2015_05
-126.055,49.779,GOLD RIVER TOWNSITE,1033232,BC,15.2,6,3.1,29.5,6,0,6,0,6,NA,28.6,6,NA,NA,4,NA,NA,NA,73.4,4.6,2015_05
-125.923,49.111,LENNARD ISLAND,1034600,BC,12,0,NA,17.5,0,5.5,0,0,0,NA,12.8,0,8,0,1,NA,NA,NA,185.5,0,2015_05
-124.655,48.859,NITINAT RIVER HATCHERY,1035612,BC,13.5,0,1.9,25,0,2,0,0,0,NA,16.5,0,10,0,3,NA,NA,NA,139.7,0,2015_05
-126.617,49.6,NOOTKA LIGHTSTATION,1035614,BC,12.7,0,1.3,18.5,0,6,0,0,0,NA,22,0,13,0,1,NA,NA,NA,163.3,0,2015_05
-125.097,48.723,PACHENA POINT,1035940,BC,11.4,0,0.8,21.5,0,3,0,0,0,NA,19.4,0,13,0,4,NA,NA,NA,204.4,0,2015_05
-124.752,49.202,PORT ALBERNI COX LAKE,1036208,BC,17.1,16,5.3,28.5,16,8.5,16,0,16,NA,2,16,NA,0,2,NA,NA,NA,15.3,2,2015_05
-127.455,50.386,PORT ALICE,1036240,BC,13.2,2,1.9,24,2,2.5,2,0,2,NA,19.2,2,NA,0,4,NA,NA,NA,140.2,0,2015_05
-127.653,50.534,QUATSINO,1036570,BC,12.6,4,1.6,28.5,4,3,4,0,4,NA,10.2,4,NA,0,2,NA,NA,NA,147.6,0.8,2015_05
-128.033,50.441,QUATSINO LIGHTSTATION,1036572,BC,12.8,0,2.1,21.5,0,5.5,0,0,0,0,23.2,0,18,0,3,NA,NA,NA,160.8,0,2015_05
-124.927,49.317,PORT ALBERNI (AUT),1036B06,BC,15.2,0,NA,29.8,0,0.5,0,NA,NA,NA,1.4,7,NA,NA,1,NA,NA,NA,91.3,3.2,2015_05
-128.908,50.821,SARTINE ISLAND (AUT),1037090,BC,9.9,0,NA,13.8,0,5.5,0,NA,NA,NA,32.8,1,NA,NA,3,NA,NA,NA,250.8,0,2015_05
-127.94,50.112,SOLANDER ISLAND (AUT),1037553,BC,10,0,NA,15.5,0,6.1,0,NA,NA,NA,8.4,1,NA,NA,2,NA,NA,NA,247.6,0,2015_05
-126.654,49.932,TAHSIS VILLAGE NORTH,1037899,BC,14.1,11,NA,25,11,3,11,0,11,NA,34.8,11,NA,NA,3,NA,NA,NA,78.5,0,2015_05
-125.773,49.082,TOFINO A,1038205,BC,11.9,0,1.4,21.2,0,2.4,0,0,0,NA,17.2,0,11,0,2,NA,NA,NA,189.2,0,2015_05
-125.527,48.945,UCLUELET KENNEDY CAMP,1038332,BC,11.9,0,1,21.5,0,2,0,0,0,NA,17.9,0,11,0,4,NA,NA,NA,188.5,0,2015_05
-126.779,50.053,ZEBALLOS MURAUDE CREEK,1039035,BC,14.4,0,NA,26.5,0,2.5,0,0,0,NA,25.4,0,NA,0,6,NA,NA,NA,110.9,0,2015_05
-123.541,49.386,GIBSONS GOWER POINT,1043152,BC,14.1,12,1.4,21.5,12,6,12,0,12,NA,0.6,12,NA,NA,0,NA,NA,NA,73.5,0,2015_05
-123.913,49.468,MERRY ISLAND LIGHTSTATION,1045100,BC,16.2,0,3.1,23.5,0,7.5,0,0,0,0,1.2,0,2,0,0,NA,NA,NA,63.5,7.3,2015_05
-123.299,49.488,HOWE SOUND - PAM ROCKS,10459NN,BC,16.1,0,NA,23.8,0,8,0,NA,NA,NA,4.8,0,NA,NA,1,NA,NA,NA,65,5.3,2015_05
-124.032,49.634,PENDER HARBOUR,1046115,BC,NA,NA,NA,NA,NA,NA,NA,0,1,NA,13.2,1,NA,0,1,NA,NA,NA,NA,NA,2015_05
-123.496,49.526,PORT MELLON,1046332,BC,15.4,0,NA,25.3,0,4.9,0,NA,NA,NA,10,0,NA,NA,3,NA,NA,NA,84.2,5.1,2015_05
-124.5,49.834,POWELL RIVER A,1046391,BC,14.1,0,2.2,24.4,0,1.2,0,0,0,NA,14,0,18,0,3,NA,NA,NA,120,0,2015_05
-124.497,49.835,POWELL RIVER,1046392,BC,13.9,0,NA,23.9,0,1.6,0,NA,NA,NA,12.8,0,NA,NA,3,NA,NA,NA,127.6,0,2015_05
-123.715,49.458,SECHELT AUT,1047172,BC,14.6,0,NA,25.1,0,2.6,0,NA,NA,NA,5.8,0,NA,NA,2,NA,NA,NA,104.5,0.5,2015_05
-123.161,49.783,SQUAMISH AIRPORT,10476F0,BC,15.6,0,NA,28.1,0,2.4,0,NA,NA,NA,22.5,0,NA,NA,5,NA,NA,NA,79.8,6.5,2015_05
-122.955,50.129,WHISTLER,1048898,BC,13.8,14,3.6,27.6,14,-1,14,0,14,NA,21.2,14,NA,NA,3,NA,NA,NA,72.5,0.3,2015_05
-131.016,51.936,CAPE ST JAMES,1051351,BC,9.7,0,NA,14.6,0,5.4,0,NA,NA,NA,NA,NA,NA,NA,NA,NA,NA,NA,255.9,0,2015_05
-132.772,53.316,KINDAKUN ROCKS (AUT),1054222,BC,9.6,0,NA,13.7,0,5.9,0,NA,NA,NA,11.8,1,NA,NA,4,NA,NA,NA,260.2,0,2015_05
-133.058,54.255,LANGARA,1054500,BC,9.5,0,0.9,16.9,0,4.5,0,0,0,0,7,0,6,0,2,NA,NA,NA,264.2,0,2015_05
-133.058,54.255,LANGARA ISLAND RCS,1054503,BC,9.4,0,NA,16.4,0,4.5,0,NA,NA,NA,5.8,1,NA,NA,2,NA,NA,NA,266.8,0,2015_05
-132.167,54,MASSET A,1054925,BC,10.4,0,NA,21.9,0,-0.2,0,0.1,0,NA,18.1,0,NA,0,3,NA,NA,NA,234.8,0,2015_05
-131.661,54.159,ROSE SPIT (AUT),1056869,BC,10.4,0,NA,14.9,0,-0.3,0,NA,NA,NA,NA,NA,NA,NA,NA,NA,NA,NA,234.8,0,2015_05
-131.813,53.254,SANDSPIT A,1057050,BC,11.1,0,1.6,19,0,2,0,0,0,0,17.2,0,26,0,4,NA,NA,NA,215.2,0,2015_05
-131.813,53.249,SANDSPIT AIRPORT AUTO,1057051,BC,11,0,NA,18.5,0,2.9,0,NA,NA,NA,14.3,0,NA,NA,3,NA,NA,NA,218.3,0,2015_05
-131.814,53.254,SANDSPIT,1057052,BC,11.3,1,NA,17.7,1,3.5,0,NA,NA,NA,12.9,2,NA,NA,3,NA,NA,NA,200.9,0,2015_05
-132.299,53.764,SEWALL MASSET INLET,105PA91,BC,12.3,0,NA,27,0,1.5,0,0,0,NA,11.4,0,NA,0,4,NA,NA,NA,176.2,0,2015_05
-127.864,51.604,ADDENBROKE ISLAND,1060080,BC,12,2,1.4,18.5,2,5,2,0,2,NA,15.6,2,NA,0,4,NA,NA,NA,173.2,0,2015_05
-128.157,52.185,BELLA BELLA,1060815,BC,12.1,0,NA,23,0,1,0,NA,NA,NA,21.3,0,NA,NA,3,NA,NA,NA,182,0,2015_05
-126.596,52.388,BELLA COOLA A,1060841,BC,14.7,0,2.6,26.5,0,-0.6,0,0,0,NA,6.2,0,13,0,3,NA,NA,NA,101.7,0.3,2015_05
-128.524,52.643,BOAT BLUFF,1060901,BC,12.8,0,2.4,21,0,5,0,0,0,0,24.8,0,10,0,3,NA,NA,NA,161.7,0,2015_05
-130.638,53.493,BONILLA ISLAND,1060902,BC,10.7,0,1.2,15,0,5.5,0,0,0,0,2.8,0,2,0,1,NA,NA,NA,225.3,0,2015_05
-130.639,53.493,BONILLA ISLAND (AUT),1060R0K,BC,9.8,0,NA,14,0,5.9,0,NA,NA,NA,2.6,1,NA,NA,1,NA,NA,NA,254.6,0,2015_05
-127.471,52.187,CATHEDRAL POINT (AUT),1061458,BC,13.7,0,NA,21.4,0,3.9,0,NA,NA,NA,33.2,2,NA,NA,4,NA,NA,NA,132.1,0,2015_05
-131.602,53.03,CUMSHEWA ISLAND,1062251,BC,10.9,0,NA,16.8,0,5.4,0,NA,NA,NA,NA,NA,NA,NA,NA,NA,NA,NA,219.4,0,2015_05
-128.112,52.185,DRYAD POINT,1062544,BC,12.9,0,2,20.5,0,5,0,0,0,0,13.6,0,9,0,3,NA,NA,NA,158,0,2015_05
-127.835,51.247,EGG ISLAND,1062646,BC,10.8,0,0.8,16.5,0,4.5,0,0,0,0,10.6,0,8,0,3,NA,NA,NA,222.6,0,2015_05
-130.708,54.569,GREEN ISLAND,1063298,BC,12.2,1,2,19,1,4,1,0,1,NA,4,1,NA,0,1,NA,NA,NA,174.4,0,2015_05
-130.698,54.58,GREY ISLET (AUT),1063303,BC,12.1,17,NA,18.3,14,8.3,14,NA,NA,NA,0,19,NA,NA,0,NA,NA,NA,83,0,2015_05
-127.632,50.94,HERBERT ISLAND (AUT),1063461,BC,11.4,0,NA,17.3,0,7.1,0,NA,NA,NA,13,0,NA,NA,4,NA,NA,NA,205.5,0,2015_05
-130.361,54.172,HOLLAND ROCK,1063496,BC,9.9,0,NA,15,0,5.4,0,NA,NA,NA,8.8,0,NA,NA,2,NA,NA,NA,250.2,0,2015_05
-128.407,52.27,IVORY ISLAND,1063690,BC,11.4,0,1.1,16.5,0,5,0,0,0,0,19.6,0,13,0,4,NA,NA,NA,205,0,2015_05
-128.634,54.054,KITIMAT TOWNSITE,1064320,BC,14.2,0,3.3,26,0,2,0,0,0,0,22.3,0,25,0,6,NA,NA,NA,117.7,1,2015_05
-130.609,54.296,LUCY ISLAND LIGHTSTATION,1064728,BC,10.7,0,NA,16.7,0,5.9,0,NA,NA,NA,NA,NA,NA,NA,NA,NA,NA,NA,227.8,0,2015_05
-130.445,54.286,PRINCE RUPERT,1066482,BC,10.6,0,NA,19.5,0,3.5,0,NA,NA,NA,3.3,1,NA,NA,1,NA,NA,NA,230.6,0,2015_05
-130.29,54.32,PRINCE RUPERT MONT CIRC,1066488,BC,NA,NA,NA,NA,NA,NA,NA,0,17,NA,13,17,NA,NA,3,NA,NA,NA,NA,NA,2015_05
-129.985,55.936,STEWART A,1067742,BC,14.1,0,3.4,27.6,0,1.1,0,0,0,0,3.7,0,5,0,1,NA,NA,NA,120.5,0.2,2015_05
-128.625,54.502,TERRACE PCC,1068131,BC,15,1,3.7,29.5,1,1,1,0,1,NA,12.8,1,NA,NA,4,NA,NA,NA,94.6,4.3,2015_05
-128.578,54.469,TERRACE A,1068134,BC,14.2,0,NA,27.3,0,0.7,0,0,0,NA,17.4,0,NA,NA,4,NA,NA,NA,120.8,1.8,2015_05
-130.88,54.295,TRIPLE ISLAND,1068250,BC,10.9,0,NA,17,0,6.5,0,0,0,NA,2.2,0,NA,0,0,NA,NA,NA,219.9,0,2015_05
-128.682,54.044,KITIMAT HATCHERY,106D289,BC,13.7,15,NA,26,15,3,15,0,15,NA,19.5,15,NA,NA,3,NA,NA,NA,68.4,0,2015_05
-126.277,54.199,EQUITY SILVER,1072692,BC,8.6,4,3.7,20.5,4,-6,4,0.4,4,NA,49.3,4,NA,0,6,NA,NA,NA,253.1,0,2015_05
-126.668,54.396,HOUSTON,1073615,BC,13.8,7,NA,28,7,-0.5,7,0,7,NA,24.5,7,NA,0,3,NA,NA,NA,100.6,0.5,2015_05
-129.03,55.238,NASS CAMP,1075384,BC,14,0,3.6,28,0,-1.5,0,0,0,0,10.2,0,20,0,3,NA,NA,NA,124.2,0,2015_05
-127.183,54.825,SMITHERS,1077499,BC,12.2,0,NA,26,0,-3.6,0,NA,NA,NA,18.8,0,NA,NA,4,NA,NA,NA,179.9,0,2015_05
-127.183,54.825,SMITHERS A,1077500,BC,12.7,0,3.3,25.9,0,-3.4,0,0,0,0,26,0,68,0,6,NA,NA,NA,164.8,0,2015_05
-127.189,54.824,SMITHERS AIRPORT AUTO,1077501,BC,12.5,0,NA,26.2,0,-3.1,0,NA,NA,NA,22.9,0,NA,NA,6,NA,NA,NA,170.8,0,2015_05
-127.171,55.289,SUSKWA VALLEY,107G879,BC,10.2,0,1.3,25.5,0,-5.5,0,0,0,0,45.9,0,73,0,8,NA,NA,NA,240.6,0,2015_05
-125.997,53.772,OOTSA LAKESKINS LAKE CLIMATE,1085836,BC,9.9,0,NA,22,0,-3.5,0,NA,NA,NA,71,0,NA,NA,7,NA,NA,NA,250.5,0,2015_05
-122.734,50.306,PEMBERTON AIRPORT CS,1086082,BC,16.5,4,NA,31.7,4,0.5,2,NA,NA,NA,4.4,4,NA,NA,2,NA,NA,NA,59.1,18.7,2015_05
-124.136,52.114,PUNTZI MOUNTAIN (AUT),1086558,BC,11.1,0,NA,27.2,0,-7.6,0,NA,NA,NA,10.6,0,NA,NA,4,NA,NA,NA,214.2,0,2015_05
-124.403,51.675,TATLAYOKO LAKE RCS,1088015,BC,10.3,0,NA,25.9,0,-8.1,0,NA,NA,NA,16.1,0,NA,NA,5,NA,NA,NA,238.4,0,2015_05
-125.959,54.383,BURNS LAKE DECKER LAKE,1091174,BC,10.1,0,NA,25.4,0,-7.3,0,NA,NA,NA,64.7,0,NA,NA,7,NA,NA,NA,243.7,0,2015_05
-120.7,53.6,CRESCENT SPUR,1092120,BC,12.7,0,NA,29.5,0,-2,0,0,0,NA,44.2,0,NA,0,11,NA,NA,NA,163.8,0,2015_05
-124.286,54.455,FORT ST JAMES,1092970,BC,12.1,15,2.9,25.5,15,-3.5,15,0,10,NA,11,10,NA,NA,2,NA,NA,NA,94.3,0,2015_05
-124.286,54.455,FORT ST JAMES AUTO,1092975,BC,12,0,NA,25.4,0,-3.4,0,NA,NA,NA,30.9,6,NA,NA,7,NA,NA,NA,185.4,0,2015_05
-122.699,53.531,HIXON,1093474,BC,13.7,0,3,28,0,-2.5,0,0,0,0,37.8,0,82,0,9,NA,NA,NA,133.6,0.3,2015_05
-121.364,52.363,HORSEFLY LAKE GRUHS LAKE,1093600,BC,10.2,19,0.2,25,19,-3,19,1,19,NA,13.4,19,NA,NA,3,NA,NA,NA,94,0,2015_05
-122.374,52.38,MCLEESE LAKE FRASERVIEW,1095015,BC,14.4,0,2.7,28.5,0,-3,0,0,0,0,45.2,0,116,0,8,NA,NA,NA,112.9,0.5,2015_05
-122.286,52.531,MCLEESE LAKE GRANITE MT,1095018,BC,11.8,16,NA,23,11,-4,11,0.4,11,NA,39.4,11,NA,NA,5,NA,NA,NA,93.3,0,2015_05
-122.678,53.884,PRINCE GEORGE,1096439,BC,11.9,1,NA,25.7,1,-3.6,1,NA,NA,NA,41.8,1,NA,NA,5,NA,NA,NA,181.9,0,2015_05
-122.672,53.889,PRINCE GEORGE AIRPORT AUTO,1096453,BC,11.7,0,NA,25.7,0,-3.8,0,NA,NA,NA,39,0,NA,NA,5,NA,NA,NA,195.4,0,2015_05
-122.768,53.88,PRINCE GEORGE STP,1096468,BC,13.3,4,2.4,26.5,4,-2,4,0,4,NA,16.2,4,NA,NA,3,NA,NA,NA,127.7,0.6,2015_05
-122.51,53.026,QUESNEL,1096629,BC,12.9,0,NA,28.5,0,-4.1,0,NA,NA,NA,15.4,0,NA,NA,4,NA,NA,NA,159.3,0.8,2015_05
-122.506,53.027,QUESNEL AIRPORT AUTO,1096631,BC,13,0,NA,28.7,0,-4.2,0,NA,NA,NA,14,1,NA,NA,3,NA,NA,NA,156,0.7,2015_05
-121.686,52.184,SPOKIN LAKE 4E,1097646,BC,9.4,0,1.4,24.5,0,-7.5,0,0,0,0,38.6,0,77,0,9,NA,NA,NA,267.4,0,2015_05
-122.054,52.183,WILLIAMS LAKE A,1098941,BC,11.5,0,NA,24.9,0,-3.2,0,0,0,NA,16.8,1,NA,NA,5,NA,NA,NA,201.2,0,2015_05
-124.017,54.033,VANDERHOOF,1098D90,BC,13.2,4,2.5,27.5,4,-3.5,4,0,4,NA,43.2,4,NA,0,8,NA,NA,NA,132.2,1.3,2015_05
-121.263,51.623,108 MILE HOUSE ABEL LAKE,109E7R6,BC,11.6,0,NA,26,0,-4.5,0,0,0,NA,56.3,0,NA,0,8,NA,NA,NA,199.6,0,2015_05
-122.36,49.025,ABBOTSFORD A,1100031,BC,15,0,NA,26.5,0,3.3,0,0,0,NA,8.6,1,NA,NA,4,NA,NA,NA,96.8,3.7,2015_05
-121.76,49.243,AGASSIZ RCS,1100119,BC,16.3,0,2.3,27.4,0,5.1,0,NA,NA,NA,34.8,0,NA,NA,4,NA,NA,NA,70,16.8,2015_05
-121.76,49.243,AGASSIZ CDA,1100120,BC,16.5,0,2.9,28,0,5,0,0,0,NA,50,0,49,0,13,NA,NA,NA,63.2,18.1,2015_05
-122.955,50.129,WHISTLER - NESTERS,1100875,BC,13.6,0,NA,27.6,0,-1,0,NA,NA,NA,28.4,0,NA,NA,4,NA,NA,NA,136.2,0.2,2015_05
-122.936,50.102,BLACKCOMB BASE SLIDING CENTER,1100881,BC,12.3,0,NA,24.2,0,-0.3,0,NA,NA,NA,18,7,NA,NA,4,NA,NA,NA,175.9,0,2015_05
-122.918,49.278,BURNABY SIMON FRASER U,1101158,BC,14.3,22,2.6,21.5,22,8,22,0,22,NA,3.8,22,NA,NA,2,NA,NA,NA,33.2,0,2015_05
-123.111,50.144,CALLAGHAN VALLEY,1101300,BC,11.7,0,NA,24.2,0,-1.3,0,NA,NA,NA,36.6,0,NA,NA,10,NA,NA,NA,194.8,0,2015_05
-122.698,49.109,CLOVERDALE EAST,1101708,BC,15.4,26,NA,21,26,10,26,0,26,NA,1.2,26,NA,NA,1,NA,NA,NA,13.1,0,2015_05
-122.866,49.269,COQUITLAM COMO LAKE AVE,1101889,BC,NA,NA,NA,NA,NA,NA,NA,0,0,0,10.5,0,9,0,3,NA,NA,NA,NA,NA,2015_05
-121.704,49.08,CHILLIWACK R HATCHERY,1101N65,BC,14.3,3,2.3,26,3,1,3,0,3,NA,65.7,3,NA,NA,8,NA,NA,NA,105.1,1.5,2015_05
-123.002,49.126,DELTA BURNS BOG,1102415,BC,14.8,0,NA,26.7,0,1.7,0,NA,NA,NA,4.3,1,NA,NA,2,NA,NA,NA,102,1.6,2015_05
-123.093,49.011,DELTA TSAWWASSEN BEACH,1102425,BC,15.1,9,1.7,23.5,9,6.5,9,0,8,NA,4.2,8,NA,0,2,NA,NA,NA,64.5,0,2015_05
-122.551,49.145,FORT LANGLEY TELEGRAPH TRAIL,1102912,BC,15.1,0,NA,26.5,0,4,0,0,0,NA,13.8,0,NA,0,3,NA,NA,NA,95.7,5.8,2015_05
-122.573,49.264,HANEY UBC RF ADMIN,1103332,BC,15.3,2,3,26.5,1,4,2,0,0,NA,35.4,0,26,0,5,NA,NA,NA,83.2,5.2,2015_05
-121.579,49.356,LAIDLAW,1104488,BC,16.8,0,3.2,28.5,0,5,0,0,0,NA,37.8,0,29,0,7,NA,NA,NA,58.7,20.2,2015_05
-122.507,49.211,MAPLE RIDGE KANAKA CREEK,1104R02,BC,14.8,1,2.3,27,1,2.5,1,0,1,NA,33.1,1,NA,NA,4,NA,NA,NA,100.4,4.6,2015_05
-122.271,49.153,MISSION WEST ABBEY,1105192,BC,15.3,0,2.6,26,0,5,0,0,0,NA,17,0,13,0,6,NA,NA,NA,91.6,7.7,2015_05
-123.078,49.182,RICHMOND OPERATIONS CENTRE,1105210,BC,NA,NA,NA,NA,NA,NA,NA,NA,NA,NA,7.3,0,NA,NA,3,NA,NA,NA,NA,NA,2015_05
-123.115,49.315,N VANCOUVER WHARVES,1105669,BC,NA,NA,NA,NA,NA,NA,NA,0,1,NA,4,1,NA,0,1,NA,NA,NA,NA,NA,2015_05
-122.69,49.208,PITT MEADOWS CS,1106178,BC,15.5,0,NA,27,0,3.5,0,NA,NA,NA,27.6,0,NA,NA,2,NA,NA,NA,84.8,8.3,2015_05
-123.265,49.33,POINT ATKINSON,1106200,BC,15,0,NA,22.2,0,6.4,0,NA,NA,NA,5.5,0,NA,NA,2,NA,NA,NA,93.4,1.6,2015_05
-123.087,49.179,RICHMOND DALLYN 2,1106764,BC,NA,NA,NA,NA,NA,NA,NA,0,1,NA,7.2,1,NA,0,2,NA,NA,NA,NA,NA,2015_05
-123.093,49.171,RICHMOND NATURE PARK,1106PF7,BC,15.3,4,2,27,4,3,4,0,4,NA,4.8,4,NA,0,3,NA,NA,NA,75.2,3.3,2015_05
-123.303,49.106,SANDHEADS CS,1107010,BC,14.5,0,NA,22.1,0,8.2,0,NA,NA,NA,NA,NA,NA,NA,NA,NA,NA,NA,109.8,1.2,2015_05
-122.11,49.113,SUMAS CANAL,1107785,BC,16.5,24,NA,27.5,17,5.5,17,0,17,NA,25.6,17,NA,NA,3,NA,NA,NA,12.8,2.4,2015_05
-123.187,49.183,VANCOUVER SEA ISLAND CCG,1108380,BC,14.6,0,NA,21.8,0,4.6,0,NA,NA,NA,5.2,0,NA,NA,2,NA,NA,NA,106.7,0,2015_05
-123.184,49.195,VANCOUVER INTL A,1108395,BC,14.7,0,NA,22.5,0,2.9,0,0,0,NA,4.2,1,NA,0,2,NA,NA,NA,103.6,0.4,2015_05
-123.122,49.295,VANCOUVER HARBOUR CS,1108446,BC,15.8,0,NA,24.6,0,6.6,0,NA,NA,NA,2,0,NA,NA,1,NA,NA,NA,71.8,4.3,2015_05
-123.193,49.347,WEST VANCOUVER AUT,1108824,BC,15.2,0,NA,24.4,0,5.2,0,NA,NA,NA,4.1,0,NA,NA,1,NA,NA,NA,89.3,2.8,2015_05
-122.947,50.068,WHISTLER ROUNDHOUSE,1108906,BC,5.1,4,NA,12.5,4,-5,4,4,4,NA,28.1,4,NA,10,6,NA,NA,NA,348.1,0,2015_05
-122.784,49.018,WHITE ROCK CAMPBELL SCIENTIFIC,1108910,BC,14.5,0,NA,25.3,0,5.4,0,NA,NA,NA,4.6,0,NA,NA,2,NA,NA,NA,109.8,0.1,2015_05
-122.967,49.438,N VAN SEYMOUR HATCHERY,110N666,BC,14.4,3,2.9,27,3,3.5,3,0,3,NA,27.6,3,NA,0,4,NA,NA,NA,104.4,2.8,2015_05
-121.498,49.368,HOPE A,1113542,BC,16.3,1,NA,28.1,1,5.4,0,NA,NA,NA,32.1,1,NA,NA,5,NA,NA,NA,65.5,15.5,2015_05
-121.493,49.37,HOPE AIRPORT,1113543,BC,16.2,0,NA,27.9,0,5.2,0,NA,NA,NA,30.3,0,NA,NA,6,NA,NA,NA,69.6,14.3,2015_05
-121.233,49.267,HOPE SLIDE,1113581,BC,13.2,0,3.8,25,0,0,0,0,0,0,36.2,0,53,0,8,NA,NA,NA,149.6,0,2015_05
-121.934,50.684,LILLOOET,1114619,BC,17.6,0,NA,31.1,0,1.8,0,NA,NA,NA,NA,NA,NA,NA,NA,NA,NA,NA,48.8,35.2,2015_05
-121.582,50.224,LYTTON A,1114738,BC,17.6,1,NA,33.5,1,1.7,1,NA,NA,NA,11.5,1,NA,NA,3,NA,NA,NA,45.8,34.1,2015_05
-121.582,50.224,LYTTON RCS,1114746,BC,17.7,1,NA,33.7,1,1.4,0,NA,NA,NA,10.8,13,NA,NA,3,NA,NA,NA,45.4,37.4,2015_05
-120.069,49.364,HEDLEY N,1123370,BC,15.8,3,NA,31,3,-1,3,0,3,NA,27.6,3,NA,0,5,NA,NA,NA,71.7,11,2015_05
-120.333,49.673,JELLICOE,1123721,BC,12.2,1,NA,27.5,1,-3,1,0,1,NA,16.4,1,NA,0,4,NA,NA,NA,174.7,0,2015_05
-119.378,49.957,KELOWNA,1123939,BC,14.5,3,NA,29.6,3,-2.3,3,NA,NA,NA,38.7,3,NA,NA,5,NA,NA,NA,101.5,4.1,2015_05
-119.4,49.941,KELOWNA UBCO,1123996,BC,15.7,0,NA,30,0,0.3,0,NA,NA,NA,37.3,0,NA,NA,5,NA,NA,NA,85.9,14.7,2015_05
-119.4,49.95,KELOWNA MWS0,11239R0,BC,15.4,0,NA,30,0,0.2,0,0,0,NA,44.8,0,NA,0,6,NA,NA,NA,93,13.7,2015_05
-120.778,50.113,MERRITT,1125073,BC,14.1,0,NA,29.7,0,-3.9,0,NA,NA,NA,43.8,12,NA,NA,5,NA,NA,NA,125.6,5.4,2015_05
-120.801,50.114,MERRITT STP,1125079,BC,14.7,0,2.4,30,0,-1,0,0,0,0,55,0,183,0,3,NA,NA,NA,110.6,7.9,2015_05
-119.445,50.056,OKANAGAN CENTRE,1125700,BC,16.2,2,2.2,28.5,2,3.5,2,0,2,NA,36.6,2,NA,0,7,NA,NA,NA,70.4,17.9,2015_05
-119.545,49.179,OLIVER STP,1125766,BC,17.3,11,2.2,32,11,2.5,11,0,11,NA,11.8,11,NA,NA,3,NA,NA,NA,37.5,22.5,2015_05
-119.441,49.028,OSOYOOS CS,1125852,BC,17.2,0,1.7,32.5,0,1.6,0,NA,NA,NA,36.6,0,NA,NA,3,NA,NA,NA,60.3,36,2015_05
-119.717,49.783,PEACHLAND,1126070,BC,16.8,0,2.6,28.5,0,4,0,0,0,NA,33.6,0,97,0,7,NA,NA,NA,63.2,27.4,2015_05
-119.602,49.463,PENTICTON A,1126146,BC,15.6,0,NA,29.8,0,-0.1,0,0,1,NA,36.4,2,NA,NA,4,NA,NA,NA,87.7,14.6,2015_05
-120.513,49.468,PRINCETON A,1126510,BC,13.4,0,2.1,28.5,0,-4,0,2,0,290,15.8,0,53,0,3,NA,NA,NA,143.8,2.3,2015_05
-119.31,50.264,VERNON BELLA VISTA,1128553,BC,16,2,2.2,30.5,1,0.5,1,0,0,NA,40.8,0,98,0,7,NA,NA,NA,73.3,15.3,2015_05
-119.194,50.223,VERNON AUTO,1128582,BC,15.9,0,NA,30.1,0,0.3,0,NA,NA,NA,44.4,0,NA,NA,7,NA,NA,NA,80.2,14.9,2015_05
-119.27,50.344,VERNON NORTH,1128583,BC,16,0,2.1,29.5,0,0.5,0,0,0,NA,38,0,82,0,7,NA,NA,NA,78.3,17.2,2015_05
-119.415,50.037,WINFIELD,1128958,BC,16.5,12,2.9,29,12,2.5,12,0,12,NA,28.4,12,NA,NA,5,NA,NA,NA,43.3,14.1,2015_05
-120.51,49.465,PRINCETON CS,112FN0M,BC,13.7,0,NA,29.3,0,-2.5,0,NA,NA,NA,11.6,0,NA,NA,4,NA,NA,NA,137.2,2.6,2015_05
-119.649,49.563,SUMMERLAND CS,112G8L1,BC,16,0,1.9,29.7,0,1.4,0,NA,NA,NA,54.8,0,NA,NA,4,NA,NA,NA,80.2,18.4,2015_05
-118.491,49.037,GRAND FORKS HARDY MTN,1133273,BC,NA,NA,NA,NA,NA,NA,NA,0,1,NA,36.4,1,NA,0,7,NA,NA,NA,NA,NA,2015_05
-118.772,49.004,MIDWAY,1135126,BC,14.3,0,1.9,31.5,0,-2.5,0,0,0,NA,47.2,0,67,0,9,NA,NA,NA,118.5,3.7,2015_05
-118.228,49.017,BILLINGS,1140876,BC,14.7,2,1.6,30,2,1,2,0,2,NA,70.4,2,NA,0,9,NA,NA,NA,97.7,3.1,2015_05
-117.633,49.296,CASTLEGAR A,1141455,BC,15.2,0,1.9,31.7,0,-1,0,0,0,0,38.5,0,55,0,7,NA,NA,NA,95.4,7.2,2015_05
-117.774,49.343,CASTLEGAR BCHPA DAM,1141457,BC,15.9,4,2.6,33,2,3,2,0,2,NA,42.6,2,NA,0,9,NA,NA,NA,68.5,10.6,2015_05
-116.518,49.097,CRESTON,1142160,BC,15.3,0,2.3,29,0,2,0,0,0,NA,35.6,0,55,0,6,NA,NA,NA,90.2,7.3,2015_05
-116.972,50.239,DUNCAN LAKE DAM,1142574,BC,12.9,1,1.3,30.5,0,-2,0,0,0,0,56.6,0,98,0,8,NA,NA,NA,153.6,0,2015_05
-118.068,49.872,FAUQUIER,1142820,BC,13.5,0,1.3,30,0,0,0,0,0,NA,91.8,0,121,0,12,NA,NA,NA,141.4,0.8,2015_05
-116.921,49.913,KASLO,1143900,BC,14.4,0,2.4,29.5,0,0,0,0,0,NA,27.8,0,46,0,6,NA,NA,NA,124.6,12.6,2015_05
-116.458,49.032,LISTER,1144635,BC,14.7,0,2.1,30.5,0,0.5,0,0,0,0,28.8,0,42,0,5,NA,NA,NA,108.6,5.4,2015_05
-117.817,50.269,NAKUSP CS,1145297,BC,14.7,2,NA,31.3,2,-1,1,NA,NA,NA,42.5,2,NA,NA,9,NA,NA,NA,103.7,6.7,2015_05
-117.206,49.586,NELSON NE,1145442,BC,14.9,0,NA,31,0,0,0,0,0,NA,23.5,0,NA,0,7,NA,NA,NA,102.5,4.9,2015_05
-117.37,49.996,NEW DENVER,1145460,BC,14.6,0,2.1,30.5,0,-0.5,0,0,0,0,43,0,65,0,7,NA,NA,NA,111.6,5.6,2015_05
-117.305,49.491,NELSON CS,1145M29,BC,15.5,0,NA,32.5,0,1.1,0,NA,NA,NA,23,0,NA,NA,3,NA,NA,NA,87.9,9.1,2015_05
-117.739,49.112,WARFIELD RCS,1148705,BC,16,0,NA,31.6,0,2.1,0,NA,NA,NA,28.9,0,NA,NA,9,NA,NA,NA,75.2,12.8,2015_05
-116.501,49.082,CRESTON CAMPBELL SCIENTIFIC,114B1F0,BC,15.6,0,NA,29.9,0,2.3,0,NA,NA,NA,22.2,0,NA,NA,6,NA,NA,NA,86.3,12.7,2015_05
-117.399,49.512,NELSON RIXEN CREEK,114EMDM,BC,14.1,3,NA,30.5,3,-1,3,0,3,NA,38.4,3,NA,0,7,NA,NA,NA,111.3,3.3,2015_05
-115.221,49.226,BAYNES LAKE KOOTENAY RIVER,1150690,BC,12.9,0,1.6,27.5,0,-4.5,0,0,0,0,14.2,0,26,0,2,NA,NA,NA,159.9,0.8,2015_05
-115.782,49.612,CRANBROOK A,1152105,BC,12.4,0,NA,26.9,0,-2.6,0,0,0,NA,24.8,0,NA,NA,7,NA,NA,NA,173.5,0,2015_05
-115.789,49.618,CRANBROOK AIRPORT AUTO,1152106,BC,12.4,0,NA,26.7,0,-1.5,0,NA,NA,NA,18.9,0,NA,NA,6,NA,NA,NA,174.8,0,2015_05
-115.073,49.489,FERNIE,1152850,BC,10.2,16,0.3,24,16,-3,15,0,15,NA,13.7,15,NA,0,4,NA,NA,NA,117.7,0,2015_05
-114.855,50.149,FORDING RIVER COMINCO,1152899,BC,6.3,26,0.8,25,18,-6.6,19,0,18,NA,39.4,18,NA,NA,5,NA,NA,NA,58.4,0,2015_05
-115.461,49.524,FT STEELE DANDY CRK,1153034,BC,13.3,19,NA,27.5,16,-2,16,0,16,NA,27.7,16,NA,0,5,NA,NA,NA,55.9,0,2015_05
-115.962,49.632,KIMBERLEY PCC,1154203,BC,12.6,17,1.6,27.5,17,-2,17,0,17,NA,15.2,17,NA,NA,4,NA,NA,NA,75,0,2015_05
-116.061,50.631,KOOTENAY NP WEST GATE,1154410,BC,14,3,2.2,29,1,0,3,0,0,0,25.8,0,55,NA,6,NA,NA,NA,113.8,1.8,2015_05
-114.883,49.745,SPARWOOD,1157630,BC,9.4,0,0.3,24,0,-4.5,0,0,0,0,62,0,103,0,8,NA,NA,NA,265.2,0,2015_05
-114.884,49.745,SPARWOOD CS,1157631,BC,9.4,0,NA,24.1,0,-4.7,0,NA,NA,NA,45.8,22,NA,NA,3,NA,NA,NA,266.4,0,2015_05
-115.46,49.473,WARDNER KTNY HATCHERY,1158692,BC,11.4,22,-0.3,26,22,-2.5,17,0,17,NA,33.3,17,NA,0,4,NA,NA,NA,59.8,0.8,2015_05
-115.631,49.807,WASA,1158730,BC,12.2,0,0.9,27,0,-2,0,0,0,0,48,0,94,0,7,NA,NA,NA,179,0,2015_05
-121.281,50.708,ASHCROFT,1160515,BC,17.4,1,NA,32.3,1,1.4,0,NA,NA,NA,16.2,1,NA,NA,3,NA,NA,NA,55.8,38.8,2015_05
-119.29,52.129,BLUE RIVER A,1160899,BC,11.9,0,1.7,28.5,0,-4.8,0,0,0,0,45,0,59,0,11,NA,NA,NA,188.5,0,2015_05
-119.29,52.129,BLUE RIVER CS,1160H99,BC,11.9,0,NA,28.5,0,-4.8,0,NA,NA,NA,25.6,2,NA,NA,5,NA,NA,NA,189.2,0,2015_05
-121.083,51.709,BUFFALO LAKE,1161104,BC,10.2,1,1.5,24.5,1,-7,1,1.8,1,NA,59.2,1,NA,0,8,NA,NA,NA,235.2,0,2015_05
-120.082,51.653,CLEARWATER AUTO,1161650,BC,14.3,1,NA,31.4,1,-2.1,0,NA,NA,NA,17.7,1,NA,NA,4,NA,NA,NA,118.5,8.6,2015_05
-121.685,51.266,CLINTON A,1161662,BC,9.2,0,NA,24.8,0,-7.8,0,NA,NA,NA,30.5,0,NA,NA,6,NA,NA,NA,271.9,0,2015_05
-121.505,51.144,CLINTON RCS,1161663,BC,11.1,0,NA,25.2,0,-4.8,0,NA,NA,NA,47.3,0,NA,NA,7,NA,NA,NA,213.9,0,2015_05
-120.728,51.03,CRISS CREEK,1162177,BC,9.1,0,1.4,23.5,0,-6.5,0,2.2,0,33,42.8,0,85,0,9,NA,NA,NA,277.1,0,2015_05
-120.183,51.297,DARFIELD,1162265,BC,15,0,2.1,30.5,0,-2,0,0,0,0,4.6,0,10,0,3,NA,NA,NA,104.8,11.7,2015_05
-120.449,50.703,KAMLOOPS A,1163781,BC,16.8,0,NA,31.2,0,0.2,0,0,0,NA,5.2,0,NA,NA,2,NA,NA,NA,66.1,29.3,2015_05
-120.442,50.702,KAMLOOPS AUT,1163842,BC,16.9,0,NA,31.5,0,0.6,0,NA,NA,NA,4.5,4,NA,NA,2,NA,NA,NA,64.6,30.8,2015_05
-121.217,51.681,100 MILE HOUSE 6NE,1165793,BC,10.9,0,NA,25,0,-3,0,0,0,NA,114.2,0,NA,0,15,NA,NA,NA,219.7,0,2015_05
-120.8,50.935,RED LAKE,1166658,BC,11.7,0,3.2,24,0,-3,0,0,0,0,38.7,0,77,0,4,NA,NA,NA,194.4,0,2015_05
-119.234,50.686,SALMON ARM A,1166R45,BC,15.9,1,3.4,29,1,1,1,0,1,NA,28,1,NA,NA,4,NA,NA,NA,77.5,13.8,2015_05
-119.35,50.545,SILVER CREEK,1167337,BC,14.5,0,1.9,30,0,-2.5,0,0,0,0,33,0,68,0,4,NA,NA,NA,110.9,2.6,2015_05
-119.778,51.576,VAVENBY,1168520,BC,13.9,0,1.6,31.5,0,-3.5,0,0,0,0,19.4,0,44,0,7,NA,NA,NA,130.3,2.8,2015_05
-120.172,50.63,KAMLOOPS PRATT ROAD,116C8P0,BC,15,5,NA,29,5,0,5,0,5,NA,16.2,5,NA,0,4,NA,NA,NA,84.5,7.6,2015_05
-119.291,50.703,SALMON ARM CS,116FRMN,BC,15.6,2,1.6,28.9,2,-0.9,0,NA,NA,NA,21.8,2,NA,NA,3,NA,NA,NA,77.5,9,2015_05
-119.472,52.719,CARIBOO LODGE,1171393,BC,10.2,1,2.4,27,1,-4.5,1,0,1,NA,24.2,1,NA,NA,6,NA,NA,NA,233.9,0,2015_05
-116.982,51.299,GOLDEN A,1173210,BC,12.6,0,1.4,28.5,0,-2.5,0,0,0,0,25.2,0,73,0,6,NA,NA,NA,165.9,0,2015_05
-118.425,51.63,GOLDSTREAM RIVER,1173242,BC,13.1,0,2.6,30,0,-1,0,0,0,0,39,0,56,0,9,NA,NA,NA,153,0.5,2015_05
-118.585,52.053,MICA DAM,1175122,BC,11.7,7,0.8,29,4,-2,4,0,4,NA,37.3,4,NA,0,8,NA,NA,NA,150.8,0,2015_05
-118.183,50.967,REVELSTOKE A,1176745,BC,14.6,0,NA,31.5,0,-0.8,0,NA,NA,NA,25.1,0,NA,NA,7,NA,NA,NA,109.9,3,2015_05
-118.176,50.958,REVELSTOKE AIRPORT AUTO,1176755,BC,14.6,2,NA,31.7,2,-0.6,0,NA,NA,NA,25.7,2,NA,NA,4,NA,NA,NA,105.3,5.4,2015_05
-116.345,51.443,YOHO PARK,11790J1,BC,7.7,0,NA,23.3,0,-8.3,0,NA,NA,NA,38.8,0,NA,NA,7,NA,NA,NA,320.5,0,2015_05
-116.541,51.433,YOHO NP EMERALD LAKE,117R00G,BC,9,18,NA,28,18,-7,18,0,18,NA,26.4,18,NA,NA,5,NA,NA,NA,116.4,0,2015_05
-121.017,56.298,CHARLIE LAKE,11814FR,BC,9.7,2,NA,27,2,-5,2,16,2,NA,42.2,2,NA,0,6,NA,NA,NA,241.6,0,2015_05
-121.627,55.687,CHETWYND A,1181508,BC,11,0,1.5,27.8,0,-3,0,13,0,249,55.6,0,150,0,9,NA,NA,NA,216.2,0,2015_05
-120.183,55.742,DAWSON CREEK A,1182289,BC,10.6,0,NA,27.6,0,-5,0,NA,NA,NA,37,0,NA,NA,6,NA,NA,NA,229.3,0,2015_05
-120.74,56.238,FORT ST. JOHN A,1183001,BC,11.1,0,NA,26.5,0,-3.3,0,16,0,NA,29.2,1,NA,NA,6,NA,NA,NA,214.4,0.1,2015_05
-123.133,55.299,MACKENZIE,1184791,BC,11.6,0,NA,26.9,0,-4.2,0,NA,NA,NA,30.8,0,NA,NA,3,NA,NA,NA,198.3,0.6,2015_05
-123.138,55.305,MACKENZIE AIRPORT AUTO,1184793,BC,12.1,0,NA,27.7,0,-4.1,0,NA,NA,NA,27.1,0,NA,NA,2,NA,NA,NA,184.1,1.5,2015_05
-122.718,57.25,SIKANNI CHIEF,1187335,BC,12,23,NA,25.2,23,-1.3,23,0,23,NA,10.6,23,NA,NA,3,NA,NA,NA,47.8,0,2015_05
-130.031,58.422,DEASE LAKE A,1192341,BC,10.7,3,NA,25.3,3,-4.7,2,NA,NA,NA,9,4,NA,NA,2,NA,NA,NA,203.2,0,2015_05
-122.597,58.836,FORT NELSON A,1192946,BC,12.1,0,NA,29.3,0,-3.7,0,4,0,NA,22,0,NA,NA,3,NA,NA,NA,187.1,5.1,2015_05
-122.573,58.841,FORT NELSON UA,1192950,BC,13.1,0,NA,31,0,-2.5,0,0,0,NA,31.8,0,NA,0,7,NA,NA,NA,160.1,7.5,2015_05
-130.025,58.426,DEASE LAKE (AUT),119BLM0,BC,10.6,1,NA,25.6,1,-4.9,0,NA,NA,NA,10.9,2,NA,NA,3,NA,NA,NA,222.2,0,2015_05
-133.7,59.567,ATLIN,1200560,BC,10.3,4,3.3,25.5,4,-3,4,0,4,NA,7.3,4,NA,0,2,NA,NA,NA,209.1,0,2015_05
-136.367,59.45,PLEASANT CAMP,1206197,BC,11.4,1,3.6,27.5,1,-2,1,0,1,NA,2.8,1,NA,NA,2,NA,NA,NA,197.8,0,2015_05
-139.04,61.371,BURWASH A,2100181,YT,8.2,8,NA,23.2,8,-8.2,8,NA,NA,NA,28.8,8,NA,NA,3,NA,NA,NA,226.4,0,2015_05
-139.017,61.367,BURWASH AIRPORT AUTO,2100184,YT,8.5,0,NA,26.6,0,-9.3,0,NA,NA,NA,26.1,0,NA,NA,3,NA,NA,NA,296,0,2015_05
-136.192,62.115,CARMACKS CS,2100301,YT,11.4,0,NA,29.7,0,-7.7,0,NA,NA,NA,5.4,0,NA,NA,1,NA,NA,NA,204.7,0.9,2015_05
-133.376,62.208,FARO (AUT),2100518,YT,11,0,NA,27.4,0,-6.8,0,NA,NA,NA,4,9,NA,NA,2,NA,NA,NA,216.1,0.5,2015_05
-137.58,60.773,HAINES JUNCTION,2100630,YT,9.5,0,NA,28.6,0,-7.1,0,NA,NA,NA,6.5,0,NA,NA,1,NA,NA,NA,262,0,2015_05
-140.15,69.164,IVVAVIK NAT. PARK,2100660,YT,6.7,0,NA,27.7,0,-8.3,0,NA,NA,NA,2.7,1,NA,NA,0,NA,NA,NA,351.2,0,2015_05
-140.197,69.612,KOMAKUK BEACH,2100682,YT,0.5,0,NA,13.3,0,-10.1,0,NA,NA,NA,NA,NA,NA,NA,NA,NA,NA,NA,543.6,0,2015_05
-130.037,63.244,MACMILLAN PASS,2100693,YT,4.5,0,NA,21.1,0,-16.9,0,NA,NA,NA,31.2,1,NA,NA,4,NA,NA,NA,417.2,0,2015_05
-140.848,68.801,MARGARET LAKE,2100697,YT,6.2,0,NA,24.5,0,-10.1,0,NA,NA,NA,NA,NA,NA,NA,NA,NA,NA,NA,364.3,0,2015_05
-135.868,63.616,MAYO A,2100701,YT,13.2,0,NA,28.9,0,-4.2,0,0,0,NA,19.6,0,NA,NA,3,NA,NA,NA,159,8.9,2015_05
-135.183,60.876,MAYO ROAD,2100709,YT,9,9,1.3,28,9,-8,9,0,5,NA,20.3,5,NA,0,4,NA,NA,NA,197.2,0,2015_05
-139.839,67.571,OLD CROW RCS,2100805,YT,8.7,0,NA,27.3,0,-9.3,0,NA,NA,NA,4.6,0,NA,NA,1,NA,NA,NA,287.7,0,2015_05
-137.05,61.033,OTTER FALLS NCPC,2100840,YT,9.7,1,3.7,30.5,1,-6,1,0,1,NA,14.8,1,NA,NA,4,NA,NA,NA,250.3,0,2015_05
-137.311,62.83,PELLY RANCH,2100880,YT,12.5,0,4.2,30,0,-7,0,0,0,0,4.8,0,18,NA,2,NA,NA,NA,170.2,0.5,2015_05
-136.218,66.981,ROCK RIVER,2100935,YT,7.3,0,NA,23.9,0,-8.6,0,NA,NA,NA,16,1,NA,NA,4,NA,NA,NA,331.2,0,2015_05
-137.217,68.95,SHINGLE POINT A,2100950,YT,2.4,0,NA,23.1,0,-15.4,0,NA,NA,NA,NA,NA,NA,NA,NA,NA,NA,NA,483.3,0,2015_05
-129.132,61.182,HOUR LAKE,2100FCG,YT,9.1,0,NA,25,0,-7,0,1.2,0,NA,18.6,0,NA,0,4,NA,NA,NA,277,0,2015_05
-139.127,64.061,DAWSON,2100LRP,YT,12.1,0,NA,29.6,0,-6.3,0,NA,NA,NA,29,0,NA,NA,8,NA,NA,NA,182,0.1,2015_05
-135.573,60.946,TAKHINI RIVER RANCH,2101095,YT,5,0,-1.9,27.5,0,-3.5,0,0,0,0,18.2,0,120,NA,7,NA,NA,NA,402.7,0,2015_05
-132.733,60.167,TESLIN (AUT),2101102,YT,10.2,0,NA,26.1,0,-6.5,0,NA,NA,NA,9.5,0,NA,NA,3,NA,NA,NA,240.6,0,2015_05
-128.832,60.116,WATSON LAKE (AUT),2101204,YT,11.4,2,NA,27,2,-5.6,1,NA,NA,NA,29.4,2,NA,NA,4,NA,NA,NA,192.6,0,2015_05
-135.067,60.709,WHITEHORSE A,2101303,YT,11.8,0,NA,27.4,0,-3.9,0,NA,NA,NA,NA,NA,NA,NA,NA,NA,NA,NA,192.9,0,2015_05
-135.098,60.733,WHITEHORSE AUTO,2101310,YT,10.5,6,NA,24.4,5,-4.1,6,NA,NA,NA,5.1,0,NA,NA,2,NA,NA,NA,187.4,0,2015_05
-124.717,70.167,CAPE PARRY A,2200675,NT,-1.5,0,NA,11.6,0,-13.5,0,NA,NA,NA,NA,NA,NA,NA,NA,NA,NA,NA,603.7,0,2015_05
-126.123,67.021,COLVILLE LAKE,2200824,NT,5,0,NA,25.7,0,-17.3,0,NA,NA,NA,24.7,4,NA,NA,12,NA,NA,NA,402.7,0,2015_05
-123.433,65.209,DELINE CS,2201022,NT,5,0,NA,24,0,-15.3,0,NA,NA,NA,NA,NA,NA,NA,NA,NA,NA,NA,402.4,0,2015_05
-124.468,61.257,DEADMEN VALLEY,22010H0,NT,11.4,0,NA,31.1,0,-8.2,0,NA,NA,NA,2.3,24,NA,NA,1,NA,NA,NA,203.7,0.5,2015_05
-128.644,66.242,FORT GOOD HOPE CS,2201450,NT,9.8,0,NA,29.9,0,-12,0,NA,NA,NA,NA,NA,NA,NA,NA,NA,NA,NA,257.3,3.5,2015_05
-123.467,60.233,FORT LIARD,2201579,NT,12.7,0,NA,31.1,0,-5.5,0,NA,NA,NA,NA,NA,NA,NA,NA,NA,NA,NA,171,5.6,2015_05
-109.168,62.711,FORT RELIANCE (AUT),2201903,NT,4.8,0,NA,22.6,0,-12.5,0,NA,NA,NA,15.3,0,NA,NA,1,NA,NA,NA,409.1,0,2015_05
-121.237,61.76,FORT SIMPSON CLIMATE,2202102,NT,12.4,0,NA,30.4,0,-5.9,0,NA,NA,NA,9,0,NA,NA,1,NA,NA,NA,182.6,9.8,2015_05
-121.237,61.76,FORT SIMPSON A,2202103,NT,12.5,0,NA,30.4,0,-5.4,0,0.8,0,NA,10.8,0,NA,NA,2,NA,NA,NA,180.1,10.8,2015_05
-111.962,60.02,FORT SMITH A,2202201,NT,9.4,0,NA,27.6,0,-7.2,0,0,0,NA,4.6,0,NA,NA,1,NA,NA,NA,266.1,0,2015_05
-111.929,60.026,FORT SMITH CLIMATE,2202202,NT,9.4,0,NA,27.9,0,-8.2,0,NA,NA,NA,3.4,0,NA,NA,1,NA,NA,NA,266.9,0,2015_05
-105.133,63.6,HANBURY RIVER,2202351,NT,-3.1,0,NA,14.9,0,-23.6,0,NA,NA,NA,4.8,0,NA,NA,2,NA,NA,NA,654.7,0,2015_05
-115.783,60.84,HAY RIVER A,2202401,NT,8.2,0,NA,28,0,-7.1,0,0.2,0,NA,3.2,0,NA,NA,1,NA,NA,NA,304.6,0,2015_05
-115.777,60.839,HAY RIVER CLIMATE,2202402,NT,8.5,0,NA,27.9,0,-5.7,0,NA,NA,NA,9.8,0,NA,NA,5,NA,NA,NA,294.1,0,2015_05
-133.517,68.317,INUVIK CLIMATE,2202578,NT,6.7,1,NA,28,1,-9.7,0,NA,NA,NA,2.5,2,NA,0,1,NA,NA,NA,339.1,1.2,2015_05
-117.245,63.134,WHATI,2202678,NT,9,0,NA,27.4,0,-9.1,0,NA,NA,NA,NA,NA,NA,NA,NA,NA,NA,NA,279.6,2.1,2015_05
-126.799,65.281,NORMAN WELLS A,2202801,NT,9.5,0,NA,30,0,-5.7,0,4.8,0,NA,8,0,NA,NA,3,NA,NA,NA,265.5,1.8,2015_05
-126.753,65.288,NORMAN WELLS CLIMATE,2202810,NT,9.6,0,NA,30.3,0,-8.3,0,NA,NA,NA,12.4,0,NA,NA,4,NA,NA,NA,262.4,3,2015_05
-124.083,69.358,PAULATUK,2203058,NT,0.8,0,NA,20.8,0,-16,0,NA,NA,NA,2.4,0,NA,NA,0,NA,NA,NA,533.1,0,2015_05
-127.209,61.963,RABBIT KETTLE,2203342,NT,11.5,0,NA,29.8,0,-7.7,0,NA,NA,NA,NA,NA,NA,NA,NA,NA,NA,NA,201.3,0.1,2015_05
-133.026,69.433,TUKTOYAKTUK A,2203912,NT,3.1,5,7.8,21.1,5,-15.6,5,0.2,5,NA,0.8,5,NA,NA,0,NA,NA,NA,386.3,0,2015_05
-133.017,69.433,TUKTOYAKTUK,2203914,NT,2.6,0,NA,25.2,0,-14.9,0,NA,NA,NA,NA,NA,NA,NA,NA,NA,NA,NA,478.3,0,2015_05
-114.44,62.463,YELLOWKNIFE A,2204101,NT,7.6,0,NA,26.3,0,-8.7,0,0.8,0,NA,1,1,NA,NA,0,NA,NA,NA,323,0,2015_05
-114.383,62.45,YELLOWKNIFE-HENDERSON,2204110,NT,7,0,NA,22,0,-8.5,0,0.2,0,NA,2.2,0,NA,0,1,NA,NA,NA,342.1,0,2015_05
-130.911,69.604,LIVERPOOL BAY,220B68C,NT,1.5,0,NA,22.4,0,-16.1,0,NA,NA,NA,NA,NA,NA,NA,NA,NA,NA,NA,512.5,0,2015_05
-130.228,67.179,LITTLE CHICAGO,220B6Q3,NT,8.9,0,NA,29.6,0,-10.5,0,NA,NA,NA,NA,NA,NA,NA,NA,NA,NA,NA,283.4,2.4,2015_05
-110.69,62.416,LUTSELK'E CS,220L002,NT,5.4,0,NA,22.7,0,-11.8,0,NA,NA,NA,NA,NA,NA,NA,NA,NA,NA,NA,390.6,0,2015_05
-110.615,64.699,EKATI A,220N001,NT,1.2,0,NA,18.5,0,-18,0,3.4,0,NA,3.6,0,NA,0,2,NA,NA,NA,520.3,0,2015_05
-122.851,61.125,LINDBURG LANDING,220N003,NT,11.6,0,NA,30.5,0,-5.8,0,NA,NA,NA,25,1,NA,NA,9,NA,NA,NA,202.3,2.7,2015_05
-133.502,68.746,TRAIL VALLEY,220N005,NT,4.4,0,NA,26.6,0,-15.8,0,NA,NA,NA,3,1,NA,NA,0,NA,NA,NA,420.6,0,2015_05
-94.072,61.094,ARVIAT A,2300427,NU,-3.8,1,NA,11.3,1,-19.2,0,NA,NA,NA,1.6,2,NA,NA,0,NA,NA,NA,653.7,0,2015_05
-96,64.317,BAKER LAKE CLIMATE,2300501,NU,-6.8,0,NA,4.4,0,-21.3,0,NA,NA,NA,NA,NA,NA,3,NA,NA,NA,NA,768.8,0,2015_05
-96.078,64.299,BAKER LAKE A,2300503,NU,-6.2,0,NA,6.1,0,-20.9,0,2.6,0,NA,5.4,0,NA,NA,3,NA,NA,NA,750,0,2015_05
-108.015,66.838,BATHURST INLET,2300551,NU,-1.7,0,NA,15.6,0,-21.5,0,NA,NA,NA,18.2,0,NA,NA,5,NA,NA,NA,611.9,0,2015_05
-115.144,67.817,KUGLUKTUK A,2300903,NU,-2.1,0,NA,17.6,0,-19.5,0,4.6,0,NA,1.4,0,NA,NA,1,NA,NA,NA,622.1,0,2015_05
-115.135,67.817,KUGLUKTUK CLIMATE,2300904,NU,-1.9,0,NA,17.4,0,-19.3,0,NA,NA,NA,2.8,0,NA,NA,0,NA,NA,NA,618.1,0,2015_05
-83.359,64.193,CORAL HARBOUR A,2301000,NU,-7.7,26,-1,-0.8,26,-17.3,26,5,28,NA,5,28,NA,NA,1,NA,NA,NA,128.4,0,2015_05
-83.359,64.193,CORAL HARBOUR A,2301002,NU,-7.7,6,NA,1.5,6,-19.2,6,7.2,6,NA,7.2,6,NA,25,3,NA,NA,NA,642.2,0,2015_05
-83.35,64.183,CORAL HARBOUR RCS,2301010,NU,-7.3,0,NA,2,0,-18.5,0,NA,NA,NA,20.5,0,NA,15,8,NA,NA,NA,785.5,0,2015_05
-100.884,61.132,ENNADAI LAKE (AUT),2301102,NU,-1.3,0,NA,20.1,0,-16.5,0,NA,NA,NA,1.6,0,NA,NA,1,NA,NA,NA,599,0,2015_05
-94.067,61.1,ARVIAT CLIMATE,2301153,NU,-3.8,0,NA,10.7,0,-19.1,0,NA,NA,NA,26.1,0,NA,NA,4,NA,NA,NA,676,0,2015_05
-95.85,68.636,GJOA HAVEN A,2302337,NU,-9.2,0,NA,0.8,0,-20.7,0,NA,NA,NA,1.1,0,NA,NA,0,NA,NA,NA,843.8,0,2015_05
-100.087,68.318,HAT ISLAND,2302370,NU,-8.1,0,NA,2.5,0,-19.6,0,NA,NA,NA,NA,NA,NA,NA,NA,NA,NA,NA,809.1,0,2015_05
-89.726,68.437,CAM FOUR,2303093,NU,-10.2,1,NA,-0.4,1,-19,0,NA,NA,NA,NA,NA,NA,NA,NA,NA,NA,NA,845.8,0,2015_05
-89.796,68.538,KUGAARUK CLIMATE,2303094,NU,-8.6,0,NA,1.6,0,-22,0,NA,NA,NA,12.3,0,NA,NA,3,NA,NA,NA,825.1,0,2015_05
-92.115,62.811,RANKIN INLET A,2303405,NU,-5,0,NA,7.2,0,-18.9,0,0.8,1,NA,1.8,1,NA,7,1,NA,NA,NA,713.7,0,2015_05
-79.26,56.537,SANIKILUAQ,2303668,NU,-1.4,0,NA,11,0,-7.5,0,NA,NA,NA,20.6,0,NA,NA,4,NA,NA,NA,602.3,0,2015_05
-93.433,68.817,SHEPHERD BAY A,2303685,NU,-9.6,0,NA,0.8,0,-26.4,0,NA,NA,NA,NA,NA,NA,NA,NA,NA,NA,NA,855.8,0,2015_05
-119.219,69.276,CROKER RIVER,230J01Q,NU,-1.6,0,NA,18,0,-19.9,0,NA,NA,NA,NA,NA,NA,NA,NA,NA,NA,NA,608,0,2015_05
-111.246,65.755,LUPIN CS,230N002,NU,-1.9,0,NA,17,0,-21.7,0,NA,NA,NA,NA,NA,NA,NA,NA,NA,NA,NA,617,0,2015_05
-62.333,82.5,ALERT CLIMATE,2400305,NU,-14.1,3,NA,-5.2,2,-23.4,1,NA,NA,NA,6.1,4,NA,56,2,NA,NA,NA,897.4,0,2015_05
-62.333,82.5,ALERT UA,2400306,NU,NA,NA,NA,NA,NA,NA,NA,8,0,NA,6.6,0,NA,58,2,NA,NA,NA,NA,NA,2015_05
-85.012,72.993,ARCTIC BAY CS,2400404,NU,-8.5,1,NA,1.9,1,-21.1,0,NA,NA,NA,4.9,24,NA,0,2,NA,NA,NA,794.9,0,2015_05
-64.146,63.34,BREVOORT ISLAND,2400565,NU,-5.6,1,NA,0.4,0,-12.1,1,NA,NA,NA,NA,NA,NA,NA,NA,NA,NA,NA,706.8,0,2015_05
-63.789,67.536,FOX FIVE,2400570,NU,-9.1,0,NA,0.2,0,-14.2,0,NA,NA,NA,NA,NA,NA,NA,NA,NA,NA,NA,841.4,0,2015_05
-64.033,67.547,QIKIQTARJUAQ CLIMATE,2400573,NU,-7.8,1,NA,1.4,1,-22,0,NA,NA,NA,38.2,2,NA,91,9,NA,NA,NA,773.5,0,2015_05
-64.032,67.547,QIKIQTARJUAQ A,2400577,NU,-8.2,1,NA,0.5,1,-21.6,1,NA,NA,NA,45.2,1,NA,NA,9,NA,NA,NA,785.6,0,2015_05
-105.137,69.108,CAMBRIDGE BAY A,2400601,NU,-7.5,0,NA,3.9,0,-21.8,0,3.8,0,NA,3.6,1,NA,14,2,NA,NA,NA,789.8,0,2015_05
-105.138,69.108,CAMBRIDGE BAY GSN,2400602,NU,-7.5,0,NA,3.4,0,-21.7,0,NA,NA,NA,3,1,NA,NA,1,NA,NA,NA,791.9,0,2015_05
-76.53,64.231,KINNGAIT,2400636,NU,-5,0,NA,1.3,0,-11.7,0,NA,NA,NA,24.5,1,NA,NA,6,NA,NA,NA,712.3,0,2015_05
-76.525,64.23,CAPE DORSET A,2400637,NU,-5.1,8,NA,1.5,8,-11.4,7,NA,NA,NA,6.6,8,NA,NA,3,NA,NA,NA,532.1,0,2015_05
-61.383,66.65,CAPE DYER,2400650,NU,-9.2,0,NA,-3.7,0,-16.5,0,NA,NA,NA,NA,NA,NA,NA,NA,NA,NA,NA,842.9,0,2015_05
-66.815,68.473,CAPE HOOPER,2400660,NU,-9.1,0,NA,-0.2,0,-15.5,0,NA,NA,NA,NA,NA,NA,NA,NA,NA,NA,NA,839.6,0,2015_05
-107.823,69.036,CAPE PEEL WEST,2400697,NU,-7.5,0,NA,6.2,0,-22.3,0,NA,NA,NA,NA,NA,NA,NA,NA,NA,NA,NA,789.7,0,2015_05
-68.517,70.483,CLYDE RIVER CLIMATE,2400802,NU,-9,0,NA,1.4,0,-22.3,0,NA,NA,NA,8.1,0,NA,NA,3,NA,NA,NA,837.7,0,2015_05
-68.517,70.486,CLYDE RIVER A,2400804,NU,-9.1,2,NA,0.2,2,-22.2,1,NA,NA,NA,8,2,NA,NA,2,NA,NA,NA,785,0,2015_05
-63.578,64.958,CAPE MERCY,2400F63,NU,-7.4,0,NA,-1.9,0,-15,0,NA,NA,NA,NA,NA,NA,NA,NA,NA,NA,NA,788.8,0,2015_05
-71.167,68.65,DEWAR LAKES,2401030,NU,-9.4,0,NA,-2.7,0,-15.5,0,NA,NA,NA,NA,NA,NA,NA,NA,NA,NA,NA,848.5,0,2015_05
-85.933,79.983,EUREKA A,2401200,NU,-12.6,0,-2.4,1.5,0,-23.7,0,4,0,96,2.6,0,85,3,1,NA,NA,NA,948.5,0,2015_05
-94.198,72.018,FORT ROSS,2402051,NU,-8.1,0,NA,1.7,0,-17,0,NA,NA,NA,8.2,1,NA,NA,3,NA,NA,NA,809.1,0,2015_05
-100.267,70.633,GATESHEAD ISLAND,2402332,NU,-9.3,0,NA,0.4,0,-20.1,0,NA,NA,NA,9.5,1,NA,NA,2,NA,NA,NA,845.2,0,2015_05
-82.902,76.423,GRISE FIORD CLIMATE,2402351,NU,-9.9,0,NA,2.9,0,-20.9,0,NA,NA,NA,9.2,0,NA,NA,3,NA,NA,NA,864.3,0,2015_05
-81.244,68.776,SANIRAJAK,2402353,NU,-8.3,0,NA,0.1,0,-20.5,0,NA,NA,NA,10.4,0,NA,48,5,NA,NA,NA,815.3,0,2015_05
-81.243,68.776,HALL BEACH A,2402354,NU,-8.3,1,NA,0.8,0,-20.6,1,NA,NA,NA,22.6,2,NA,NA,3,NA,NA,NA,788.7,0,2015_05
-68.55,63.75,IQALUIT AWOS,2402591,NU,-3.6,0,NA,4.4,0,-15.8,0,NA,NA,NA,NA,NA,NA,NA,NA,NA,NA,NA,668.1,0,2015_05
-68.544,63.747,IQALUIT CLIMATE,2402592,NU,-3.5,0,NA,4.3,0,-15.7,0,NA,NA,NA,22.7,1,NA,12,6,NA,NA,NA,666.8,0,2015_05
-68.55,63.75,IQALUIT UA,2402594,NU,NA,NA,NA,NA,NA,NA,NA,27,10,NA,27,10,NA,NA,5,NA,NA,NA,NA,NA,2015_05
-103.554,78.792,ISACHSEN (AUT),2402604,NU,-11.2,1,NA,-0.9,1,-19.8,1,NA,NA,NA,NA,NA,NA,NA,NA,NA,NA,NA,875.6,0,2015_05
-65.711,66.143,PANGNIRTUNG,2403049,NU,-3.3,1,NA,5.6,1,-15.2,0,NA,NA,NA,7.2,8,NA,17,2,NA,NA,NA,639.1,0,2015_05
-77.958,72.693,POND INLET CLIMATE,2403204,NU,-9.3,0,NA,1.6,0,-23.5,0,NA,NA,NA,4.4,0,NA,28,1,NA,NA,NA,845.4,0,2015_05
-77.969,72.689,POND INLET A,2403206,NU,-9,0,NA,1.2,0,-21.5,0,NA,NA,NA,17,0,NA,NA,5,NA,NA,NA,835.7,0,2015_05
-105.715,75.377,REA POINT,2403450,NU,-9.2,2,NA,1.8,2,-22.1,1,NA,NA,NA,NA,NA,NA,NA,NA,NA,NA,NA,789.4,0,2015_05
-94.969,74.717,RESOLUTE BAY A,2403498,NU,-11.4,0,NA,-0.1,0,-21.4,0,5.6,0,NA,3.2,0,NA,11,1,NA,NA,NA,911.1,0,2015_05
-94.983,74.716,RESOLUTE CS,2403505,NU,-11.2,0,NA,-0.2,0,-21.5,0,NA,NA,NA,10.3,0,NA,NA,5,NA,NA,NA,905.7,0,2015_05
-64.633,61.6,RESOLUTION ISLAND,2403602,NU,-5.3,0,NA,6.4,0,-10.2,0,NA,NA,NA,NA,NA,NA,NA,NA,NA,NA,NA,723.3,0,2015_05
-79.033,69.083,ROWLEY ISLAND,2403625,NU,-6.9,0,NA,-0.1,0,-14.6,0,NA,NA,NA,NA,NA,NA,NA,NA,NA,NA,NA,772.8,0,2015_05
-105.296,73.766,STEFANSSON ISLAND,2403756,NU,-9.8,0,NA,2.5,0,-26.4,0,NA,NA,NA,9.8,6,NA,NA,2,NA,NA,NA,860.4,0,2015_05
-91.816,81.161,SVARTEVAEG,2403833,NU,-13.3,0,NA,-1.3,0,-21.8,0,NA,NA,NA,13.9,0,NA,NA,2,NA,NA,NA,970.6,0,2015_05
-93.577,69.547,TALOYOAK A,2403855,NU,-9.4,0,NA,1.7,0,-23,0,13.6,6,NA,12.4,7,NA,12,5,NA,NA,NA,848.8,0,2015_05
-89.446,65.879,WAGER BAY (AUT),2403945,NU,NA,NA,NA,NA,NA,NA,NA,NA,NA,NA,0,16,NA,0,0,NA,NA,NA,NA,NA,2015_05
-119.989,74.139,NANGMAGVIK LAKE,2500440,NT,-2.1,22,NA,5.8,21,-26.8,12,NA,NA,NA,0.5,30,NA,NA,0,NA,NA,NA,181.3,0,2015_05
-117.8,70.761,HOLMAN CS,2502505,NT,0,13,NA,9.4,13,-13.6,13,NA,NA,NA,3.7,1,NA,NA,1,NA,NA,NA,324.2,0,2015_05
-125.254,71.993,SACHS HARBOUR CLIMATE,2503648,NT,-2.8,0,NA,9.6,0,-21.7,0,NA,NA,NA,4.3,0,NA,NA,1,NA,NA,NA,643.9,0,2015_05
-119.347,76.238,MOULD BAY CS,250M001,NT,-7.6,0,NA,1.3,0,-21.7,0,NA,NA,NA,7.5,6,NA,NA,2,NA,NA,NA,792.6,0,2015_05
-112.967,54.283,ABEE AGDM,3010010,AB,8.2,0,NA,26.7,0,-5.4,0,NA,NA,NA,45.8,4,NA,NA,13,NA,NA,NA,304.7,0,2015_05
-111.181,53.113,ALBERT HALL AGCM,3010060,AB,9.1,1,NA,27.8,1,-6,0,NA,NA,NA,6.2,2,NA,NA,2,NA,NA,NA,266,0,2015_05
-111.779,52.315,ALLIANCE AGCM,3010162,AB,9.6,0,NA,27.3,0,-6.7,0,NA,NA,NA,4.5,9,NA,NA,2,NA,NA,NA,259.3,0,2015_05
-112.233,54.017,ANDREW,3010234,AB,11,2,-0.2,29,2,-4,2,1,2,NA,42.3,2,NA,NA,6,NA,NA,NA,209,5,2015_05
-112.279,53.917,ANDREW AGDM,3010237,AB,9.4,0,NA,27.8,0,-4.4,0,NA,NA,NA,28.8,1,NA,NA,3,NA,NA,NA,267.5,1.7,2015_05
-111.465,52.582,BELLSHILL AGCM,3010650,AB,10.6,0,NA,27,0,-4.1,0,NA,NA,NA,10,10,NA,NA,3,NA,NA,NA,229.2,0.2,2015_05
-110.101,52.124,BODO AGDM,3010730,AB,10.5,0,NA,27.3,0,-5,0,NA,NA,NA,1.3,2,NA,NA,0,NA,NA,NA,231.8,0.4,2015_05
-114.483,53.167,BRETON,3010815,AB,9.9,0,NA,28,0,-4,0,2,0,NA,16.8,0,NA,0,6,NA,NA,NA,251.8,0,2015_05
-114.441,53.089,BRETON PLOTS,3010816,AB,9.5,1,NA,25.7,1,-4.2,0,NA,NA,NA,20.2,2,NA,NA,5,NA,NA,NA,255.4,0,2015_05
-113.889,53.997,BUSBY,3010978,AB,10.1,0,NA,27.5,0,-4.5,0,27.6,0,NA,37.8,0,NA,0,5,NA,NA,NA,245.9,0.3,2015_05
-113.922,53.931,BUSBY AGCM,3010979,AB,9.8,0,NA,27.4,0,-6.7,0,NA,NA,NA,25.4,2,NA,NA,7,NA,NA,NA,255.1,0.3,2015_05
-110.51,52.334,CADOGAN AGCM,3010992,AB,10.4,0,NA,27,0,-4,0,NA,NA,NA,3,4,NA,NA,1,NA,NA,NA,234.2,0,2015_05
-112.817,53.05,CAMROSE,3011240,AB,9.9,0,-0.6,27.6,0,-5.4,0,NA,NA,NA,NA,NA,NA,NA,NA,NA,NA,NA,252.4,0,2015_05
-112.8,52.95,CAMROSE 2,3011241,AB,6.9,28,NA,28,21,-3,21,0,8,NA,4.2,8,NA,0,2,NA,NA,NA,33.2,0,2015_05
-114.654,53.234,CARNWOOD,3011350,AB,9.4,0,NA,26.5,0,-5,0,0,0,NA,35,0,NA,0,12,NA,NA,NA,267.7,0,2015_05
-110.713,51.937,CONSORT AGDM,3011815,AB,10.2,0,NA,26.4,0,-3.5,0,NA,NA,NA,1.3,10,NA,NA,0,NA,NA,NA,241.3,0,2015_05
-111.449,52.074,CORONATION CLIMATE,3011887,AB,9.1,0,NA,26.8,0,-5.2,0,NA,NA,NA,3.6,0,NA,NA,1,NA,NA,NA,275.5,0,2015_05
-113.903,52.733,CRESTOMERE AGCM,3011892,AB,9,0,NA,26.7,0,-5.3,0,NA,NA,NA,26.1,5,NA,NA,5,NA,NA,NA,279.5,0,2015_05
-113.95,52.75,DAKOTA WEST,3011953,AB,9.5,2,-0.4,26.5,2,-5,2,0,2,NA,20.4,2,NA,0,3,NA,NA,NA,247.2,0,2015_05
-113.176,52.183,DELBURNE AGCM,3012050,AB,10,0,NA,26.3,0,-2.9,0,NA,NA,NA,22.6,1,NA,NA,4,NA,NA,NA,247.5,0,2015_05
-110.588,53.659,DEWBERRY AGCM,3012073,AB,9.6,0,NA,28.1,0,-3.5,0,NA,NA,NA,4.4,5,NA,NA,2,NA,NA,NA,260.9,0.9,2015_05
-112.351,52.517,DONALDA SOUTH,3012095,AB,9.4,0,NA,28.5,0,-7,0,0,0,NA,7.2,0,NA,0,3,NA,NA,NA,267.6,0,2015_05
-110.433,52.778,EDGERTON AGCM,3012192,AB,10.1,0,NA,27.6,0,-4.9,0,NA,NA,NA,0.9,4,NA,NA,0,NA,NA,NA,245,0,2015_05
-113.606,53.307,EDMONTON INTERNATIONAL CS,3012206,AB,9.3,0,NA,27.4,0,-7.5,0,NA,NA,NA,11.1,0,NA,NA,3,NA,NA,NA,268.7,0,2015_05
-113.517,53.573,EDMONTON BLATCHFORD,3012209,AB,11.6,0,NA,28.1,0,-2.3,0,NA,NA,NA,11.6,0,NA,NA,2,NA,NA,NA,201.2,2.1,2015_05
-113.467,53.667,EDMONTON NAMAO AWOS A,3012212,AB,9.8,4,NA,27.6,4,-4.3,4,NA,NA,NA,19.5,5,NA,NA,4,NA,NA,NA,222.4,0,2015_05
-113.579,53.31,EDMONTON INTL A,3012216,AB,9.4,0,NA,28,0,-7.3,0,11.6,0,NA,17.3,2,NA,NA,4,NA,NA,NA,265.8,0,2015_05
-113.856,53.668,EDMONTON VILLENEUVE A,3012229,AB,9.4,0,NA,27.6,0,-3.6,0,NA,NA,NA,20.4,0,NA,NA,4,NA,NA,NA,265.2,0,2015_05
-114.108,53.548,EDMONTON STONY PLAIN,301222F,AB,10.7,0,-0.1,27.2,0,-2.7,0,7.6,0,123,21,0,40,0,4,NA,NA,NA,229.8,3.1,2015_05
-113.75,53.417,EDMONTON WOODBEND,3012230,AB,10.2,0,-0.2,28.5,0,-4,0,5,0,105,14.7,0,28,0,4,NA,NA,NA,241.4,0,2015_05
-112.868,53.683,ELK ISLAND NAT PARK,3012275,AB,10.6,0,0,27.8,0,-2.5,0,NA,NA,NA,37.3,0,76,NA,4,NA,NA,NA,231.6,1.8,2015_05
-111,52.967,FABYAN,3012515,AB,9.7,0,-0.5,28,0,-6,0,0,0,0,7,0,16,0,3,NA,NA,NA,257.4,0,2015_05
-112.858,52.744,FERINTOSH AGCM,3012590,AB,9.6,0,NA,27.6,0,-5.6,0,NA,NA,NA,23.8,5,NA,NA,3,NA,NA,NA,259.1,0,2015_05
-112.12,52.467,FORESTBURG PLANT SITE,3012652,AB,10.7,0,-1,27,0,-2,0,0,0,0,15.3,0,36,0,8,NA,NA,NA,227,0,2015_05
-112.123,52.548,FORESTBURG AGCM,3012653,AB,9.7,0,NA,27.6,0,-5,0,NA,NA,NA,8,1,NA,NA,2,NA,NA,NA,258.7,0,2015_05
-113.183,53.717,FORT SASKATCHEWAN,3012710,AB,10.5,9,-0.6,29,9,-6,9,3,9,NA,35.4,9,NA,0,5,NA,NA,NA,164.4,0.3,2015_05
-110.621,53.071,GILT EDGE NORTH AGCM,3012790,AB,10.6,1,NA,27.8,1,-4.1,0,NA,NA,NA,4.7,7,NA,NA,1,NA,NA,NA,223.3,0,2015_05
-114.539,53.833,GLENEVIS AGCM,3012818,AB,10.2,0,NA,26.6,0,-5.4,0,NA,NA,NA,NA,NA,NA,NA,NA,NA,NA,NA,241.9,0,2015_05
-112.164,52.116,HALKIRK AGCM,3012999,AB,9.3,0,NA,26.4,0,-4.6,0,NA,NA,NA,29.8,3,NA,NA,11,NA,NA,NA,270,0,2015_05
-111.212,51.78,HEMARUKA AGCM,3013140,AB,9.6,0,NA,26.6,0,-5.3,0,NA,NA,NA,2.8,5,NA,NA,1,NA,NA,NA,261.3,0,2015_05
-112.246,53.185,HOLDEN AGDM,3013340,AB,9.2,0,NA,27.6,0,-5.6,0,NA,NA,NA,NA,NA,NA,NA,NA,NA,NA,NA,272.6,0,2015_05
-110.784,52.578,HUGHENDEN AGCM,3013362,AB,10.1,0,NA,27.4,0,-4.7,0,NA,NA,NA,1.5,8,NA,NA,1,NA,NA,NA,245.5,0,2015_05
-111.872,52.848,KILLAM AGDM,3013640,AB,9.9,0,NA,28.1,0,-4.8,0,NA,NA,NA,54.8,5,NA,NA,17,NA,NA,NA,251.8,0,2015_05
-111.113,52.29,KESSLER AGCM,3013644,AB,9.9,0,NA,26.9,0,-4.4,0,NA,NA,NA,6.3,11,NA,NA,2,NA,NA,NA,249.8,0,2015_05
-110.416,53.353,KITSCOTY AGCM,3013660,AB,10.2,0,NA,27.6,0,-9,0,NA,NA,NA,6.7,5,NA,NA,2,NA,NA,NA,245.4,2.4,2015_05
-113.474,54.003,LEGAL AGCM,3013790,AB,10.3,1,NA,27.9,1,-4,1,NA,NA,NA,21.3,7,NA,NA,5,NA,NA,NA,231.8,1.2,2015_05
-110.579,53.943,LINDBERGH AGDM,3013921,AB,8.3,0,NA,26.3,0,-5.5,0,NA,NA,NA,8.6,6,NA,NA,2,NA,NA,NA,301.5,0,2015_05
-110.073,53.309,LLOYDMINSTER,3013959,AB,9.8,1,NA,27,1,-4.2,1,NA,NA,NA,8.5,1,NA,NA,2,NA,NA,NA,246.6,1.4,2015_05
-110.073,53.309,LLOYDMINSTER A,3013961,AB,9.8,0,-0.3,27,0,-4.2,0,0.2,0,5,9.4,0,21,0,4,NA,NA,NA,253.2,0,2015_05
-112.267,53.083,HOLDEN SOUTH,3013C44,AB,NA,NA,NA,NA,NA,NA,NA,0,1,NA,27.7,1,NA,0,6,NA,NA,NA,NA,NA,2015_05
-111.255,53.456,MANNVILLE AGCM,3014195,AB,9.8,1,NA,27.5,1,-4.4,0,NA,NA,NA,9.3,2,NA,NA,3,NA,NA,NA,246.1,1.3,2015_05
-110.55,52.017,MONITOR,3014600,AB,NA,NA,NA,NA,NA,NA,NA,0,0,0,14.4,0,39,0,5,NA,NA,NA,NA,NA,2015_05
-112.3,53.567,MUNDARE AGDM,3014665,AB,9.6,1,NA,27.3,1,-3.7,0,NA,NA,NA,10.9,16,NA,NA,4,NA,NA,NA,250.9,0,2015_05
-111.114,53.72,MYRNAM AGCM,3014690,AB,8.8,0,NA,28.3,0,-6.8,0,NA,NA,NA,7.2,1,NA,NA,3,NA,NA,NA,285.4,0,2015_05
-113.165,53.262,NEW SAREPTA AGCM,3014795,AB,10,0,NA,27.2,0,-3.3,0,NA,NA,NA,17.3,0,NA,NA,4,NA,NA,NA,247.6,0,2015_05
-113.35,53.65,OLIVER AGDM,3014921,AB,10,6,NA,27.6,5,-5.7,6,NA,NA,NA,NA,NA,NA,NA,NA,NA,NA,NA,200.3,0,2015_05
-112.879,53.995,RADWAY AGCM,3015346,AB,9.9,1,NA,28.3,1,-5,0,NA,NA,NA,NA,NA,NA,NA,NA,NA,NA,NA,243.6,0.5,2015_05
-111.726,53.425,RANFURLY AUTO,3015401,AB,10.6,0,NA,27.6,0,-2.9,0,NA,NA,NA,10.1,0,NA,NA,3,NA,NA,NA,230.2,0.9,2015_05
-110.343,52.587,RIBSTONE SOUTH AGCM,3015480,AB,9.9,0,NA,27.2,0,-5.5,0,NA,NA,NA,4.7,6,NA,NA,3,NA,NA,NA,252.2,0,2015_05
-110.102,53.019,RIVERCOURSE AGCM,3015501,AB,9.9,0,NA,28.1,0,-4.7,0,NA,NA,NA,11.1,2,NA,NA,4,NA,NA,NA,252.2,0.3,2015_05
-114.912,52.421,ROCKY MTN HOUSE (AUT),3015523,AB,8.8,1,NA,25.7,1,-5.9,1,NA,NA,NA,23.6,6,NA,NA,4,NA,NA,NA,274.6,0,2015_05
-112.428,52.78,ROSALIND AGCM,3015600,AB,9.3,1,NA,27.5,1,-5.4,0,NA,NA,NA,20.2,1,NA,NA,3,NA,NA,NA,259.9,0,2015_05
-111.453,54.282,ST. LINA AGCM,3015673,AB,9.2,0,NA,27.2,0,-4.3,0,NA,NA,NA,34.3,6,NA,NA,6,NA,NA,NA,273.9,0,2015_05
-111.272,54.011,ST. PAUL AGCM,3015676,AB,9.1,2,NA,26.1,2,-4.1,1,NA,NA,NA,6.4,5,NA,NA,2,NA,NA,NA,256.9,0,2015_05
-110.755,51.59,SEDALIA AGCM,3015797,AB,10.3,0,NA,27.1,0,-4.7,0,NA,NA,NA,3.3,2,NA,NA,1,NA,NA,NA,239.7,0,2015_05
-111.7,52.783,SEDGEWICK TOWN,3015808,AB,9.6,15,-1,25,12,-5,12,0,12,NA,5,12,NA,0,1,NA,NA,NA,135,0,2015_05
-112.539,53.333,SHONTS AGCM,3015900,AB,9.2,0,NA,27.4,0,-6.4,0,NA,NA,NA,14.5,1,NA,NA,5,NA,NA,NA,273.2,0,2015_05
-112.499,54.278,SMOKY LAKE AGDM,3016022,AB,9.8,1,NA,27.1,1,-2.6,0,NA,NA,NA,47.2,3,NA,NA,5,NA,NA,NA,246.9,1.8,2015_05
-111.683,51.816,SPONDIN AGCM,3016070,AB,9,0,NA,26.4,0,-7.5,0,NA,NA,NA,4.1,11,NA,NA,1,NA,NA,NA,278.3,0,2015_05
-112.596,52.347,STETTLER AGDM,3016124,AB,9.8,0,NA,26.8,0,-4.4,0,NA,NA,NA,12.3,3,NA,NA,4,NA,NA,NA,254.7,0,2015_05
-113.895,53.217,THORSBY AGCM,3016441,AB,9.4,0,NA,27.1,0,-4.3,0,NA,NA,NA,9.1,6,NA,NA,3,NA,NA,NA,266.1,0,2015_05
-114.718,53.439,TOMAHAWK AGDM,3016505,AB,10.1,5,NA,26.9,4,-3.2,2,NA,NA,NA,21.6,7,NA,NA,6,NA,NA,NA,204.2,0,2015_05
-110.081,53.664,TULLIBY LAKE AGCM,3016593,AB,9.7,0,NA,27.6,0,-4.6,0,NA,NA,NA,6,15,NA,NA,2,NA,NA,NA,257,0.9,2015_05
-113.033,53.5,UNCAS,3016650,AB,NA,NA,NA,NA,NA,NA,NA,14.8,0,NA,24.7,0,NA,0,4,NA,NA,NA,NA,NA,2015_05
-111.678,53.625,TWO HILLS AGDM,3016655,AB,10.6,0,NA,27.7,0,-3.9,0,NA,NA,NA,9.7,2,NA,NA,4,NA,NA,NA,232.8,2.6,2015_05
-110.882,53.344,VERMILION AGDM,3016802,AB,9.5,0,NA,27.5,0,-4.6,0,NA,NA,NA,5.2,4,NA,NA,1,NA,NA,NA,264.3,0,2015_05
-111.732,53.182,VIKING AGCM,3016841,AB,10.3,0,NA,27.8,0,-3.9,0,NA,NA,NA,10.8,3,NA,NA,5,NA,NA,NA,240.2,0.4,2015_05
-111.767,53.283,VIKING NORTH 3,3016845,AB,10.2,4,NA,27.5,2,-4,2,1,2,NA,7,2,NA,0,5,NA,NA,NA,209.9,0,2015_05
-111.921,54.13,VILNA AGCM,3016852,AB,9.1,0,NA,26.9,0,-4.5,0,NA,NA,NA,25.3,1,NA,NA,5,NA,NA,NA,277.7,0.7,2015_05
-115.126,53.144,VIOLET GROVE CS,3016860,AB,9.5,0,NA,25.6,0,-4.3,0,NA,NA,NA,NA,NA,NA,NA,NA,NA,NA,NA,262.9,0,2015_05
-112.098,53.505,VEGREVILLE,3016GF0,AB,10.1,0,-0.2,28.5,0,-5.3,0,NA,NA,NA,16,0,43,NA,7,NA,NA,NA,245.5,0.1,2015_05
-113.444,52.98,WETASKIWIN AGCM,3017282,AB,9.8,1,NA,26.9,1,-3.6,0,NA,NA,NA,9.7,10,NA,NA,1,NA,NA,NA,248,0.5,2015_05
-114.108,53.547,EDMONTON STONY PLAIN CS,301A001,AB,10.4,0,NA,26.9,0,-2.5,0,NA,NA,NA,19,0,NA,NA,4,NA,NA,NA,236.6,1.2,2015_05
-110.206,51.67,ESTHER 1,301B460,AB,10.1,0,NA,28.1,0,-7.5,0,NA,NA,NA,4.3,0,NA,NA,2,NA,NA,NA,244,0,2015_05
-113.533,53.517,UNIVERSITY OF ALBERTA METABOLIC CENTRE,301FFNJ,AB,10.9,15,0.1,29.5,10,-2,10,6,0,152,16,0,30,0,5,NA,NA,NA,113.5,0,2015_05
-111.096,52.829,WAINWRIGHT CFB AIRFIELD 21,301S001,AB,10.4,0,NA,27.4,0,-3.6,0,NA,NA,NA,13.8,0,NA,NA,5,NA,NA,NA,235,0.2,2015_05
-110.317,51.066,ACADIA VALLEY,3020035,AB,11,0,NA,28.1,0,-3.5,0,NA,NA,NA,0.7,2,NA,NA,0,NA,NA,NA,218.7,1.2,2015_05
-111.006,50.81,ATLEE AGCM,3020405,AB,11,0,NA,26.9,0,-3.6,0,NA,NA,NA,5.8,4,NA,NA,2,NA,NA,NA,218.4,1.1,2015_05
-113.357,51.379,BEISEKER AGCM,3020610,AB,9,0,NA,26.6,0,-9,0,NA,NA,NA,18.3,0,NA,NA,1,NA,NA,NA,278.2,0,2015_05
-112.803,51.998,BIG VALLEY AGCM,3020679,AB,10.4,0,NA,26.2,0,-3.7,0,NA,NA,NA,35.1,4,NA,NA,13,NA,NA,NA,236.6,0,2015_05
-112.252,51.775,CRAIGMYLE AGCM,3021912,AB,9.5,0,NA,26.6,0,-4,0,NA,NA,NA,5.1,6,NA,NA,2,NA,NA,NA,262.6,0,2015_05
-112.283,51.767,CRAIGMYLE,3021940,AB,9.8,0,-0.7,27,0,-6.5,0,0,0,0,10.8,0,23,0,6,NA,NA,NA,254.6,0,2015_05
-112.677,51.445,DRUMHELLER EAST,30221LG,AB,11.2,0,NA,28.4,0,-3.6,0,NA,NA,NA,4.9,21,NA,NA,1,NA,NA,NA,211.2,1.6,2015_05
-114.486,52.31,HESPERO AGCM,3023200,AB,8.6,1,NA,25.3,1,-7.6,0,NA,NA,NA,17.3,6,NA,NA,2,NA,NA,NA,281.2,0,2015_05
-112.5,51.183,HUSSAR AGDM,3023402,AB,9.7,0,NA,25.6,0,-3.8,0,NA,NA,NA,6.8,1,NA,NA,3,NA,NA,NA,257.3,0,2015_05
-113.756,52.449,LACOMBE CDA 2,3023722,AB,9.7,0,NA,26.4,0,-5.3,0,NA,NA,NA,23.3,0,NA,NA,4,NA,NA,NA,258.7,0,2015_05
-114.473,52.553,LEEDALE AGDM,3023740,AB,8.2,0,NA,25.4,0,-7.4,0,NA,NA,NA,11.1,1,NA,NA,4,NA,NA,NA,303,0,2015_05
-113.656,51.619,LINDEN AGCM,3023850,AB,8.8,0,NA,27.5,0,-8.3,0,NA,NA,NA,33,1,NA,NA,4,NA,NA,NA,283.7,0,2015_05
-112.675,51.66,MORRIN AGDM,3024668,AB,9.8,0,NA,26.3,0,-6.9,0,NA,NA,NA,24.3,0,NA,NA,10,NA,NA,NA,253.1,0,2015_05
-114.085,51.759,OLDS AGDM,3024925,AB,9,0,NA,25.8,0,-3.7,0,NA,NA,NA,25.5,0,NA,NA,4,NA,NA,NA,279.2,0,2015_05
-110.35,51.383,OYEN AGDM,3024965,AB,10.3,0,NA,27.2,0,-3.9,0,NA,NA,NA,11.3,6,NA,NA,1,NA,NA,NA,239.3,0.1,2015_05
-111.705,51.125,POLLOCKVILLE AGDM,3025243,AB,9.8,0,NA,27.5,0,-7.6,0,NA,NA,NA,4.3,4,NA,NA,2,NA,NA,NA,255.9,0.2,2015_05
-113.6,52.433,PRENTISS,3025297,AB,9.7,0,NA,25.6,0,-3.9,0,NA,NA,NA,6.8,16,NA,NA,2,NA,NA,NA,258.8,0.4,2015_05
-113.894,52.182,RED DEER REGIONAL A,3025481,AB,9.8,1,NA,25.7,1,-3.8,1,0,1,NA,20.4,1,NA,NA,5,NA,NA,NA,244.8,0,2015_05
-110.091,50.307,SCHULER AGDM,3025768,AB,10.4,4,NA,28.1,4,-5.5,4,NA,NA,NA,13.1,9,NA,NA,4,NA,NA,NA,205.3,0,2015_05
-110.146,51.425,SIBBALD WESTGARD,3025928,AB,10.6,0,NA,29,0,-5.5,0,0,0,NA,2.4,0,NA,0,1,NA,NA,NA,230.5,0,2015_05
-113.206,51.768,THREE HILLS,3026479,AB,8.7,0,NA,26.5,0,-8.8,0,NA,NA,NA,21.4,4,NA,NA,4,NA,NA,NA,288.2,0,2015_05
-114.683,51.778,SUNDRE A,3026KNQ,AB,NA,NA,NA,NA,NA,-7.3,0,NA,NA,NA,NA,NA,NA,NA,NA,NA,NA,NA,NA,NA,2015_05
-113.591,51.936,WIMBORNE AGCM,3027582,AB,8.8,0,NA,25.7,0,-6.1,0,NA,NA,NA,19.5,5,NA,NA,3,NA,NA,NA,284.7,0,2015_05
-114.013,50.512,AZURE,3030450,AB,8.7,0,NA,25.6,0,-4.1,0,NA,NA,NA,47.8,4,NA,NA,8,NA,NA,NA,288.7,0,2015_05
-112.3,49.8,BARNWELL AGDM,3030525,AB,10.1,0,NA,27.3,0,-3.9,0,NA,NA,NA,29,6,NA,NA,7,NA,NA,NA,246.3,0.2,2015_05
-113.224,50.026,BARONS AGCM,3030529,AB,9.6,0,NA,26.8,0,-3.7,0,NA,NA,NA,39.9,6,NA,NA,5,NA,NA,NA,260.4,0,2015_05
-112.465,50.893,BASSANO AGCM,3030540,AB,9.5,0,NA,28.1,0,-7.3,0,NA,NA,NA,8.9,4,NA,NA,2,NA,NA,NA,263.5,0.2,2015_05
-114.152,50.707,BLACK DIAMOND,3030680,AB,8.4,0,NA,25.3,0,-6.8,0,NA,NA,NA,17.7,23,NA,NA,5,NA,NA,NA,298.1,0,2015_05
-113.05,49.567,BLOOD TRIBE AGDM,3030720,AB,9.3,0,NA,26.4,0,-4.5,0,NA,NA,NA,42,6,NA,NA,7,NA,NA,NA,270.4,0,2015_05
-111.45,49.734,BOW ISLAND,3030768,AB,11.2,0,NA,28.5,0,-3.4,0,NA,NA,NA,14.1,0,NA,NA,5,NA,NA,NA,212.3,0.8,2015_05
-111.366,49.868,BOW ISLAND IRRIGATION AGDM,3030772,AB,11.5,0,NA,28.7,0,-2,0,NA,NA,NA,16.6,0,NA,NA,5,NA,NA,NA,203.7,1.1,2015_05
-113.817,49.617,BROCKET AGDM,3030830,AB,9.4,0,NA,25.3,0,-3.4,0,NA,NA,NA,18.7,19,NA,NA,3,NA,NA,NA,267,0,2015_05
-111.849,50.555,BROOKS,3030QLP,AB,10.4,0,NA,28.2,0,-5.7,0,NA,NA,NA,4.6,0,NA,NA,2,NA,NA,NA,237.6,0.5,2015_05
-114.013,51.123,CALGARY INTL A,3031092,AB,10.1,0,NA,25.8,0,-3.5,0,5.5,0,NA,33.9,2,NA,NA,8,NA,NA,NA,245.6,0,2015_05
-114,51.109,CALGARY INT'L CS,3031094,AB,9.6,0,NA,25.8,0,-3.1,0,NA,NA,NA,29.7,0,NA,NA,7,NA,NA,NA,260.1,0,2015_05
-113.286,49.201,CARDSTON,3031322,AB,9.1,0,NA,25.1,0,-3,0,NA,NA,NA,60.6,0,NA,NA,10,NA,NA,NA,275.4,0,2015_05
-113.376,49.001,CARWAY,3031402,AB,7.7,0,NA,21.7,0,-3.8,0,NA,NA,NA,62.5,1,NA,NA,10,NA,NA,NA,319.7,0,2015_05
-113.35,50.282,CHAMPION AGDM,3031480,AB,9.3,1,NA,27.3,1,-4.6,0,NA,NA,NA,27.5,2,NA,NA,5,NA,NA,NA,261.7,0,2015_05
-113.639,50.004,CLARESHOLM,3031640,AB,9.4,0,NA,25.8,0,-4.6,0,NA,NA,NA,55.7,0,NA,NA,8,NA,NA,NA,267.1,0,2015_05
-114.222,51.076,COP UPPER,3031875,AB,9.7,0,NA,24.6,0,-2.9,0,NA,NA,NA,25,5,NA,NA,5,NA,NA,NA,257.3,0,2015_05
-112.433,50.183,ENCHANT AGDM,3032422,AB,10.7,0,NA,27.9,0,-2.9,0,NA,NA,NA,10,6,NA,NA,5,NA,NA,NA,225.5,0.2,2015_05
-111.054,49.553,ETZIKOM AGCM,3032450,AB,10.2,0,NA,28.5,0,-6.5,0,NA,NA,NA,16.6,7,NA,NA,4,NA,NA,NA,243.5,0.3,2015_05
-112.033,49.8,FINCASTLE AGDM,3032550,AB,10.9,1,NA,28.2,1,-2.7,0,NA,NA,NA,7,11,NA,NA,3,NA,NA,NA,213.3,0.9,2015_05
-111.486,49.483,FOREMOST AGDM,3032642,AB,10.1,0,NA,28.5,0,-3.8,0,NA,NA,NA,7.3,9,NA,NA,3,NA,NA,NA,244.6,0,2015_05
-113.379,49.786,FORT MACLEOD AGCM,3032683,AB,9.3,0,NA,26.1,0,-4.7,0,NA,NA,NA,47.8,1,NA,NA,7,NA,NA,NA,270.2,0,2015_05
-112.941,50.934,GLEICHEN AGCM,3032801,AB,10.2,0,NA,27.2,0,-5.6,0,NA,NA,NA,10.1,0,NA,NA,4,NA,NA,NA,241.3,0,2015_05
-111.733,49.874,GRASSY LAKE,3032927,AB,11.1,0,NA,28.1,0,-3.2,0,NA,NA,NA,5.3,6,NA,NA,3,NA,NA,NA,215.2,0.6,2015_05
-112.733,49.9,IRON SPRINGS AGDM,3033498,AB,10.6,0,NA,27.1,0,-1.9,0,NA,NA,NA,26.4,0,NA,NA,7,NA,NA,NA,230.3,0,2015_05
-110.261,49.989,IRVINE AGCM,3033550,AB,10.8,0,NA,28.8,0,-4.8,0,NA,NA,NA,4.2,8,NA,NA,2,NA,NA,NA,223.2,0.1,2015_05
-112.799,49.63,LETHBRIDGE,3033875,AB,9.4,3,NA,26.3,3,-4.9,3,NA,NA,NA,29.3,3,NA,NA,7,NA,NA,NA,241,0,2015_05
-112.768,49.695,LETHBRIDGE CDA,3033890,AB,10.4,0,NA,26.4,0,-3.5,0,NA,NA,NA,40.4,0,NA,NA,5,NA,NA,NA,235.6,0,2015_05
-112.783,49.7,LETHBRIDGE CDA 2,3033892,AB,NA,NA,NA,NA,NA,NA,NA,0,0,NA,27.2,0,NA,0,5,NA,NA,NA,NA,NA,2015_05
-112.75,49.683,LETHBRIDGE DEMO FARM AGDM,3033897,AB,10.1,0,NA,25.8,0,-3.4,0,NA,NA,NA,29.4,1,NA,NA,6,NA,NA,NA,243.6,0,2015_05
-110.721,50.019,MEDICINE HAT,3034479,AB,11.4,1,NA,29.1,1,-3.7,0,NA,NA,NA,14.7,0,NA,NA,3,NA,NA,NA,199.2,0.1,2015_05
-110.717,50.025,MEDICINE HAT RCS,3034485,AB,11.5,1,NA,29,1,-2.9,0,NA,NA,NA,11.3,1,NA,NA,3,NA,NA,NA,196.7,0.3,2015_05
-113.349,50.673,MOSSLEIGH AGCM,3034577,AB,9.2,0,NA,26.6,0,-6.9,0,NA,NA,NA,20.3,9,NA,NA,4,NA,NA,NA,272,0,2015_05
-114.099,51.369,NIER AGDM,3034795,AB,8.6,0,NA,24.3,0,-6.3,0,NA,NA,NA,22.7,3,NA,NA,3,NA,NA,NA,291,0,2015_05
-113.997,49.521,PINCHER CREEK,3035198,AB,8.2,2,NA,24,2,-4.8,1,NA,NA,NA,75.7,3,NA,NA,10,NA,NA,NA,282.8,0,2015_05
-114.005,49.522,PINCHER CREEK CLIMATE,3035208,AB,8.3,0,NA,23.9,0,-5,0,NA,NA,NA,81.2,0,NA,NA,11,NA,NA,NA,299.2,0,2015_05
-112.983,50.606,QUEENSTOWN,3035340,AB,9.9,0,-0.7,27.5,0,-4,0,0,0,0,18.7,0,32,0,6,NA,NA,NA,250,0,2015_05
-112.803,50.598,QUEENSTOWN,3035342,AB,14.8,21,NA,27.8,21,2.3,21,NA,NA,NA,11.2,0,NA,NA,6,NA,NA,NA,31.9,0,2015_05
-112.683,49.483,RAYMOND AGDM,3035422,AB,9.9,0,NA,26.6,0,-3.7,0,NA,NA,NA,24.1,3,NA,NA,6,NA,NA,NA,251.4,0,2015_05
-111.701,50.265,ROLLING HILLS AGCM,3035530,AB,9.7,0,NA,28.1,0,-6.3,0,NA,NA,NA,9,6,NA,NA,4,NA,NA,NA,257.8,0.7,2015_05
-112.05,50.833,ROSEMARY AGDM,3035650,AB,9.5,0,NA,27.5,0,-7.8,0,NA,NA,NA,6.6,5,NA,NA,3,NA,NA,NA,264.1,0.1,2015_05
-110.917,49.917,SEVEN PERSONS AGDM,3035845,AB,10.6,1,NA,29.3,1,-4.8,0,NA,NA,NA,6.9,16,NA,NA,2,NA,NA,NA,221.6,0.4,2015_05
-112.982,51.228,STANDARD AGCM,3036086,AB,10.4,0,NA,26.3,0,-4.3,0,NA,NA,NA,17,4,NA,NA,4,NA,NA,NA,236.4,0,2015_05
-113.883,50.183,STAVELY AAFC,3036099,AB,8.6,0,NA,23.3,0,-1.4,0,NA,NA,NA,58.6,0,NA,NA,9,NA,NA,NA,290.7,0,2015_05
-113.283,51.033,STRATHMORE AGDM,3036205,AB,10,0,NA,25.9,0,-3.7,0,NA,NA,NA,10.8,4,NA,NA,1,NA,NA,NA,248.3,0,2015_05
-112.124,49.792,TABER,3036360,AB,11.1,15,NA,28,10,-2.5,10,0,10,NA,14.5,10,NA,NA,4,NA,NA,NA,110.1,0,2015_05
-112.863,50.304,TRAVERS AGCM,3036500,AB,10.3,1,NA,27.7,1,-3.9,0,NA,NA,NA,23.2,6,NA,NA,6,NA,NA,NA,231.1,0,2015_05
-112.133,50.05,VAUXHALL CDA CS,3036682,AB,10.7,0,NA,27.7,0,-3.2,0,NA,NA,NA,11.7,0,NA,NA,4,NA,NA,NA,227.5,0.3,2015_05
-114.721,51.269,WILDCAT HILLS,3037550,AB,7.5,0,NA,23.5,0,-7,0,1.4,0,NA,37.8,0,NA,0,7,NA,NA,NA,326.8,0,2015_05
-112.117,49.5,WRENTHAM AGDM,3037675,AB,10.3,0,NA,26.4,0,-2.4,0,NA,NA,NA,10.7,18,NA,NA,3,NA,NA,NA,239.2,0,2015_05
-113.961,50.729,OKOTOKS,303M9JM,AB,10.2,0,0.4,27.5,0,-3.5,0,9.5,0,84,60.4,0,86,0,8,NA,NA,NA,241.1,0,2015_05
-112.788,49.871,PICTURE BUTTE WEST,303N1G3,AB,11.2,0,NA,28.5,0,-3,0,0,0,NA,33.8,0,NA,0,9,NA,NA,NA,210.5,0,2015_05
-112.817,49.05,DEL BONITA AGDM,3042045,AB,8.2,0,NA,22.9,0,-4.4,0,NA,NA,NA,38.5,0,NA,NA,8,NA,NA,NA,303.7,0,2015_05
-110.678,49.364,MANYBERRIES AGCM,3044203,AB,9.6,0,NA,27.1,0,-6.4,0,NA,NA,NA,12.9,13,NA,NA,3,NA,NA,NA,260.3,0,2015_05
-111.652,49.137,MASINASIN AGDM,3044232,AB,10.5,2,NA,28,1,-3.9,2,NA,NA,NA,18.8,3,NA,NA,5,NA,NA,NA,218,0,2015_05
-112.05,49.133,MILK RIVER,3044533,AB,9.3,0,NA,26.2,0,-4.2,0,NA,NA,NA,33.9,0,NA,NA,7,NA,NA,NA,270.9,0,2015_05
-110.467,49.117,ONEFOUR CDA,3044923,AB,10.4,0,NA,27.9,0,-4.2,0,NA,NA,NA,10.5,0,NA,NA,5,NA,NA,NA,236.5,0,2015_05
-111.126,49.225,PAKOWKI LAKE AGCM,3045000,AB,10.2,0,NA,27.6,0,-3.3,0,NA,NA,NA,22.6,0,NA,NA,7,NA,NA,NA,242.6,0,2015_05
-115.552,51.193,BANFF CS,3050519,AB,7.6,0,NA,23.5,0,-8.4,0,NA,NA,NA,17.3,0,NA,NA,7,NA,NA,NA,321.3,0,2015_05
-114.175,49.468,BEAVER MINES,3050602,AB,7.9,0,NA,23.1,0,-4.3,0,NA,NA,NA,61.3,3,NA,NA,9,NA,NA,NA,311.6,0,2015_05
-115.067,51.083,BOW VALLEY,3050778,AB,7.2,0,NA,23.4,0,-9.2,0,NA,NA,NA,35.1,0,NA,NA,9,NA,NA,NA,333.7,0,2015_05
-114.482,49.628,CROWSNEST,3051R4R,AB,7.2,0,NA,22.8,0,-6.9,0,NA,NA,NA,39,24,NA,NA,4,NA,NA,NA,333.6,0,2015_05
-118.03,52.926,JASPER WARDEN,3053536,AB,9.4,0,NA,27.4,0,-5.5,0,NA,NA,NA,24,0,NA,NA,6,NA,NA,NA,265.1,0,2015_05
-115.035,51.028,KANANASKIS,3053600,AB,7.6,0,-0.1,24,0,-7,0,11.8,0,40,62,0,70,0,11,NA,NA,NA,321.7,0,2015_05
-115.12,50.713,KANANASKIS POCATERRA,3053604,AB,7.2,21,1.3,19,17,-5,17,0,17,NA,7.1,17,NA,NA,3,NA,NA,NA,108.5,0,2015_05
-116.04,52.492,NORDEGG CS,3054843,AB,7.2,0,NA,23.3,0,-6,0,NA,NA,NA,26.3,0,NA,NA,8,NA,NA,NA,336.1,0,2015_05
-114.416,50.368,PEKISKO,3055119,AB,6.8,0,NA,24,0,-6.6,0,NA,NA,NA,54.4,2,NA,NA,10,NA,NA,NA,347.2,0,2015_05
-113.809,49.131,WATERTON PARK GATE,3056214,AB,7.9,0,NA,24.5,0,-6.7,0,NA,NA,NA,67.1,1,NA,NA,8,NA,NA,NA,313.9,0,2015_05
-115.19,50.943,NAKISKA RIDGETOP,305MGFF,AB,1.9,2,NA,12.7,0,-8,2,NA,NA,NA,NA,NA,NA,NA,NA,NA,NA,NA,465.7,0,2015_05
-113.382,54.635,ATHABASCA AGCM,3060330,AB,10.3,1,NA,27.9,1,-3.7,0,NA,NA,NA,18.9,2,NA,NA,4,NA,NA,NA,233.5,1.7,2015_05
-112.825,54.782,ATMORE AGDM,3060406,AB,8.5,0,NA,27,0,-4.3,0,NA,NA,NA,2.1,6,NA,NA,2,NA,NA,NA,293.2,0,2015_05
-114.448,54.095,BARRHEAD CS,3060535,AB,10.2,0,NA,28.1,0,-4,0,NA,NA,NA,30.5,0,NA,NA,4,NA,NA,NA,241.2,0,2015_05
-117.867,53.35,BRULE BLACK CAT,3060903,AB,9.6,6,1.8,26,4,-6.6,4,1,3,NA,32.5,3,NA,0,8,NA,NA,NA,209.1,0,2015_05
-114.678,54.131,CAMPSIE AUTO,3061201,AB,9.2,0,NA,28.2,0,-4.8,0,NA,NA,NA,13.4,0,NA,NA,3,NA,NA,NA,272.8,0,2015_05
-113.95,54.317,DAPP AGDM,3061975,AB,9.4,0,NA,27.9,0,-6.6,0,NA,NA,NA,18.9,5,NA,NA,5,NA,NA,NA,267,0.1,2015_05
-116.465,53.579,EDSON,3062239,AB,9.2,2,NA,25.3,2,-6.2,1,NA,NA,NA,43.8,3,NA,NA,6,NA,NA,NA,253.8,0,2015_05
-116.453,53.58,EDSON CLIMATE,3062246,AB,9.2,0,NA,25.2,0,-5.5,0,NA,NA,NA,52.3,0,NA,NA,8,NA,NA,NA,272.4,0,2015_05
-114.983,53.6,ENTWISTLE,3062451,AB,10.5,8,0.2,27.5,8,-5,8,1,8,NA,18.6,8,NA,0,5,NA,NA,NA,172.9,0,2015_05
-115.124,53.573,EVANSBURG AGCM,3062475,AB,10.1,0,NA,26.5,0,-3.6,0,NA,NA,NA,15,0,NA,NA,4,NA,NA,NA,243.8,0,2015_05
-114.769,54.41,FORT ASSINIBOINE AGCM,3062660,AB,9.5,0,NA,28,0,-4.1,0,NA,NA,NA,16.6,1,NA,NA,5,NA,NA,NA,262.6,0,2015_05
-111.213,56.651,FORT MCMURRAY CS,3062696,AB,9.9,0,NA,28.4,0,-6.1,0,NA,NA,NA,19.5,0,NA,NA,8,NA,NA,NA,250.5,0.2,2015_05
-111.223,56.653,FORT MCMURRAY A,3062697,AB,9.9,0,NA,28.2,0,-5.9,0,NA,NA,NA,17.7,0,NA,NA,7,NA,NA,NA,252.3,0.1,2015_05
-118.447,53.795,HENDRICKSON CREEK,3063135,AB,5.4,1,NA,23.3,0,-9.4,1,NA,NA,NA,51.2,3,NA,NA,7,NA,NA,NA,377.6,0,2015_05
-116.479,55.396,HIGH PRAIRIE AGDM,3063165,AB,9.7,0,NA,27.1,0,-4.6,0,NA,NA,NA,18.3,5,NA,NA,5,NA,NA,NA,256.8,0,2015_05
-113.543,54.821,ISLAND LAKE SOUTH,3063600,AB,9.7,0,NA,27,0,-4.2,0,NA,NA,NA,19.9,0,NA,NA,3,NA,NA,NA,256.2,0,2015_05
-112.024,54.769,LAC LA BICHE CLIMATE,3063686,AB,10.1,0,NA,27.3,0,-2.8,0,NA,NA,NA,32.7,0,NA,NA,3,NA,NA,NA,243.5,0,2015_05
-111.559,57.041,MILDRED LAKE,3064528,AB,11.4,0,NA,28.5,0,-2.6,0,NA,NA,NA,28.6,0,NA,NA,5,NA,NA,NA,209,3,2015_05
-111.7,54.5,RICH LAKE AGDM,3065475,AB,8.3,0,NA,26.9,0,-5.4,0,NA,NA,NA,50.8,1,NA,NA,6,NA,NA,NA,300.8,0,2015_05
-114.777,55.293,SLAVE LAKE,3065995,AB,9.2,4,NA,27.3,4,-5,2,NA,NA,NA,8.9,2,NA,NA,4,NA,NA,NA,237.1,0,2015_05
-114.777,55.293,SLAVE LAKE RCS,3065997,AB,10,0,NA,27.7,0,-5.2,0,NA,NA,NA,8.4,0,NA,NA,4,NA,NA,NA,247.5,0.7,2015_05
-113.52,54.3,TAWATINAW AGCM,3066367,AB,10.3,0,NA,27,0,-3.5,0,NA,NA,NA,24.7,3,NA,NA,5,NA,NA,NA,238.8,0.9,2015_05
-115.784,54.14,WHITECOURT,3067371,AB,10.5,0,NA,26.3,0,-3.1,0,NA,NA,NA,NA,NA,NA,NA,NA,NA,NA,NA,231.8,0,2015_05
-115.787,54.144,WHITECOURT A,3067373,AB,10.1,0,NA,26.2,0,-3.7,0,NA,NA,NA,NA,NA,NA,NA,NA,NA,NA,NA,245,0,2015_05
-118.348,53.386,WILLOW CREEK 1,306GE70,AB,6.5,0,NA,24.7,0,-8.9,0,NA,NA,NA,54,4,NA,NA,10,NA,NA,NA,355.4,0,2015_05
-119.396,55.197,BEAVERLODGE RCS,3070600,AB,11.5,1,NA,27.4,1,-2.1,0,NA,NA,NA,37.5,1,NA,NA,10,NA,NA,NA,194.6,0.2,2015_05
-117.886,56.118,BROWNVALE AGCM,3070800,AB,10.6,0,NA,27.8,0,-3.2,0,NA,NA,NA,25,4,NA,NA,5,NA,NA,NA,229.7,1,2015_05
-117.887,55.808,EAGLESHAM AGCM,3072151,AB,11,0,NA,28.4,0,-4.3,0,NA,NA,NA,22.6,1,NA,NA,5,NA,NA,NA,218.2,2.5,2015_05
-110.439,58.981,EGG ISLAND,3072246,AB,3.2,6,NA,21.1,6,-6.9,1,NA,NA,NA,NA,NA,NA,NA,NA,NA,NA,NA,371.1,0,2015_05
-118.439,56.081,FAIRVIEW AGDM,3072525,AB,11,0,NA,26.9,0,-2.4,0,NA,NA,NA,60.5,2,NA,NA,19,NA,NA,NA,220.2,2.8,2015_05
-111.117,58.767,FORT CHIPEWYAN,3072655,AB,8.5,6,NA,28.7,6,-9.3,5,NA,NA,NA,1.5,6,NA,NA,1,NA,NA,NA,237.8,0.8,2015_05
-111.117,58.767,FORT CHIPEWYAN RCS,3072659,AB,8.9,0,NA,28.7,0,-9.6,0,NA,NA,NA,5.8,0,NA,NA,3,NA,NA,NA,283.1,0.5,2015_05
-116.04,58.382,FORT VERMILION,3072723,AB,12.5,1,NA,31.4,0,-3.4,1,NA,NA,NA,25,0,NA,NA,3,NA,NA,NA,171.9,7.4,2015_05
-118.885,55.18,GRANDE PRAIRIE A,3072921,AB,11.2,0,NA,27.8,0,-2.8,0,1,0,NA,25,0,NA,NA,5,NA,NA,NA,212.3,0.1,2015_05
-117.298,57.265,HAWK HILLS AGCM,3073071,AB,9.8,0,NA,29.1,0,-7.1,0,NA,NA,NA,3.2,1,NA,NA,2,NA,NA,NA,253.7,0.4,2015_05
-117.165,58.622,HIGH LEVEL,3073140,AB,10.2,2,NA,29.1,2,-6.2,2,NA,NA,NA,2.1,2,NA,NA,1,NA,NA,NA,227.5,0.3,2015_05
-117.165,58.621,HIGH LEVEL A,3073146,AB,10.3,0,1.2,28.9,0,-7.6,0,0,0,0,2.2,0,6,0,2,NA,NA,NA,237.7,0,2015_05
-117.12,55.913,JEAN COTE AGCM,3073535,AB,11,0,NA,28.3,0,-1.9,0,NA,NA,NA,14.2,7,NA,NA,3,NA,NA,NA,220.2,3.2,2015_05
-116.343,58.172,LA CRETE AGCM,3073730,AB,12.1,1,NA,30.5,1,-4,0,NA,NA,NA,11,1,NA,NA,1,NA,NA,NA,182.9,7.3,2015_05
-119.255,55.422,LA GLACE AGCM,3073740,AB,9,29,NA,26.7,22,-3.5,17,NA,NA,NA,NA,NA,NA,NA,NA,NA,NA,NA,18,0,2015_05
-117.451,56.974,MANNING AGDM,3074190,AB,9.6,0,NA,28.7,0,-7.3,0,NA,NA,NA,NA,NA,NA,NA,NA,NA,NA,NA,260.6,0.9,2015_05
-119.745,56.314,CLEARDALE AGDM,3074935,AB,10.9,0,NA,28.1,0,-4.1,0,NA,NA,NA,3.8,6,NA,NA,1,NA,NA,NA,219.5,0.6,2015_05
-117.448,56.227,PEACE RIVER A,3075041,AB,10.7,0,NA,27.7,0,-2.3,0,16.8,0,NA,45.2,0,NA,NA,4,NA,NA,NA,228.8,2.2,2015_05
-118.293,55.621,PEORIA AGDM,3075160,AB,11.3,0,NA,29,0,-3.1,0,NA,NA,NA,4.9,13,NA,NA,2,NA,NA,NA,207.5,0.1,2015_05
-115.278,56.552,RED EARTH,3075488,AB,10.3,0,NA,28,0,-3.8,0,NA,NA,NA,32.9,5,NA,NA,2,NA,NA,NA,238.4,0,2015_05
-118.668,55.777,RYCROFT AGCM,3075601,AB,11,1,NA,28.5,1,-4.4,0,NA,NA,NA,15.4,7,NA,NA,3,NA,NA,NA,211.5,0,2015_05
-119.345,56.076,SAVANNA AGCM,3075770,AB,10.8,1,NA,27.6,1,-2.6,0,NA,NA,NA,4.2,8,NA,NA,3,NA,NA,NA,217.6,0.8,2015_05
-117.741,54.425,SIMONETTE,3075937,AB,10.6,12,2,26,8,-4,8,1,8,NA,2,8,NA,NA,1,NA,NA,NA,140.9,1,2015_05
-119.23,55.695,SPIRIT RIVER AUTO STATION,3076069,AB,10.9,0,NA,25.9,0,-2.8,0,NA,NA,NA,51,3,NA,NA,8,NA,NA,NA,226.1,4.5,2015_05
-118.408,55.352,TEEPEE CREEK AGCM,3076366,AB,10.8,0,NA,28.2,0,-4.9,0,NA,NA,NA,16.5,8,NA,NA,2,NA,NA,NA,222,0,2015_05
-117.199,55.098,VALLEYVIEW AGDM,3076680,AB,11.4,0,NA,28.1,0,-2.3,0,NA,NA,NA,21.1,11,NA,NA,6,NA,NA,NA,206.1,2.2,2015_05
-113.866,58.711,GARDEN RIVER,307KPFP,AB,10.2,0,NA,30.9,0,-6.2,0,NA,NA,NA,1,27,NA,NA,1,NA,NA,NA,241.5,0.7,2015_05
-110.283,54.417,COLD LAKE A,3081680,AB,10,0,-0.4,27.4,0,-3.2,0,3.3,0,96,12.9,0,32,0,7,NA,NA,NA,249.3,0,2015_05
-110.868,54.367,DUPRE AGCM,3081690,AB,9,0,NA,27.4,0,-5.1,0,NA,NA,NA,22.2,1,NA,NA,4,NA,NA,NA,277.6,0,2015_05
-104.71,50.201,BRATT'S LAKE CLIMATE,4010811,SK,10.1,0,NA,28.3,0,-7.7,0,NA,NA,NA,8.4,0,NA,NA,2,NA,NA,NA,246.5,0.3,2015_05
-102.571,50.368,BROADVIEW,4010879,SK,9.9,1,-0.7,27.4,1,-4.5,0,NA,NA,NA,21.4,1,NA,NA,5,NA,NA,NA,241.6,0,2015_05
-105.383,50.55,BUFFALO POUND LAKE,4010984,SK,11.8,2,NA,28.5,1,-3.5,1,0,1,NA,23.1,1,NA,0,3,NA,NA,NA,187.9,7.1,2015_05
-104.267,50.85,CUPAR,4011980,SK,10.6,0,-0.1,29,0,-6,0,0,0,0,16.2,0,33,0,5,NA,NA,NA,229.3,0.5,2015_05
-104.867,51.183,DUVAL,4012300,SK,11.5,0,-0.1,27,0,-2.5,0,0,0,0,26.6,0,54,0,3,NA,NA,NA,211.5,10.3,2015_05
-102.966,49.21,ESTEVAN A,4012401,SK,10.6,0,NA,28.4,0,-3.8,0,0.2,1,NA,37,1,NA,NA,4,NA,NA,NA,232,1.6,2015_05
-102.967,49.217,ESTEVAN,4012410,SK,10.5,0,NA,27.9,0,-3.9,0,NA,NA,NA,37.9,0,NA,NA,5,NA,NA,NA,232.5,1.5,2015_05
-103.65,50.55,INDIAN HEAD CDA,4013480,SK,10,0,-0.8,28.6,0,-7.5,0,NA,NA,NA,15.6,0,30,NA,3,NA,NA,NA,248.8,1.6,2015_05
-103.753,51.257,KELLIHER,4013660,SK,10.8,0,0.4,28,0,-4,0,0,0,0,12,0,22,0,3,NA,NA,NA,228.6,5.3,2015_05
-102.733,50.2,KIPLING,4014040,SK,10.9,2,0.3,26.1,2,-2.5,2,0,2,NA,20.8,2,NA,0,4,NA,NA,NA,208.3,1.9,2015_05
-101.717,50.9,LANGENBURG,4014145,SK,10.8,2,0,30,2,-4.5,2,0,2,NA,31.2,2,NA,0,7,NA,NA,NA,211.3,2.1,2015_05
-105.25,51.417,LAST MOUNTAIN CS,4014156,SK,10.2,0,-0.8,28.1,0,-5.3,0,NA,NA,NA,9,0,21,NA,3,NA,NA,NA,242.4,0.4,2015_05
-104.633,52,LEROY,4014322,SK,10.5,0,-0.4,29.5,0,-5,0,0.1,0,4,11.5,0,23,0,3,NA,NA,NA,235.8,2.1,2015_05
-103.889,51.152,LIPTON 2,4014481,SK,11.8,14,1.2,27,14,-2,14,0,14,NA,13.4,14,NA,0,4,NA,NA,NA,108.6,2.5,2015_05
-103.233,49.233,MACOUN,4014870,SK,NA,NA,NA,NA,NA,NA,NA,0,28,NA,42.6,28,NA,NA,3,NA,NA,NA,NA,NA,2015_05
-105.538,50.332,MOOSE JAW CS,4015322,SK,10.1,0,NA,28.6,0,-7.7,0,NA,NA,NA,NA,NA,NA,NA,NA,NA,NA,NA,246.4,1.5,2015_05
-105,52.333,MUENSTER,4015440,SK,9.6,7,-0.9,27.5,6,-5.5,7,0,6,NA,21,6,NA,0,4,NA,NA,NA,201.9,0,2015_05
-102.117,49.317,OXBOW,4015800,SK,11.3,3,NA,28,3,-3,3,0,3,NA,14.5,3,NA,0,4,NA,NA,NA,190.3,1.3,2015_05
-103.265,51.403,PARKERVIEW,4015870,SK,10.5,7,0.3,26.5,7,-4,7,NA,NA,NA,NA,NA,NA,NA,NA,NA,NA,NA,182.7,1.8,2015_05
-103.983,50.567,QU'APPELLE 1,4016322,SK,11.1,0,0.1,29,0,-5,0,1.1,0,13,20.2,0,33,0,6,NA,NA,NA,216.8,4,2015_05
-104.833,50.567,REGINA GILMOUR,4016651,SK,NA,NA,NA,NA,NA,NA,NA,0,2,NA,10.8,2,NA,0,3,NA,NA,NA,NA,NA,2015_05
-104.667,50.433,REGINA RCS,4016699,SK,10.6,0,NA,28.6,0,-4.8,0,NA,NA,NA,9.6,0,NA,NA,2,NA,NA,NA,229.8,1.1,2015_05
-105.4,51.667,WATROUS EAST,4018642,SK,10.2,0,NA,29.3,0,-4.6,0,NA,NA,NA,3.2,0,NA,NA,1,NA,NA,NA,242.5,1.7,2015_05
-104.183,49.817,YELLOW GRASS,4019040,SK,11.6,0,0,30,0,-5,0,0,0,0,45.4,0,82,0,6,NA,NA,NA,200.3,1,2015_05
-102.464,51.265,YORKTON,4019073,SK,10.3,1,NA,27.8,1,-3.8,0,NA,NA,NA,13.5,1,NA,NA,3,NA,NA,NA,232.9,0.8,2015_05
-102.462,51.265,YORKTON,4019075,SK,10.5,1,NA,28,1,-3.5,0,NA,NA,NA,8.1,1,NA,NA,3,NA,NA,NA,225.5,1.1,2015_05
-102.233,51.2,TONKIN,4019082,SK,10.7,0,NA,29.5,0,-5,0,0,0,NA,35.6,0,NA,0,5,NA,NA,NA,226.2,1.3,2015_05
-104.2,51.767,WYNYARD (AUT),40190LN,SK,10.1,1,NA,27.2,1,-6.3,0,NA,NA,NA,6.9,1,NA,NA,2,NA,NA,NA,237,0.7,2015_05
-103.8,49.7,WEYBURN,401HP5R,SK,10.4,0,NA,27.1,0,-5.6,0,NA,NA,NA,30.5,0,NA,NA,5,NA,NA,NA,235.4,0.1,2015_05
-106.848,51.289,CUTBANK,401JR89,SK,NA,NA,NA,NA,NA,NA,NA,0,26,NA,3.3,26,NA,NA,1,NA,NA,NA,NA,NA,2015_05
-105.946,49.729,ASSINIBOIA AIRPORT,4020286,SK,10.1,0,NA,27.3,0,-5.9,0,NA,NA,NA,22.2,0,NA,NA,4,NA,NA,NA,243.5,0,2015_05
-107.311,50.832,BEECHY,4020560,SK,10.1,0,-1.4,28.5,0,-7.5,0,0,0,0,24.1,0,52,0,3,NA,NA,NA,244.7,0,2015_05
-106.583,51.133,ELBOW CS,4022359,SK,10,0,NA,28.2,0,-5.5,0,NA,NA,NA,8.3,0,NA,NA,3,NA,NA,NA,248.2,0.6,2015_05
-106.55,51.167,ELBOW 2 NE,4022363,SK,9.6,8,-0.8,27,8,-5,8,0,8,NA,7.8,8,NA,NA,3,NA,NA,NA,193.6,0,2015_05
-107.15,50.95,LUCKY LAKE,4024714,SK,10.3,0,NA,28.2,0,-5.8,0,NA,NA,NA,12.1,0,NA,NA,2,NA,NA,NA,238.2,0.6,2015_05
-109.466,49.903,MAPLE CREEK,4024919,SK,10.2,1,NA,27.9,1,-7.5,1,NA,NA,NA,7.9,1,NA,NA,3,NA,NA,NA,235.4,0,2015_05
-107.263,51.154,ROCK POINT,4026847,SK,11.2,0,0,28.5,0,-5,0,0,0,0,3.6,0,7,0,2,NA,NA,NA,218.3,6.3,2015_05
-107.8,50.6,STEWART VALLEY,4027775,SK,10.9,0,-0.8,28,0,-6,0,0,0,0,14.2,0,27,0,3,NA,NA,NA,221,1.5,2015_05
-107.691,50.292,SWIFT CURRENT,4028038,SK,10,5,NA,26.8,5,-5.4,3,NA,NA,NA,0,6,NA,NA,0,NA,NA,NA,209.7,0.6,2015_05
-107.733,50.267,SWIFT CURRENT CDA,4028060,SK,10.1,0,-0.9,25.9,0,-6.4,0,NA,NA,NA,2.3,0,5,NA,1,NA,NA,NA,246.3,0.5,2015_05
-109.501,50.909,LEADER AIRPORT,402DAF0,SK,10.7,0,NA,28.4,0,-5.5,0,NA,NA,NA,0,1,NA,NA,0,NA,NA,NA,228.1,0.7,2015_05
-109.1,49.133,CLAYDON,4031581,SK,9.8,4,-1.1,25.5,4,-5,4,1,4,NA,32.2,4,NA,0,5,NA,NA,NA,221.3,0,2015_05
-105.517,49.117,CORONACH,4031844,SK,10,0,-1.1,27,0,-7.5,0,0,0,0,32.4,0,50,0,3,NA,NA,NA,247.2,0,2015_05
-105.483,49.05,CORONACH SPC,40318MN,SK,9.1,0,-2,26.7,0,-9.2,0,NA,NA,NA,31.3,0,61,NA,3,NA,NA,NA,274.5,0,2015_05
-109.514,49.641,CYPRESS HILLS PARK,4031999,SK,8.7,0,NA,23.2,0,-4.7,0,NA,NA,NA,27.6,0,NA,NA,5,NA,NA,NA,287.8,0,2015_05
-108.989,49.438,EASTEND CYPRESS (AUT),4032322,SK,9.5,0,NA,24.7,0,-3.3,0,NA,NA,NA,26.7,0,NA,NA,6,NA,NA,NA,264.3,0,2015_05
-107.024,49.099,MANKOTA,4034910,SK,9.4,0,-1.4,26.2,0,-6.7,0,NA,NA,NA,NA,NA,NA,NA,NA,NA,NA,NA,268,0,2015_05
-105.979,49.168,ROCKGLEN (AUT),4036844,SK,10,0,NA,25.1,0,-4.4,0,NA,NA,NA,22.3,0,NA,NA,4,NA,NA,NA,249,0.1,2015_05
-107.586,49.058,VAL MARIE SOUTHEAST,4038412,SK,9.3,0,NA,26.1,0,-7.1,0,NA,NA,NA,31.7,0,NA,NA,5,NA,NA,NA,270.5,0,2015_05
-108.407,51.294,BICKLEIGH,4040587,SK,11.3,0,0,28.5,0,-5.5,0,0,0,0,4,0,9,0,3,NA,NA,NA,212.5,4.3,2015_05
-109.2,53.45,BUTTE ST PIERRE,4041000,SK,8.3,0,-1.8,28,0,-9,0,0,0,0,8.5,0,22,0,2,NA,NA,NA,300.3,0,2015_05
-109.181,51.515,KINDERSLEY A,4043901,SK,10.4,0,NA,27.6,0,-5.9,0,0,0,NA,20.2,0,NA,NA,2,NA,NA,NA,234.5,0.1,2015_05
-109.948,52.333,MACKLIN,4044850,SK,9.2,16,NA,27,14,-3.5,15,0,14,NA,0.2,14,NA,NA,0,NA,NA,NA,132,0,2015_05
-108.256,52.772,NORTH BATTLEFORD RCS,4045607,SK,9.6,1,NA,28.4,1,-7.4,0,NA,NA,NA,18.7,1,NA,NA,2,NA,NA,NA,251.8,0,2015_05
-108.244,52.769,NORTH BATTLEFORD,4045695,SK,9.8,0,NA,27.8,0,-7.4,0,NA,NA,NA,0,0,NA,NA,0,NA,NA,NA,254.9,0,2015_05
-107.917,51.567,ROSETOWN EAST,4046884,SK,10.3,0,NA,28.6,0,-8.2,0,NA,NA,NA,16.8,0,NA,NA,1,NA,NA,NA,239.8,0.5,2015_05
-108.835,52.36,SCOTT CDA,4047240,SK,9.3,0,-1.4,27,0,-7.9,0,NA,NA,NA,4.1,0,11,NA,1,NA,NA,NA,268.3,0,2015_05
-109.405,53.131,WASECA RCS,4048521,SK,10.1,0,NA,27.7,0,-4.9,0,NA,NA,NA,25,0,NA,NA,5,NA,NA,NA,246.4,0.7,2015_05
-104.6,52.817,MELFORT,4055079,SK,9.9,0,NA,28.1,0,-5.7,0,NA,NA,NA,7.1,0,NA,NA,2,NA,NA,NA,254.2,2.3,2015_05
-107.05,51.483,OUTLOOK PFRA,4055736,SK,10.4,0,-1.1,28.2,0,-4,0,NA,NA,NA,9.3,0,22,NA,2,NA,NA,NA,236.7,1.4,2015_05
-105.15,52.417,PILGER,4056121,SK,10.2,0,NA,28.3,0,-3.5,0,NA,NA,NA,5.6,0,NA,NA,3,NA,NA,NA,243.2,1,2015_05
-105.673,53.214,PRINCE ALBERT A,4056241,SK,9,0,NA,28.2,0,-5.9,0,0,0,NA,21.4,0,NA,NA,4,NA,NA,NA,278.9,0,2015_05
-106.719,52.174,SASKATOON RCS,4057165,SK,10.1,1,NA,28.9,1,-5.7,0,NA,NA,NA,0.4,1,NA,NA,0,NA,NA,NA,236.7,0.9,2015_05
-106.6,52.15,SASKATOON SRC,4057180,SK,11.3,0,-0.5,29.2,0,-2.9,0,0,0,0,6.3,0,17,0,2,NA,NA,NA,212.6,5.7,2015_05
-109.626,54.335,BEACON HILL,4060452,SK,9.4,9,NA,27.5,9,-7,9,0,9,NA,9.2,9,NA,0,4,NA,NA,NA,190,0,2015_05
-108.421,55.841,BUFFALO NARROWS (AUT),4060983,SK,9.5,0,NA,27.9,0,-3.3,0,NA,NA,NA,NA,NA,NA,NA,NA,NA,NA,NA,262.1,0.1,2015_05
-104.483,58.083,CIGAR LAKE,4061570,SK,5.7,0,0.8,24,0,-11,0,6,0,92,10.1,0,31,0,5,NA,NA,NA,380,0,2015_05
-103.712,58.19,COLLINS BAY,4061629,SK,4.8,0,NA,23.6,0,-11.7,0,NA,NA,NA,12.5,1,NA,NA,3,NA,NA,NA,408,0,2015_05
-103.7,58.183,COLLINS BAY CAMECO,4061632,SK,6,9,NA,24.5,8,-10.5,8,7.6,8,NA,7.8,8,NA,NA,2,NA,NA,NA,263.9,0,2015_05
-102.35,55.533,ISLAND FALLS (AUT),4063605,SK,6.9,1,NA,27.9,1,-8.1,0,NA,NA,NA,19.1,1,NA,NA,3,NA,NA,NA,332.1,0,2015_05
-109.962,54.908,JIMMY LAKE AWOS,4063623,SK,8,5,NA,23.9,5,-2.8,5,NA,NA,NA,30.5,6,NA,NA,9,NA,NA,NA,260.6,0,2015_05
-105.6,57.25,KEY LAKE,4063753,SK,5.8,1,NA,27.5,1,-15.6,0,NA,NA,NA,14.3,1,NA,NA,4,NA,NA,NA,367.3,0,2015_05
-105.617,57.25,KEY LAKE,4063755,SK,6.8,3,0.3,28,3,-14.5,3,16.2,3,NA,25.6,3,NA,0,5,NA,NA,NA,312.4,0,2015_05
-105.618,57.256,KEY LAKE,4063757,SK,7.7,6,NA,27.5,6,-10.4,5,NA,NA,NA,2.8,6,NA,NA,2,NA,NA,NA,258.4,0,2015_05
-105.27,55.146,LA RONGE RCS,4064149,SK,7.6,0,NA,28.4,0,-7.3,0,NA,NA,NA,12.8,1,NA,NA,4,NA,NA,NA,320.9,0,2015_05
-105.267,55.151,LA RONGE A,4064155,SK,7.3,0,NA,28.6,0,-7.9,0,3.6,0,NA,17.2,0,NA,NA,5,NA,NA,NA,330.7,0,2015_05
-109.138,54.02,LOON LAKE RCS,4064620,SK,8.5,0,NA,26.8,0,-5.7,0,NA,NA,NA,8.9,1,NA,NA,4,NA,NA,NA,295.1,0,2015_05
-108.05,54.125,MEADOW LAKE A,4065057,SK,8.1,0,NA,26.9,0,-7,0,NA,NA,NA,NA,NA,NA,NA,NA,NA,NA,NA,307.1,0,2015_05
-103.283,56.333,SOUTHEND,4067655,SK,6,1,NA,28.8,1,-12.3,0,NA,NA,NA,49.3,1,NA,NA,8,NA,NA,NA,360.2,0,2015_05
-107.55,53.367,SPIRITWOOD WEST,4067723,SK,8.5,1,NA,27.7,1,-7.2,0,NA,NA,NA,25,1,NA,NA,5,NA,NA,NA,285.5,0,2015_05
-105.841,59.25,STONY RAPIDS,4067799,SK,6.9,3,NA,24.7,3,-7.9,2,NA,NA,NA,1,4,NA,NA,1,NA,NA,NA,309.9,0,2015_05
-106.067,53.917,WASKESIU LAKE,4068559,SK,8.7,1,NA,26.7,1,-6.1,0,NA,NA,NA,10.6,1,NA,NA,3,NA,NA,NA,280.7,0.8,2015_05
-108.517,54.133,MEADOW LAKE,406N0NM,SK,8.3,0,NA,28.7,0,-7.1,0,NA,NA,NA,14,0,NA,NA,5,NA,NA,NA,300.4,0.3,2015_05
-108.483,59.567,URANIUM CITY (AUT),406QLD0,SK,7.1,0,NA,25.9,0,-9,0,NA,NA,NA,0.2,1,NA,NA,0,NA,NA,NA,338.5,0,2015_05
-104.008,53.333,NIPAWIN,4075525,SK,9.6,0,NA,28.4,0,-5.2,0,NA,NA,NA,27,0,NA,NA,3,NA,NA,NA,261.3,0.6,2015_05
-104,53.333,NIPAWIN,407N51G,SK,9.3,0,NA,28.4,0,-5.6,0,NA,NA,NA,12.9,0,NA,NA,2,NA,NA,NA,268.7,0.4,2015_05
-102.583,52.883,HUDSON BAY 13W,4083323,SK,8.5,0,NA,28,0,-7.5,0,0,0,NA,11.6,0,NA,0,3,NA,NA,NA,294,0,2015_05
-102.317,52.817,HUDSON BAY(AUT),4083324,SK,8.7,0,NA,29.1,0,-6.6,0,NA,NA,NA,4.2,0,NA,NA,1,NA,NA,NA,287.7,0.3,2015_05
-103.833,52.583,MCKAGUE 2,4085052,SK,9.4,3,-0.8,29,3,-4.5,3,0,3,NA,20.6,3,NA,0,4,NA,NA,NA,245.8,5.1,2015_05
-101.867,52.083,PELLY,4086000,SK,9.1,0,0.1,27,0,-5.5,0,0,0,0,23.2,0,39,0,4,NA,NA,NA,276.3,1.3,2015_05
-101.9,51.733,PELLY 2,4086001,SK,10.7,0,0.5,28,0,-4.5,0,0,0,0,12.6,0,22,0,4,NA,NA,NA,228,2.8,2015_05
-99.292,49.276,BALDUR,5010140,MB,10.9,3,-0.1,29,2,-3,1,0,1,NA,78.8,1,NA,0,8,NA,NA,NA,202.9,3.8,2015_05
-99.45,49.3,BELMONT,5010191,MB,NA,NA,NA,NA,NA,NA,NA,5.8,0,149,70.8,0,93,0,10,NA,NA,NA,NA,NA,2015_05
-99.952,49.91,BRANDON A,5010481,MB,10.1,0,NA,30,0,-4.3,0,0.2,0,NA,48.6,0,NA,NA,4,NA,NA,NA,246.3,2.2,2015_05
-99.95,49.9,BRANDON RCS,5010490,MB,10.3,0,NA,29,0,-3.6,0,NA,NA,NA,44.8,0,NA,NA,4,NA,NA,NA,241.1,2.1,2015_05
-99.357,49.906,CARBERRY CS,5010547,MB,10.1,1,NA,29.9,0,-4.7,1,NA,NA,NA,54.3,1,NA,NA,5,NA,NA,NA,237.7,1.4,2015_05
-99.074,49.562,CYPRESS RIVER RCS,5010641,MB,10.6,1,NA,30.1,1,-4,0,NA,NA,NA,57.9,1,NA,NA,7,NA,NA,NA,224.9,2.6,2015_05
-101.203,49.927,ELKHORN 2 EAST,5010QFQ,MB,11.5,8,0.4,28.5,8,-3.5,8,0,8,NA,18.4,8,NA,NA,4,NA,NA,NA,153,3.3,2015_05
-98.3,49.983,PORTAGE ROMANCE,5012300,MB,NA,NA,NA,NA,NA,NA,NA,13.8,0,NA,84.5,0,NA,0,6,NA,NA,NA,NA,NA,2015_05
-98.267,49.95,PORTAGE LA PRAIRIE CDA,5012321,MB,NA,NA,NA,NA,NA,NA,NA,0.1,15,NA,84.9,15,NA,NA,7,NA,NA,NA,NA,NA,2015_05
-98.284,49.903,PORTAGE SOUTHPORT,5012324,MB,11.3,0,NA,29,0,-1.6,0,NA,NA,NA,76.2,0,NA,NA,6,NA,NA,NA,217,10,2015_05
-101.363,51.183,ROBLIN,5012469,MB,9.9,0,NA,27.5,0,-4.7,0,NA,NA,NA,26.2,0,NA,NA,4,NA,NA,NA,251.4,0.6,2015_05
-99.017,49.45,ST ALPHONSE,5012545,MB,10.9,0,-0.8,30,0,-4,0,6.6,0,148,80.4,0,121,0,9,NA,NA,NA,223.7,4.3,2015_05
-100.604,50.455,SHOAL LAKE CS,5012654,MB,9.8,0,NA,27.8,0,-3.5,0,NA,NA,NA,15.2,20,NA,NA,2,NA,NA,NA,254.2,0.4,2015_05
-100.934,49.842,VIRDEN WATER,5012961,MB,10.4,3,NA,29,3,-4,3,0,3,NA,55.8,3,NA,0,3,NA,NA,NA,212.8,1,2015_05
-99.942,50.655,WASAGAMING,5013117,MB,7.9,0,-0.6,26.8,0,-7.3,0,NA,NA,NA,42.7,0,74,NA,4,NA,NA,NA,313.2,0,2015_05
-100.986,49.281,MELITA,501A7AR,MB,11.2,0,NA,26.8,0,-3.2,0,NA,NA,NA,112.3,0,NA,NA,5,NA,NA,NA,215.7,3.6,2015_05
-101.4,51.267,ROBLIN FRIESEN 3 NORTHWEST,501B4G2,MB,NA,NA,NA,NA,NA,NA,NA,0,0,NA,31.8,0,NA,0,8,NA,NA,NA,NA,NA,2015_05
-100.179,50.108,RIVERS PETTAPIECE,501BMMA,MB,NA,NA,NA,NA,NA,NA,NA,0,0,0,41.2,0,68,0,4,NA,NA,NA,NA,NA,2015_05
-100.817,50.75,ROSSBURN 4 NORTH,501KE01,MB,NA,NA,NA,NA,NA,NA,NA,1,6,NA,28.4,6,NA,0,2,NA,NA,NA,NA,NA,2015_05
-98.319,49.4,DEERWOOD RCS,5020725,MB,11.4,1,NA,29.5,1,-2.7,0,NA,NA,NA,97.3,1,NA,NA,6,NA,NA,NA,209.9,12.4,2015_05
-97.238,49,EMERSON AUTO,5020881,MB,11.5,0,NA,29.8,0,-2.6,0,NA,NA,NA,88.8,7,NA,NA,6,NA,NA,NA,207.7,5.3,2015_05
-97.56,49.031,GRETNA (AUT),5021220,MB,11,2,NA,29.6,1,-3.2,1,NA,NA,NA,114,3,NA,NA,9,NA,NA,NA,207.5,5,2015_05
-98.875,49.606,HOLLAND,5021302,MB,NA,NA,NA,NA,NA,NA,NA,6,9,NA,156,9,NA,0,5,NA,NA,NA,NA,NA,2015_05
-96.901,49.518,KLEEFELD (MAFRI),5021500,MB,11,0,NA,29.3,0,-2.9,0,NA,NA,NA,97.5,0,NA,NA,7,NA,NA,NA,220.8,3.6,2015_05
-97.807,50.013,MARQUETTE,5021695,MB,11,0,-1,29,0,-2.5,0,2.6,0,114,93,0,154,0,7,NA,NA,NA,223,4.8,2015_05
-98.25,49.45,MIAMI THIESSEN,5021737,MB,12,0,NA,30,0,-2,0,13.6,0,NA,103.5,0,NA,0,6,NA,NA,NA,200.4,13.4,2015_05
-98.084,49.188,MORDEN CDA CS,5021849,MB,11.7,2,NA,29.3,1,-2.7,1,NA,NA,NA,82.8,2,NA,NA,6,NA,NA,NA,195.3,12.3,2015_05
-96.85,49.933,OAKBANK,5022051,MB,NA,NA,NA,NA,NA,NA,NA,1,0,38,83.4,0,101,0,8,NA,NA,NA,NA,NA,2015_05
-98.905,49.191,PILOT MOUND (AUT),5022125,MB,10.2,0,NA,28.8,0,-2.7,0,NA,NA,NA,81.3,2,NA,NA,6,NA,NA,NA,246.5,4.3,2015_05
-98.367,49.65,ST CLAUDE,5022550,MB,NA,NA,NA,NA,NA,NA,NA,3.8,3,NA,82.3,3,NA,0,6,NA,NA,NA,NA,NA,2015_05
-96.035,49.353,ST LABRE,5022575,MB,NA,NA,NA,NA,NA,NA,NA,2.2,1,NA,98,1,NA,0,11,NA,NA,NA,NA,NA,2015_05
-97.95,49.133,SCHANZENFELD,5022623,MB,NA,NA,NA,NA,NA,NA,NA,2,0,37,84.5,0,100,0,9,NA,NA,NA,NA,NA,2015_05
-95.598,49.024,SPRAGUE,5022759,MB,10.4,2,NA,28.3,1,-4.2,1,NA,NA,NA,112.2,3,NA,1,9,NA,NA,NA,224.7,2.9,2015_05
-97.167,50.117,STONY MOUNTAIN,5022791,MB,11,0,-0.7,30,0,-2.5,0,2.1,0,179,88.7,0,159,0,9,NA,NA,NA,223.4,7.2,2015_05
-97.273,49.85,WINNIPEG CHARLESWOOD 2,5023225,MB,NA,NA,NA,NA,NA,NA,NA,2.5,28,NA,45.5,28,NA,NA,2,NA,NA,NA,NA,NA,2015_05
-97.129,49.888,WINNIPEG THE FORKS,5023262,MB,12.1,0,NA,29.6,0,-1.3,0,NA,NA,NA,81.3,2,NA,NA,7,NA,NA,NA,195.4,13.3,2015_05
-98.03,49.498,CARMAN U OF M CS,502I001,MB,10.7,0,NA,29.2,0,-3.7,0,NA,NA,NA,98.8,0,NA,NA,6,NA,NA,NA,227.7,2.3,2015_05
-97.249,49.917,WINNIPEG A CS,502S001,MB,11,0,NA,29.6,0,-3.6,0,NA,NA,NA,83,0,NA,NA,6,NA,NA,NA,225.8,8.2,2015_05
-97.083,50.933,ARBORG,5030080,MB,10,0,0,29,0,-4,0,12,0,992,71.7,0,130,0,8,NA,NA,NA,251.3,3,2015_05
-97.022,52.36,BERENS RIVER CS,5030203,MB,7.1,1,-1.5,24.8,1,-3.8,1,NA,NA,NA,51.6,1,NA,NA,7,NA,NA,NA,327,0,2015_05
-97.616,52.819,GEORGE ISLAND (AUT),5030984,MB,5.1,0,NA,17.6,0,-3.8,0,NA,NA,NA,NA,NA,NA,NA,NA,NA,NA,NA,399,0,2015_05
-97.555,51.083,FISHER BRANCH (AUT),50309J6,MB,9.4,0,NA,28.5,0,-4.9,0,NA,NA,NA,70.2,0,NA,NA,7,NA,NA,NA,268,1.6,2015_05
-96.982,50.631,GIMLI HARBOUR CS,5031041,MB,9.9,0,NA,28.2,0,-2.3,0,NA,NA,NA,NA,NA,NA,NA,NA,NA,NA,NA,256.2,4.5,2015_05
-97.05,50.633,GIMLI CLIMATE,5031042,MB,9.6,0,NA,28.5,0,-2.9,0,NA,NA,NA,72.9,0,NA,NA,5,NA,NA,NA,264.1,3.6,2015_05
-99.283,53.158,GRAND RAPIDS HYDRO,5031111,MB,8,0,-0.3,26.5,0,-7,0,0,0,0,8.3,0,16,0,3,NA,NA,NA,308.9,0,2015_05
-95.977,50.522,GREAT FALLS CLIMATE,5031201,MB,10.6,0,NA,28.3,0,-1.9,0,NA,NA,NA,65.8,3,NA,NA,6,NA,NA,NA,233.2,3.6,2015_05
-97.568,51.211,HODGSON 3,5031310,MB,6.8,17,NA,24.5,17,-4.5,17,12,17,NA,46,17,NA,NA,4,NA,NA,NA,156.9,0,2015_05
-95.197,49.624,INDIAN BAY,5031320,MB,10.3,0,-0.7,28,0,-5,0,1,0,67,109,0,152,0,10,NA,NA,NA,243,3.9,2015_05
-99.268,53.186,GRAND RAPIDS (AUT),5031A10,MB,6.2,1,NA,29,1,-8.9,0,NA,NA,NA,18.8,1,NA,NA,4,NA,NA,NA,353.3,0,2015_05
-95.89,50.148,PINAWA CANWARN,5032161,MB,NA,NA,NA,NA,NA,NA,NA,1.2,0,NA,97.4,0,NA,0,7,NA,NA,NA,NA,NA,2015_05
-95.533,49.85,RENNIE,5032360,MB,10.6,16,NA,28.5,11,-6,11,0,11,NA,88.8,11,NA,NA,10,NA,NA,NA,113.4,1.8,2015_05
-96.567,50.7,VICTORIA BEACH (AUT),5032951,MB,11,0,NA,27.8,0,-0.4,0,NA,NA,NA,NA,NA,NA,NA,NA,NA,NA,NA,221.6,5.3,2015_05
-96.065,50.177,PINAWA,503B1ER,MB,10.1,0,NA,28.3,0,-3,0,NA,NA,NA,85.2,0,NA,NA,7,NA,NA,NA,248.5,3.9,2015_05
-100.057,51.1,DAUPHIN CS,5040681,MB,10.3,0,NA,28.7,0,-5.2,0,NA,NA,NA,54.6,0,NA,NA,6,NA,NA,NA,243.7,3.9,2015_05
-100.053,51.101,DAUPHIN,5040689,MB,10.1,2,NA,29.8,2,-4.9,1,NA,NA,NA,31.8,1,NA,NA,6,NA,NA,NA,234.2,5.5,2015_05
-100.467,51.1,GILBERT PLAINS,5040985,MB,9.9,0,-0.4,29.5,0,-7,0,6,0,122,57.6,0,98,0,6,NA,NA,NA,255.1,3.8,2015_05
-100.65,52.033,COWAN,5040FJ3,MB,9.5,0,-0.1,30,0,-10,0,0,0,0,21.4,0,35,0,5,NA,NA,NA,266.9,3,2015_05
-101.098,52.666,MAFEKING,5041685,MB,9.6,0,0.1,29,0,-7,0,0.6,0,9,15.5,0,23,0,6,NA,NA,NA,262.1,2.3,2015_05
-99.53,50.712,MCCREARY,5043158,MB,10.5,0,-0.3,28.5,0,-6,0,NA,NA,NA,62.3,0,99,NA,6,NA,NA,NA,240.2,7.5,2015_05
-98.037,50.499,OAKPOINT MARINE,504K0NM,MB,10.2,0,NA,26.9,0,-2.6,0,NA,NA,NA,70.8,1,NA,NA,7,NA,NA,NA,241.6,0.8,2015_05
-101.233,52.115,SWAN RIVER RCS,504K80K,MB,9.9,0,NA,29.3,0,-6.4,0,NA,NA,NA,23.9,1,NA,NA,4,NA,NA,NA,252.1,2.3,2015_05
-101.683,54.683,FLIN FLON,5050919,MB,7.7,1,NA,28.4,0,-4.8,1,NA,NA,NA,0,25,NA,NA,0,NA,NA,NA,309.7,0,2015_05
-101.883,54.767,FLIN FLON,5050920,MB,8.9,0,-0.5,28,0,-5,0,12,0,732,83.3,0,204,0,7,NA,NA,NA,285.2,1.8,2015_05
-101.683,54.683,FLIN FLON A,5050960,MB,7.9,0,-0.5,28,0,-5,0,23,0,642,59.8,0,146,0,8,NA,NA,NA,314,0,2015_05
-101.091,53.971,THE PAS A,5052881,MB,7.7,0,NA,28.5,0,-4.8,0,1.4,0,NA,16.1,0,NA,NA,5,NA,NA,NA,319.9,0,2015_05
-101.1,53.967,THE PAS CLIMATE,5052890,MB,7.7,0,NA,27.7,0,-4.9,0,NA,NA,NA,13.1,0,NA,NA,4,NA,NA,NA,320.3,0,2015_05
-94.066,58.739,CHURCHILL,5060595,MB,1,2,NA,22.8,2,-12.9,2,NA,NA,NA,3.1,3,NA,NA,1,NA,NA,NA,492.8,0,2015_05
-94.067,58.733,CHURCHILL CLIMATE,5060608,MB,0.4,0,NA,23.5,0,-13,0,NA,NA,NA,13.6,0,NA,NA,3,NA,NA,NA,544.3,0,2015_05
-98.033,54.533,CROSS LAKE JENPEG,5060623,MB,6.5,0,-1.3,25.5,0,-6.2,0,12.7,0,326,27.6,0,66,0,6,NA,NA,NA,356.5,0,2015_05
-94.711,56.358,GILLAM A,5061022,MB,3.9,0,NA,21.3,0,-9.3,0,35.6,8,NA,56.4,10,NA,NA,6,NA,NA,NA,438,0,2015_05
-94.654,53.857,ISLAND LAKE A,5061375,MB,7.5,9,NA,25.8,9,-4.9,9,0.4,9,NA,20.4,9,NA,NA,3,NA,NA,NA,230.4,0,2015_05
-96.51,56.038,KELSEY DAM CS,5061422,MB,5.1,2,NA,25.5,2,-7.7,2,NA,NA,NA,33.5,8,NA,NA,4,NA,NA,NA,375,0,2015_05
-101.076,56.864,LYNN LAKE,5061645,MB,5.6,2,NA,27.5,2,-14.3,2,NA,NA,NA,13.6,4,NA,NA,5,NA,NA,NA,360.5,0,2015_05
-101.067,56.85,LYNN LAKE RCS,5061649,MB,5.4,2,NA,27.7,2,-15.6,0,NA,NA,NA,26.6,2,NA,NA,6,NA,NA,NA,366.1,0,2015_05
-97.844,53.958,NORWAY HOUSE,5062040,MB,6.9,2,NA,26.2,2,-4.8,1,NA,NA,NA,23.5,2,NA,NA,6,NA,NA,NA,321.7,0,2015_05
-98.512,58.706,TADOULE LAKE,5062835,MB,2.4,0,NA,23.8,0,-11.4,0,NA,NA,NA,19.2,0,NA,NA,3,NA,NA,NA,482.6,0,2015_05
-98.502,58.716,TADOULE LAKE CS,5062840,MB,2.3,0,NA,24,0,-12.2,0,NA,NA,NA,42.5,0,NA,NA,13,NA,NA,NA,487.8,0,2015_05
-97.863,55.805,THOMPSON A,5062921,MB,5.3,0,NA,27.3,0,-9.9,0,19.2,0,NA,25.6,1,NA,NA,4,NA,NA,NA,392.9,0,2015_05
-82.432,52.928,ATTAWAPISKAT A,6010400,ON,4.8,3,NA,20.8,2,-5.1,2,NA,NA,NA,27.6,5,NA,NA,6,NA,NA,NA,369,0,2015_05
-89.897,53.818,BIG TROUT LAKE A,6010735,ON,4.9,2,NA,22.2,2,-7.7,0,NA,NA,NA,21.2,2,NA,NA,5,NA,NA,NA,379.7,0,2015_05
-89.892,53.816,BIG TROUT LAKE,6010740,ON,5,0,NA,22.5,0,-8,0,NA,NA,NA,41.5,1,NA,NA,6,NA,NA,NA,404.5,0,2015_05
-93.221,50.631,EAR FALLS (AUT),6012199,ON,9,1,NA,26.6,1,-3.4,0,NA,NA,NA,95.6,2,NA,NA,9,NA,NA,NA,270.2,0.6,2015_05
-87.676,56.019,FORT SEVERN A,6012501,ON,1.8,4,NA,23.1,3,-8,3,NA,NA,NA,14.4,4,NA,NA,4,NA,NA,NA,438,0,2015_05
-87.936,52.196,LANSDOWNE HOUSE (AUT),6014353,ON,6.5,0,NA,27.7,0,-5.9,0,NA,NA,NA,92.9,1,NA,NA,8,NA,NA,NA,355.8,0,2015_05
-91.763,53.441,MUSKRAT DAM,6015026,ON,6.3,0,NA,25.5,0,-6.4,0,NA,NA,NA,42.5,0,NA,NA,6,NA,NA,NA,364.2,0,2015_05
-85.433,54.983,PEAWANUCK (AUT),6016295,ON,2.5,0,NA,20,0,-6.1,0,NA,NA,NA,33.4,0,NA,NA,5,NA,NA,NA,480.6,0,2015_05
-90.218,51.449,PICKLE LAKE (AUT),6016525,ON,8.2,0,NA,27,0,-5.5,0,NA,NA,NA,107,2,NA,NA,8,NA,NA,NA,304.8,1.5,2015_05
-90.214,51.446,PICKLE LAKE A,6016529,ON,8.5,7,NA,26.9,7,-5.6,7,NA,NA,NA,NA,NA,NA,NA,NA,NA,NA,NA,228.5,1.4,2015_05
-93.793,51.067,RED LAKE A,6016970,ON,8.9,0,NA,27.1,0,-5.3,0,NA,NA,NA,NA,NA,NA,NA,NA,NA,NA,NA,281.6,0,2015_05
-93.344,53.064,SANDY LAKE A,6017401,ON,7.5,1,NA,26.9,1,-5,0,NA,NA,NA,44.7,3,NA,NA,9,NA,NA,NA,314.9,0,2015_05
-93.967,48.633,BARWICK,6020559,ON,10.2,0,-1.2,27,0,-3,0,0.1,0,9,148.2,0,194,0,11,NA,NA,NA,242.7,0,2015_05
-91.628,48.761,ATIKOKAN (AUT),6020LPQ,ON,9.8,1,NA,26.7,1,-4.3,0,NA,NA,NA,108.8,3,NA,NA,17,NA,NA,NA,245.7,0,2015_05
-93.439,48.651,FORT FRANCES RCS,6022474,ON,10,0,NA,27,0,-2.7,0,NA,NA,NA,124.6,0,NA,NA,13,NA,NA,NA,248.6,0,2015_05
-92.623,48.76,MINE CENTRE SOUTHWEST,6025205,ON,10.1,0,NA,26.5,0,-4,0,4.5,0,NA,117.3,0,NA,0,11,NA,NA,NA,246.3,0,2015_05
-92.744,49.828,DRYDEN REGIONAL,6032125,ON,10.2,1,NA,27.2,1,-2.3,1,NA,NA,NA,75.3,1,NA,NA,12,NA,NA,NA,238.6,3.5,2015_05
-94.378,49.791,KENORA RCS,6034073,ON,10.4,1,NA,26.8,1,-2.4,0,NA,NA,NA,108,2,NA,NA,9,NA,NA,NA,233.1,3.8,2015_05
-94.363,49.788,KENORA A,6034076,ON,10.7,0,NA,27.6,0,-2.4,0,5,0,NA,136.8,1,NA,NA,14,NA,NA,NA,234.4,7.7,2015_05
-91.908,50.114,SIOUX LOOKOUT A,6037776,ON,9,0,NA,26.2,0,-3.7,0,17.8,0,NA,142.4,1,NA,NA,10,NA,NA,NA,279.8,0.5,2015_05
-88.905,50.294,ARMSTRONG (AUT),6040325,ON,7.3,0,NA,26,0,-7.5,0,NA,NA,NA,121,0,NA,NA,8,NA,NA,NA,330.4,0,2015_05
-88.345,49.154,CAMERON FALLS (AUT),6041110,ON,7.9,0,NA,26.6,0,-3.3,0,NA,NA,NA,74.8,1,NA,NA,8,NA,NA,NA,312.3,0,2015_05
-85.833,47.333,CARIBOU ISLAND (AUT),6041222,ON,5.4,0,NA,11.7,0,0.4,0,NA,NA,NA,NA,NA,NA,NA,NA,NA,NA,NA,390.5,0,2015_05
-86.939,49.779,GERALDTON A,6042717,ON,9.4,3,NA,26,3,-7.1,3,0.6,4,NA,65.8,4,NA,NA,8,NA,NA,NA,241.7,0,2015_05
-86.287,48.608,PUKASKWA (AUT),6046768,ON,7.5,0,NA,24.4,0,-3.9,0,NA,NA,NA,45.7,11,NA,NA,9,NA,NA,NA,325.1,0,2015_05
-89.322,48.372,THUNDER BAY,6048260,ON,8.7,3,NA,27.8,3,-3,3,NA,NA,NA,99.9,3,NA,NA,8,NA,NA,NA,259.6,0,2015_05
-89.278,48.414,THUNDER BAY BURWOOD,6048266,ON,9.1,13,NA,29,13,-2.5,13,0,13,NA,83.3,13,NA,NA,6,NA,NA,NA,160.9,0,2015_05
-89.327,48.369,THUNDER BAY CS,6048268,ON,9.1,0,NA,28.5,0,-4.4,0,NA,NA,NA,101.6,0,NA,NA,10,NA,NA,NA,276,0,2015_05
-90.467,49.033,UPSALA (AUT),6049095,ON,9,1,NA,26.7,1,-4.4,0,NA,NA,NA,102.6,2,NA,NA,10,NA,NA,NA,268.7,0,2015_05
-89.119,48.369,WELCOME ISLAND (AUT),6049443,ON,7.4,7,NA,26.5,7,-0.2,5,NA,NA,NA,NA,NA,NA,NA,NA,NA,NA,NA,255.2,0,2015_05
-88.306,49.69,LITTLE FLATLAND ISLAND (AUT),6049470,ON,6,0,NA,20.3,0,-2,0,NA,NA,NA,NA,NA,NA,0,NA,NA,NA,NA,373.4,0,2015_05
-84.814,47.723,LAKE SUPERIOR PROVINCIAL PARK,6054425,ON,8.9,0,NA,25.3,0,-4.1,0,NA,NA,NA,148,0,NA,NA,11,NA,NA,NA,281,0,2015_05
-84.51,46.485,SAULT STE MARIE A,6057591,ON,10.2,0,NA,28.6,0,-5,0,0,0,NA,62.8,1,NA,NA,10,NA,NA,NA,242.9,1.1,2015_05
-84.786,47.967,WAWA A,6059407,ON,8.3,0,NA,25.8,0,-2.8,0,NA,NA,NA,NA,NA,NA,NA,NA,NA,NA,NA,299.3,0,2015_05
-81.483,45.967,KILLARNEY (AUT),605DJ25,ON,10.3,0,NA,19.3,0,2,0,NA,NA,NA,NA,NA,NA,NA,NA,NA,NA,NA,237.2,0,2015_05
-83.347,47.82,CHAPLEAU A,6061362,ON,10.6,0,NA,27.8,0,-4,0,NA,NA,NA,NA,NA,NA,NA,NA,NA,NA,NA,235.6,4.7,2015_05
-82.025,46.193,MASSEY,6065006,ON,12.3,0,1.4,25,0,-2.5,0,0,0,0,117.8,0,154,0,11,NA,NA,NA,178,1.8,2015_05
-80.303,46.215,MONETVILLE 2,6065252,ON,12.9,0,NA,26.6,0,-2.5,0,0,0,NA,105.1,0,NA,0,12,NA,NA,NA,165.5,6.2,2015_05
-80.796,46.632,SUDBURY CLIMATE,6068145,ON,12.3,0,NA,27.3,0,-1.7,0,NA,NA,NA,110.3,0,NA,NA,9,NA,NA,NA,182.6,6.1,2015_05
-80.798,46.626,SUDBURY A,6068153,ON,12.5,0,NA,27.2,0,-1.9,0,0,1,NA,110.6,1,NA,NA,10,NA,NA,NA,176.1,6.1,2015_05
-82.124,49.383,BONNER LAKE,6070QK6,ON,9.9,0,NA,27.5,0,-4,0,3,0,NA,121.5,0,NA,0,11,NA,NA,NA,254.2,2.8,2015_05
-79.849,47.695,EARLTON A,6072223,ON,11.5,3,NA,27.6,3,-2.7,2,NA,NA,NA,52.5,2,NA,NA,9,NA,NA,NA,188.8,6.3,2015_05
-79.849,47.695,EARLTON CLIMATE,6072230,ON,11.6,0,NA,27.9,0,-4.4,0,NA,NA,NA,57.2,0,NA,NA,11,NA,NA,NA,203,6.1,2015_05
-82.468,49.412,KAPUSKASING A,6073976,ON,9.5,0,NA,28.3,0,-3.4,0,11.2,0,NA,90.4,0,NA,NA,8,NA,NA,NA,262.6,0,2015_05
-82.444,49.406,KAPUSKASING CDA ON,6073980,ON,10.6,21,NA,26.1,21,-4.4,21,NA,NA,NA,34.7,21,NA,NA,4,NA,NA,NA,73.6,0,2015_05
-80,48.15,KIRKLAND LAKE CS,6074211,ON,10.7,0,NA,27.4,0,-2.3,0,NA,NA,NA,92.4,2,NA,NA,10,NA,NA,NA,229.1,4.2,2015_05
-80.608,51.291,MOOSONEE,6075420,ON,6.6,2,NA,27.2,2,-3.8,0,NA,NA,NA,71.1,0,NA,NA,10,NA,NA,NA,329.3,0,2015_05
-80.65,51.267,MOOSONEE UA,6075425,ON,6.4,0,-0.3,27,0,-5.5,0,2.2,0,33,59.4,0,109,0,10,NA,NA,NA,358.2,0,2015_05
-80.618,51.292,MOOSONEE RCS,6075435,ON,6.4,1,NA,27.2,1,-3.7,0,NA,NA,NA,66.7,3,NA,NA,11,NA,NA,NA,348.7,0,2015_05
-84.164,49.747,NAGAGAMI (AUT),6075543,ON,9,1,NA,27.5,1,-5.6,0,NA,NA,NA,50.5,2,NA,NA,10,NA,NA,NA,270.2,0,2015_05
-85.901,51.659,OGOKI POST A,6075786,ON,7.8,1,NA,26.3,1,-4.5,0,NA,NA,NA,73.7,3,NA,NA,6,NA,NA,NA,306,0,2015_05
-81.39,48.557,TIMMINS CLIMATE,6078282,ON,10.1,0,NA,28.3,0,-3.7,0,NA,NA,NA,101.8,0,NA,NA,12,NA,NA,NA,245.5,0.9,2015_05
-81.377,48.571,TIMMINS A,6078286,ON,10.1,0,NA,28.2,0,-3.7,0,0,29,NA,NA,NA,NA,NA,NA,NA,NA,NA,247.1,1.1,2015_05
-78.267,45.533,ALGONQUIN PARK EAST GATE,6080192,ON,12.5,0,NA,29.4,0,-5.9,0,NA,NA,NA,98.3,1,NA,NA,12,NA,NA,NA,181,9.8,2015_05
-79.424,46.364,NORTH BAY A,6085680,ON,12.1,0,NA,28.6,0,-3,0,NA,NA,NA,79.1,0,NA,NA,10,NA,NA,NA,191.1,8.1,2015_05
-82.567,45.883,GORE BAY CLIMATE,6092920,ON,11.6,0,NA,23.2,0,1,0,NA,NA,NA,113.6,0,NA,NA,9,NA,NA,NA,199.1,0,2015_05
-82.95,45.633,GREAT DUCK ISLAND (AUT),6093005,ON,8.4,0,NA,18.4,0,1,0,NA,NA,NA,NA,NA,NA,NA,NA,NA,NA,NA,296.7,0,2015_05
-81.982,45.69,SANDFIELD,6097426,ON,12,0,NA,24,0,-1,0,0,0,NA,151.4,0,NA,0,12,NA,NA,NA,187.3,0,2015_05
-76.113,45.186,APPLETON,6100285,ON,15.8,0,NA,30,0,-2.5,0,0,0,NA,57.6,0,NA,0,9,NA,NA,NA,94.4,26.7,2015_05
-75.748,44.635,BROCKVILLE CLIMATE,6100970,ON,15.6,2,NA,29.6,2,-2.4,0,NA,NA,NA,30.6,3,NA,NA,5,NA,NA,NA,89.6,20.3,2015_05
-75.667,44.6,BROCKVILLE PCC,6100971,ON,16,0,2.8,29,0,1,0,0,0,NA,46.5,0,55,0,9,NA,NA,NA,85.2,22.2,2015_05
-77.367,46.05,CHALK RIVER AECL,6101335,ON,15,11,2.6,30.5,11,0,11,0,11,NA,54.6,11,NA,NA,4,NA,NA,NA,74.5,14.5,2015_05
-74.749,45.016,CORNWALL,6101874,ON,17,0,3,30.5,0,0.5,0,0,0,0,57.8,0,66,0,10,NA,NA,NA,71.9,39.5,2015_05
-76.253,45.032,DRUMMOND CENTRE,6102J13,ON,15.8,0,3.1,30.5,0,-1.5,0,0,0,0,70,0,91,0,9,NA,NA,NA,91.9,23.9,2015_05
-76.69,44.428,HARTINGTON IHD,6103367,ON,16,0,3,29,0,-2,0,0,0,0,49.2,0,54,0,7,NA,NA,NA,86.9,23.7,2015_05
-75.633,45,KEMPTVILLE CS,6104027,ON,15.5,0,NA,29.6,0,-1.7,0,NA,NA,NA,51.4,0,NA,NA,8,NA,NA,NA,100.6,23,2015_05
-76.599,44.223,KINGSTON CLIMATE,6104142,ON,13.5,3,NA,24.7,3,-2.2,2,NA,NA,NA,23.8,3,NA,NA,4,NA,NA,NA,128.5,1.3,2015_05
-76.784,45.054,OMPAH-SEITZ,6105762,ON,15.4,0,NA,30,0,-2.5,0,0,0,NA,76.2,0,NA,0,9,NA,NA,NA,105.4,24.3,2015_05
-75.717,45.383,OTTAWA CDA,6105976,ON,16.4,0,2.9,29.9,0,0.5,0,0,0,0,65,0,75,0,8,NA,NA,NA,84.3,33.3,2015_05
-75.717,45.383,OTTAWA CDA RCS,6105978,ON,15.8,0,NA,29.8,0,0.7,0,NA,NA,NA,60.7,1,NA,NA,7,NA,NA,NA,90.9,23.5,2015_05
-75.667,45.317,OTTAWA INTL A,6106001,ON,15.8,0,NA,30.7,0,-2.8,0,0,0,NA,62.2,0,NA,NA,9,NA,NA,NA,94.2,25.3,2015_05
-77.252,45.86,PEMBROKE CLIMATE,6106367,ON,14.2,0,NA,30.9,0,-4.3,0,NA,NA,NA,87.8,0,NA,NA,10,NA,NA,NA,131.2,14.7,2015_05
-77.317,45.95,PETAWAWA AWOS 2,6106396,ON,13.2,7,NA,29.3,7,-4.8,6,NA,NA,NA,73.5,7,NA,NA,6,NA,NA,NA,125.1,8.7,2015_05
-75.064,45.287,ST. ALBERT,6107276,ON,16,0,3.2,31,0,-1.5,0,0,0,0,86.2,0,95,0,8,NA,NA,NA,95.6,34.7,2015_05
-77.25,45.883,PETAWAWA HOFFMAN,610FC98,ON,15.7,0,NA,32.5,0,-2.5,0,0,0,NA,102.6,0,NA,0,11,NA,NA,NA,95.5,24.1,2015_05
-80.777,44.67,BALACLAVA,6110470,ON,NA,NA,NA,NA,NA,NA,NA,0,0,NA,59,0,NA,0,9,NA,NA,NA,NA,NA,2015_05
-79.319,44.267,BALDWIN,6110480,ON,15.5,0,NA,32,0,-2.5,0,0,0,NA,68.7,0,NA,0,10,NA,NA,NA,107.8,30.6,2015_05
-79.736,44.385,BARRIE LANDFILL,6110556,ON,14.1,17,NA,31.5,10,0,10,0,10,NA,50.4,10,NA,NA,7,NA,NA,NA,71,16.8,2015_05
-79.403,45.14,BEATRICE CLIMATE,6110607,ON,12.6,0,NA,29.5,0,-4.3,0,NA,NA,NA,73.7,0,NA,NA,8,NA,NA,NA,178.8,10.5,2015_05
-79.539,44.631,COLDWATER WARMINSTER,6111769,ON,15.4,0,NA,30,0,1,0,0,0,NA,46.6,0,NA,0,9,NA,NA,NA,112.5,31.3,2015_05
-80.217,44.5,COLLINGWOOD,6111792,ON,13.5,1,NA,29.4,1,1.2,0,NA,NA,NA,36.6,3,NA,NA,5,NA,NA,NA,156,19.8,2015_05
-79.217,44.547,LAGOON CITY,6114295,ON,14.2,0,NA,27.5,0,2.6,0,NA,NA,NA,NA,NA,NA,NA,NA,NA,NA,NA,126.9,10.3,2015_05
-80.712,44.269,MARKDALE,6114979,ON,14.5,2,NA,29.5,2,-3,2,0.4,2,NA,64.2,2,NA,0,12,NA,NA,NA,124.4,24,2015_05
-79.875,44.758,MIDLAND WATER POLLUTION CONTROL PLANT,6115127,ON,14.4,17,2.2,30,17,2,17,0,17,NA,24,17,NA,NA,6,NA,NA,NA,63,12.5,2015_05
-79.303,44.975,MUSKOKA,6115529,ON,13.3,1,NA,30,1,-3.5,1,NA,NA,NA,55.6,1,NA,NA,8,NA,NA,NA,158,17.2,2015_05
-79.521,46.1,NIPISSING,6115669,ON,NA,NA,NA,NA,NA,NA,NA,0,1,NA,84.4,1,NA,0,12,NA,NA,NA,NA,NA,2015_05
-79.439,44.603,ORILLIA BRAIN,6115811,ON,18.4,22,NA,29.5,22,8.5,22,0,22,NA,20.6,22,NA,0,5,NA,NA,NA,8.9,12.2,2015_05
-80.044,45.344,PARRY SOUND CCG,6116257,ON,12.9,0,NA,28,0,0.7,0,NA,NA,NA,15.8,17,NA,NA,3,NA,NA,NA,163.8,6.6,2015_05
-79.27,45.354,RAVENSCLIFFE,6116901,ON,14.2,0,NA,31,0,-4,0,0,0,NA,77.8,0,NA,0,10,NA,NA,NA,135.9,19.3,2015_05
-79.633,44.399,SHANTY BAY,6117684,ON,15.3,0,3.2,30.5,0,-1,0,0,0,0,38.3,0,48,0,10,NA,NA,NA,111.8,28.2,2015_05
-79.55,44.483,BARRIE-ORO,6117700,ON,14,0,NA,29.7,0,-2.4,0,NA,NA,NA,28.5,0,NA,NA,7,NA,NA,NA,140.6,16.7,2015_05
-79.488,45.425,SPRUCEDALE,6117981,ON,NA,NA,NA,NA,NA,NA,NA,0,2,NA,73.2,2,NA,0,10,NA,NA,NA,NA,NA,2015_05
-80.468,44.551,THORNBURY 3,6118240,ON,NA,NA,NA,NA,NA,NA,NA,0,0,NA,63.7,0,NA,0,12,NA,NA,NA,NA,NA,2015_05
-79.161,44.263,UDORA,6119055,ON,15.5,0,3.4,31,0,-1.5,0,0,0,NA,55.6,0,68,0,9,NA,NA,NA,105,28.8,2015_05
-81.109,44.744,WIARTON A,6119499,ON,12.5,0,NA,28,0,-0.5,0,0,0,NA,69.6,0,NA,NA,9,NA,NA,NA,176.8,7.7,2015_05
-80.367,45.033,WESTERN ISLAND (AUT),6119M51,ON,10.9,0,NA,25.1,0,2.5,0,NA,NA,NA,NA,NA,NA,NA,NA,NA,NA,NA,219.7,0.2,2015_05
-79.912,44.272,BORDEN AWOS,611B002,ON,14.6,4,NA,32.8,4,-4,4,NA,NA,NA,30,7,NA,NA,6,NA,NA,NA,121.3,29,2015_05
-79.783,44.233,EGBERT CS,611E001,ON,14.8,1,NA,30.8,1,-2.1,0,NA,NA,NA,30.6,2,NA,NA,8,NA,NA,NA,120.5,23.2,2015_05
-81.733,45.333,COVE ISLAND (AUT),61219J2,ON,9.2,0,NA,24.1,0,2.5,0,NA,NA,NA,NA,NA,NA,NA,NA,NA,NA,NA,272.6,0,2015_05
-81.717,43.767,GODERICH,6122847,ON,13.5,0,NA,28.3,0,-0.6,0,NA,NA,NA,51,0,NA,NA,10,NA,NA,NA,157,17.4,2015_05
-81.623,44.173,KINCARDINE,6124127,ON,13.8,5,NA,28,5,-0.5,5,0,5,NA,30,5,NA,0,6,NA,NA,NA,126.1,17.4,2015_05
-82.309,42.999,SARNIA,6127510,ON,14.6,1,NA,30,1,-0.4,0,NA,NA,NA,84.8,0,NA,NA,8,NA,NA,NA,130.3,27.5,2015_05
-82.3,43,SARNIA CLIMATE,6127519,ON,14.8,0,NA,30.4,0,-0.5,0,NA,NA,NA,76.7,1,NA,NA,7,NA,NA,NA,126.8,27.9,2015_05
-81.633,45.233,TOBERMORY RCS,6128330,ON,10.4,1,NA,24.1,1,0.5,0,NA,NA,NA,76,1,NA,NA,10,NA,NA,NA,228.1,0,2015_05
-81.152,43.863,WROXETER,6129660,ON,NA,NA,NA,NA,NA,NA,NA,0,0,NA,50.4,0,NA,0,11,NA,NA,NA,NA,NA,2015_05
-83.094,42.103,AMHERSTBURG,6130257,ON,18.2,10,3.3,30.5,10,1,10,0,10,NA,137.2,10,NA,0,10,NA,NA,NA,39.1,43.9,2015_05
-82.215,42.39,CHATHAM WPCP,6131415,ON,16.5,11,1.9,29,11,1,11,0,11,NA,32.7,11,NA,NA,9,NA,NA,NA,57,26.5,2015_05
-80.55,42.867,DELHI CS,6131983,ON,15.4,0,NA,30.6,0,-4,0,NA,NA,NA,63,3,NA,NA,5,NA,NA,NA,116.5,34.7,2015_05
-78.967,42.883,FORT ERIE,6132470,ON,15.2,5,2.5,32,5,-1,5,0,5,NA,104.8,5,NA,0,9,NA,NA,NA,102.9,30.8,2015_05
-79.558,43.184,GRIMSBY MOUNTAIN,6133055,ON,16.6,0,NA,32.6,0,1,0,0,0,NA,71.7,0,NA,0,4,NA,NA,NA,86.6,42.2,2015_05
