Long,Lat,Stn_Name,Clim_ID,Prov_or_Ter,Tm,DwTm,D,Tx,DwTx,Tn,DwTn,S,DwS,S%N,P,DwP,P%N,S_G,Pd,BS,DwBS,BS%,HDD,CDD,YYYY_MM
-123.742,48.935,CHEMAINUS,1011500,BC,20.2,0,NA,36,0,11,0,0,0,NA,5.7,0,NA,0,2,NA,NA,NA,10,78.6,2021_08
-124.052,48.829,LAKE COWICHAN,1012055,BC,16.2,20,-1.9,39,13,5,14,0,30,NA,5.8,27,NA,NA,3,NA,NA,NA,24.4,4.6,2021_08
-123.226,48.425,DISCOVERY ISLAND,1012475,BC,15.9,0,NA,28.3,0,9.8,0,NA,NA,NA,NA,NA,NA,NA,NA,NA,NA,NA,73.4,8.5,2021_08
-123.439,48.432,ESQUIMALT HARBOUR,1012710,BC,16.8,0,NA,27.4,0,10,0,NA,NA,NA,5.2,0,NA,NA,1,NA,NA,NA,52.9,14.3,2021_08
-123.53,48.575,MALAHAT,1014820,BC,19.5,0,NA,37,0,9.8,0,NA,NA,NA,5.8,0,NA,NA,2,NA,NA,NA,29,75.9,2021_08
-123.561,48.374,METCHOSIN,1015105,BC,NA,NA,NA,NA,NA,NA,NA,0,22,NA,8.2,22,NA,NA,1,NA,NA,NA,NA,NA,2021_08
-123.718,48.824,NORTH COWICHAN,1015628,BC,NA,NA,NA,NA,NA,NA,NA,0,0,NA,4,0,13,0,1,NA,NA,NA,NA,NA,2021_08
-123.719,48.824,NORTH COWICHAN,1015630,BC,18.8,9,NA,33.1,9,7.1,9,NA,NA,NA,1.1,9,NA,NA,0,NA,NA,NA,16.5,34.3,2021_08
-123.287,48.764,NORTH PENDER ISLAND,1015638,BC,19.3,4,NA,36,4,1,4,0,4,NA,10.6,4,NA,0,2,NA,NA,NA,18,54,2021_08
-124.326,48.592,PORT RENFREW,1016335,BC,15.8,2,0.3,35,2,7.5,2,0,2,NA,35.8,2,NA,0,7,NA,NA,NA,75.3,12.1,2021_08
-123.531,48.298,RACE ROCKS,1016640,BC,15,0,NA,30.2,0,9.4,0,NA,NA,NA,NA,NA,NA,NA,NA,NA,NA,NA,101.9,8.8,2021_08
-123.419,48.622,SAANICHTON CDA,1016940,BC,18.4,8,1.3,34,5,10,5,0,5,NA,6.4,5,NA,0,2,NA,NA,NA,14.1,23.8,2021_08
-123.419,48.622,SAANICHTON CFIA,1016943,BC,17.3,1,NA,32.7,1,9,1,NA,NA,NA,4.6,1,NA,NA,1,NA,NA,NA,39.5,17.7,2021_08
-123.427,48.598,SAANICHTON MT NEWTON,1016RM0,BC,NA,NA,NA,NA,NA,NA,NA,0,0,NA,5.6,0,21,0,2,NA,NA,NA,NA,NA,2021_08
-123.128,48.775,SATURNA CAPMON CS,1017099,BC,18.2,0,NA,32.5,0,10.3,0,NA,NA,NA,16.4,0,NA,NA,4,NA,NA,NA,37.3,42,2021_08
-123.045,48.784,SATURNA ISLAND CS,1017101,BC,17.9,0,NA,27.3,0,11.8,0,NA,NA,NA,18,0,NA,NA,4,NA,NA,NA,29.1,26.3,2021_08
-123.626,48.647,SHAWNIGAN LAKE,1017230,BC,19.5,0,1.6,37.5,0,9,0,0,0,NA,4.2,0,15,0,2,NA,NA,NA,17.7,63.1,2021_08
-123.921,48.377,SHERINGHAM POINT,1017254,BC,14.1,0,NA,30.9,0,8.4,0,NA,NA,NA,9.8,0,NA,NA,1,NA,NA,NA,125.1,4.7,2021_08
-123.305,48.457,VICTORIA UNIVERSITY CS,1018598,BC,18,0,NA,34.2,0,8.7,0,NA,NA,NA,4.7,0,NA,NA,2,NA,NA,NA,31.9,31,2021_08
-123.325,48.413,VICTORIA GONZALES CS,1018611,BC,16.8,0,NA,29.8,0,9.6,0,NA,NA,NA,6.8,0,NA,NA,2,NA,NA,NA,54.4,17.8,2021_08
-123.426,48.647,VICTORIA INTL A,1018621,BC,17.9,2,NA,35.5,2,9.2,2,0,0,NA,7,0,NA,NA,2,NA,NA,NA,29,24.9,2021_08
-123.388,48.423,VICTORIA HARBOUR A,1018633,BC,16.5,0,NA,26.4,0,10.4,0,NA,NA,NA,NA,NA,NA,NA,NA,NA,NA,NA,55.6,8.8,2021_08
-124.16,49.35,BALLENAS ISLAND,1020590,BC,19.3,0,NA,28.6,0,13.7,0,NA,NA,NA,6.6,0,NA,NA,2,NA,NA,NA,9.1,50.2,2021_08
-125.273,49.952,CAMPBELL RIVER A,1021261,BC,18.3,0,1.1,37.5,0,4,0,0,0,NA,18.9,0,42,0,4,NA,NA,NA,45.2,54.2,2021_08
-125.273,49.952,CAMPBELL RIVER A,1021270,BC,18.3,0,NA,37.4,0,4.1,0,NA,NA,NA,NA,NA,NA,NA,NA,NA,NA,NA,44.9,52.8,2021_08
-125.446,50.333,CHATHAM POINT,1021480,BC,17.1,1,1.1,31,1,10.5,1,0,1,NA,25.2,1,NA,0,4,NA,NA,NA,48.5,21.5,2021_08
-124.9,49.717,COMOX A,1021830,BC,19.1,0,1.3,35.4,0,9.4,0,0,0,NA,15.4,0,53,NA,2,NA,NA,NA,19.8,55.3,2021_08
-125.033,49.686,COURTENAY PUNTLEDGE,1021989,BC,19.1,18,NA,37.5,12,6,13,0,12,NA,26.6,12,NA,0,1,NA,NA,NA,9.5,24.1,2021_08
-123.811,49.209,ENTRANCE ISLAND,1022689,BC,19.3,0,NA,27.6,0,13.9,0,NA,NA,NA,4,0,NA,NA,1,NA,NA,NA,9.4,49.8,2021_08
-125.993,50.454,FANNY ISLAND,1022795,BC,14.3,0,NA,22.6,0,9.7,0,NA,NA,NA,23.8,0,NA,NA,6,NA,NA,NA,115.7,0,2021_08
-125.203,50.099,HERIOT BAY SE,1023462,BC,18.8,0,NA,33,0,9.5,0,0,0,NA,30.4,0,NA,0,5,NA,NA,NA,27.1,52,2021_08
-124.512,49.353,LITTLE QUALICUM HATCHERY,1024638,BC,17.9,14,1.5,34.5,14,6,14,0,14,NA,11.8,14,NA,0,2,NA,NA,NA,22,20.4,2021_08
-123.87,49.054,NANAIMO A,1025365,BC,19.5,0,NA,37,0,8.6,0,NA,NA,NA,NA,NA,NA,NA,NA,NA,NA,NA,17.9,65,2021_08
-123.87,49.054,NANAIMO A,1025369,BC,19.6,0,NA,37,0,8.5,0,0,0,NA,4.8,0,NA,0,1,NA,NA,NA,17.2,66.3,2021_08
-123.988,49.199,NANAIMO CITY YARD,10253G0,BC,NA,NA,NA,NA,NA,NA,NA,0,0,NA,5.8,0,20,0,2,NA,NA,NA,NA,NA,2021_08
-127.367,50.681,PORT HARDY A,1026271,BC,14.9,0,NA,28.4,0,6.5,0,0,0,NA,27.9,0,NA,NA,8,NA,NA,NA,98.6,3.2,2021_08
-124.394,49.337,QUALICUM BEACH AIRPORT,1026562,BC,18.9,1,NA,34.2,1,8.2,1,NA,NA,NA,5.3,1,NA,NA,3,NA,NA,NA,22.3,50.1,2021_08
-124.617,49.394,QUALICUM R FISH RESEARCH,1026565,BC,18.1,19,1.3,33,6,8,19,0,6,NA,6.9,6,NA,0,2,NA,NA,NA,16.3,17.3,2021_08
-125.304,50.016,QUINSAM RIVER HATCHERY,1026639,BC,18.8,1,1.5,37.5,1,5,1,0,1,NA,31,1,NA,0,5,NA,NA,NA,31.7,56.4,2021_08
-124.435,49.487,SISTERS ISLAND,1027403,BC,19.3,0,NA,28.9,0,13.5,0,NA,NA,NA,NA,NA,NA,NA,NA,NA,NA,NA,9.8,49.5,2021_08
-123.809,49.209,ENTRANCE ISLAND,102BFHH,BC,19.5,0,NA,28,0,14,0,0,0,NA,8.4,0,NA,0,3,NA,NA,NA,8.5,56,2021_08
-124.982,49.337,ALBERNI ROBERTSON CREEK,1030230,BC,NA,NA,NA,NA,NA,6.5,2,0,2,NA,12.9,2,NA,NA,2,NA,NA,NA,NA,NA,2021_08
-125.216,48.786,CAPE BEALE LIGHT,1031316,BC,14.9,0,0.9,32,0,10,0,0,0,NA,43.6,0,59,0,5,NA,NA,NA,102.9,7,2021_08
-126.543,49.383,ESTEVAN POINT,1032730,BC,15.1,13,0.3,24.5,13,9,13,0,13,NA,20.8,13,NA,0,3,NA,NA,NA,54.5,1.8,2021_08
-126.543,49.383,ESTEVAN POINT CS,1032731,BC,13.5,14,NA,18.6,14,8.6,14,NA,NA,NA,16,14,NA,NA,4,NA,NA,NA,76.3,0,2021_08
-125.923,49.111,LENNARD ISLAND,1034600,BC,14.9,2,NA,22,2,9.5,2,0,2,NA,28.7,2,NA,0,3,NA,NA,NA,90.6,1,2021_08
-124.655,48.859,NITINAT RIVER HATCHERY,1035612,BC,17.3,0,0.7,40,0,7,0,0,0,NA,29.8,0,33,0,6,NA,NA,NA,46.6,25.6,2021_08
-126.617,49.6,NOOTKA LIGHTSTATION,1035614,BC,16.3,0,0,32.5,0,8,0,0,0,NA,32.6,0,33,0,7,NA,NA,NA,68.6,15,2021_08
-127.653,50.534,QUATSINO,1036570,BC,15.6,4,-0.2,26.5,4,8,4,0,4,NA,31,4,NA,0,10,NA,NA,NA,72.6,7.3,2021_08
-128.033,50.441,QUATSINO LIGHTSTATION,1036572,BC,15.9,0,0.3,28,0,8,0,0,0,NA,38,0,34,0,9,NA,NA,NA,74.1,9.4,2021_08
-124.927,49.317,PORT ALBERNI (AUT),1036B06,BC,19.8,1,NA,39.8,1,5.8,1,NA,NA,NA,13.8,1,NA,NA,3,NA,NA,NA,14.1,67.8,2021_08
-128.908,50.821,SARTINE ISLAND (AUT),1037090,BC,14,2,NA,20.9,2,10.2,2,NA,NA,NA,53.8,2,NA,NA,9,NA,NA,NA,115.4,0,2021_08
-127.94,50.112,SOLANDER ISLAND (AUT),1037553,BC,13.8,6,NA,25.3,6,9.1,6,NA,NA,NA,24.6,6,NA,NA,7,NA,NA,NA,107.4,1.2,2021_08
-126.654,49.932,TAHSIS VILLAGE NORTH,1037899,BC,19.1,11,NA,34,11,7.5,11,NA,NA,NA,13.4,29,NA,NA,2,NA,NA,NA,19.7,41.1,2021_08
-125.773,49.082,TOFINO A,1038205,BC,15.5,0,0.5,32,0,7,0,0,0,NA,36.6,0,42,0,4,NA,NA,NA,84.5,5.6,2021_08
-125.773,49.082,TOFINO A,1038210,BC,15.4,0,NA,32,0,6.9,0,NA,NA,NA,NA,NA,NA,NA,NA,NA,NA,NA,86.8,5.3,2021_08
-125.527,48.945,UCLUELET KENNEDY CAMP,1038332,BC,16,0,1,32,0,6.5,0,0,0,NA,42.8,0,49,0,5,NA,NA,NA,70.5,8.9,2021_08
-126.779,50.053,ZEBALLOS MURAUDE CREEK,1039035,BC,18.2,2,NA,37.5,2,8,2,0,2,NA,27,2,NA,0,7,NA,NA,NA,35.6,41,2021_08
-123.402,49.36,BOWEN ISLAND SUNSET PARK,104091B,BC,NA,NA,NA,NA,NA,NA,NA,0,26,NA,47.6,26,NA,NA,5,NA,NA,NA,NA,NA,2021_08
-123.541,49.386,GIBSONS GOWER POINT,1043152,BC,18.9,0,1.1,31,0,12,0,0,0,NA,37,0,91,0,6,NA,NA,NA,17.4,46,2021_08
-123.913,49.468,MERRY ISLAND LIGHTSTATION,1045100,BC,19.9,0,1.7,32,0,13,0,0,0,NA,33.6,0,94,0,3,NA,NA,NA,6.1,65.2,2021_08
-123.299,49.488,HOWE SOUND - PAM ROCKS,10459NN,BC,19.7,0,NA,32.6,0,14.1,0,NA,NA,NA,34.2,0,NA,NA,5,NA,NA,NA,9,60.4,2021_08
-124.032,49.634,PENDER HARBOUR,1046115,BC,NA,NA,NA,NA,NA,NA,NA,0,0,NA,20.1,0,NA,0,3,NA,NA,NA,NA,NA,2021_08
-123.496,49.526,PORT MELLON,1046332,BC,19,1,NA,35.1,1,10,1,NA,NA,NA,87.5,1,NA,NA,7,NA,NA,NA,24.1,52.8,2021_08
-124.5,49.834,POWELL RIVER A,1046391,BC,18.2,0,1,34.5,0,7,0,0,0,NA,20.1,0,44,0,3,NA,NA,NA,32.5,38.8,2021_08
-124.497,49.835,POWELL RIVER,1046392,BC,18.2,0,NA,34.3,0,7.5,0,NA,NA,NA,20,0,NA,NA,3,NA,NA,NA,33.6,39.9,2021_08
-124.5,49.834,POWELL RIVER A,1046396,BC,18.2,0,NA,34.4,0,7,0,NA,NA,NA,NA,NA,NA,NA,NA,NA,NA,NA,33.5,38.4,2021_08
-123.715,49.458,SECHELT AUT,1047172,BC,19,0,NA,35.4,0,10.4,0,NA,NA,NA,27.6,0,NA,NA,4,NA,NA,NA,20.6,52.1,2021_08
-123.161,49.783,SQUAMISH AIRPORT,10476F0,BC,19.9,0,NA,40.2,0,8.6,0,NA,NA,NA,16.5,0,NA,NA,5,NA,NA,NA,12.2,71.4,2021_08
-122.955,50.129,WHISTLER,1048898,BC,18.1,0,1.7,37,0,6,0,0,0,NA,56.3,0,119,0,8,NA,NA,NA,52.5,56,2021_08
-132.772,53.316,KINDAKUN ROCKS (AUT),1054222,BC,14.5,0,NA,20.4,0,10.7,0,NA,NA,NA,46.6,0,NA,NA,5,NA,NA,NA,109.7,0,2021_08
-133.058,54.255,LANGARA,1054500,BC,14.2,0,0.6,19.5,0,8.5,0,0,0,NA,131,0,98,0,14,NA,NA,NA,117,0,2021_08
-133.058,54.255,LANGARA ISLAND RCS,1054503,BC,13.9,1,NA,18.6,1,9,1,NA,NA,NA,NA,NA,NA,NA,NA,NA,NA,NA,122.6,0,2021_08
-132.125,54.027,MASSET A,1054929,BC,14.6,2,NA,22.9,2,5.8,2,NA,NA,NA,NA,NA,NA,NA,NA,NA,NA,NA,97.8,0,2021_08
-131.661,54.159,ROSE SPIT (AUT),1056869,BC,14.5,0,NA,19.5,0,5.6,0,NA,NA,NA,NA,NA,NA,NA,NA,NA,NA,NA,108,0,2021_08
-131.813,53.249,SANDSPIT AIRPORT AUTO,1057051,BC,15.8,0,NA,22.2,0,9.8,0,NA,NA,NA,NA,NA,NA,NA,NA,NA,NA,NA,68.1,0.5,2021_08
-131.814,53.254,SANDSPIT,1057052,BC,16,0,NA,22.7,0,10.6,0,NA,NA,NA,32.5,0,NA,NA,9,NA,NA,NA,61.6,0.8,2021_08
-127.864,51.604,ADDENBROKE ISLAND,1060080,BC,16,0,0.7,28.5,0,8,0,0,0,NA,129.6,0,94,0,12,NA,NA,NA,74.3,10.9,2021_08
-128.157,52.185,BELLA BELLA,1060815,BC,15.2,1,NA,30.5,1,6,1,NA,NA,NA,166.5,3,NA,NA,14,NA,NA,NA,91.8,8,2021_08
-126.587,52.389,BELLA COOLA AIRPORT,1060844,BC,18,0,NA,36.4,0,6.8,0,NA,NA,NA,46,0,NA,NA,7,NA,NA,NA,33.4,33.1,2021_08
-126.596,52.388,BELLA COOLA A,1060848,BC,17.9,3,NA,35.6,3,7,3,NA,NA,NA,NA,NA,NA,NA,NA,NA,NA,NA,31.5,28.5,2021_08
-128.524,52.643,BOAT BLUFF,1060901,BC,15.8,0,0.7,31.5,0,9,0,0,0,NA,222.5,0,96,0,15,NA,NA,NA,80.7,11.8,2021_08
-130.638,53.493,BONILLA ISLAND,1060902,BC,14.3,0,0.3,22,0,9,0,0,0,NA,150,0,133,0,17,NA,NA,NA,113.2,0,2021_08
-130.639,53.493,BONILLA ISLAND (AUT),1060R0K,BC,13.6,21,NA,18.9,21,10,21,NA,NA,NA,35,21,NA,NA,4,NA,NA,NA,43.7,0,2021_08
-127.471,52.187,CATHEDRAL POINT (AUT),1061458,BC,16.9,1,NA,32.1,1,9.4,1,NA,NA,NA,132.4,1,NA,NA,11,NA,NA,NA,53.5,19.1,2021_08
-131.602,53.03,CUMSHEWA ISLAND,1062251,BC,15.5,0,NA,22.8,0,11.6,0,NA,NA,NA,0,0,NA,NA,0,NA,NA,NA,77.9,1.5,2021_08
-128.112,52.185,DRYAD POINT,1062544,BC,16.3,0,0.5,33,0,10,0,0,0,NA,138.4,0,95,0,14,NA,NA,NA,65.9,13.4,2021_08
-127.835,51.247,EGG ISLAND,1062646,BC,14.2,10,0.3,20.5,10,9,10,0,10,NA,42,10,NA,0,9,NA,NA,NA,79.5,0,2021_08
-130.708,54.569,GREEN ISLAND,1063298,BC,14.7,0,-0.1,22,0,9,0,0,0,NA,231.6,0,139,0,16,NA,NA,NA,103.3,0,2021_08
-130.698,54.58,GREY ISLET (AUT),1063303,BC,14.6,0,NA,21.1,0,10.3,0,NA,NA,NA,175.4,0,NA,NA,15,NA,NA,NA,104.2,0,2021_08
-127.632,50.94,HERBERT ISLAND (AUT),1063461,BC,13.5,1,NA,23.8,1,9.2,1,NA,NA,NA,81.8,1,NA,NA,10,NA,NA,NA,135.1,0.1,2021_08
-130.361,54.172,HOLLAND ROCK,1063496,BC,13.7,0,NA,18.8,0,8.4,0,NA,NA,NA,99.2,0,NA,NA,14,NA,NA,NA,132.3,0,2021_08
-128.407,52.27,IVORY ISLAND,1063690,BC,15.7,0,0.8,28,0,9.5,0,0,0,NA,152.6,0,93,0,13,NA,NA,NA,80.5,8.3,2021_08
-127.943,53.563,KEMANO,1064020,BC,17.3,2,0.9,33,1,8,1,0,1,NA,41.8,1,NA,0,11,NA,NA,NA,38.5,19.4,2021_08
-128.634,54.054,KITIMAT TOWNSITE,1064320,BC,17.5,23,1,27,23,8,23,0,23,NA,59,23,NA,0,3,NA,NA,NA,8,4,2021_08
-128.705,54.01,KITIMAT 2,1064321,BC,17.9,20,0.8,33,20,5.5,20,0,20,NA,43.5,20,NA,0,3,NA,NA,NA,12.4,11.3,2021_08
-128.634,54.054,KITIMAT FOREST AVE,1064324,BC,16.7,0,NA,32.1,0,6.7,0,NA,NA,NA,63.3,0,NA,NA,8,NA,NA,NA,57.1,17.8,2021_08
-130.609,54.296,LUCY ISLAND LIGHTSTATION,1064728,BC,14.3,0,NA,20.5,0,9.7,0,NA,NA,NA,NA,NA,NA,NA,NA,NA,NA,NA,115.7,0,2021_08
-128.719,52.262,MCINNES ISLAND,1065010,BC,15.3,0,0.6,24,0,10.5,0,0,0,NA,127.6,0,96,0,8,NA,NA,NA,84.8,1.8,2021_08
-130.445,54.286,PRINCE RUPERT,1066482,BC,14.3,0,NA,24.2,0,7.8,0,NA,NA,NA,208.8,0,NA,NA,15,NA,NA,NA,114.7,0.2,2021_08
-130.29,54.32,PRINCE RUPERT MONT CIRC,1066488,BC,NA,NA,NA,NA,NA,NA,NA,0,11,NA,226.2,11,NA,0,14,NA,NA,NA,NA,NA,2021_08
-129.983,55.933,STEWART A,1067748,BC,14.7,2,NA,24.5,2,7.3,2,NA,NA,NA,NA,NA,NA,NA,NA,NA,NA,NA,95.1,0.7,2021_08
-128.625,54.502,TERRACE PCC,1068131,BC,18.5,10,1.7,33,10,8.5,10,0,10,NA,24.7,10,NA,NA,7,NA,NA,NA,17,27.6,2021_08
-128.578,54.469,TERRACE A,1068134,BC,16.6,0,NA,31.1,0,6.8,0,0,0,NA,82.7,0,NA,NA,12,NA,NA,NA,61.7,18,2021_08
-130.88,54.295,TRIPLE ISLAND,1068250,BC,14.6,0,NA,19,0,10,0,0,0,NA,116.6,0,NA,0,13,NA,NA,NA,106.2,0,2021_08
-128.682,54.044,KITIMAT HATCHERY,106D289,BC,16.3,22,NA,24,22,9.5,22,0,22,NA,66.8,22,NA,NA,6,NA,NA,NA,15.4,0.5,2021_08
-126.668,54.396,HOUSTON,1073615,BC,16.3,9,NA,35,9,2,9,0,12,NA,29.4,12,NA,0,7,NA,NA,NA,56,19.3,2021_08
-127.183,54.825,SMITHERS,1077499,BC,15.5,0,NA,32,0,2.6,0,NA,NA,NA,31.3,0,NA,NA,9,NA,NA,NA,91.8,14.5,2021_08
-127.189,54.824,SMITHERS AIRPORT AUTO,1077501,BC,15.8,0,NA,31.8,0,4,0,NA,NA,NA,28.1,0,NA,NA,9,NA,NA,NA,85.9,16.3,2021_08
-127.171,55.289,SUSKWA VALLEY,107G879,BC,15.5,0,1.6,32,0,0.5,0,0,0,NA,53.6,0,89,0,14,NA,NA,NA,90.5,12.7,2021_08
-125.997,53.772,OOTSA LAKESKINS LAKE CLIMATE,1085836,BC,15.5,2,NA,30.3,2,4.5,2,NA,NA,NA,25.6,2,NA,NA,5,NA,NA,NA,85,12.1,2021_08
-122.738,50.302,PEMBERTON AIRPORT (WIND),1086081,BC,20.3,0,NA,38.3,0,7.4,0,NA,NA,NA,NA,NA,NA,NA,NA,NA,NA,NA,15.9,85.8,2021_08
-122.734,50.306,PEMBERTON AIRPORT CS,1086082,BC,20.3,0,NA,38.7,0,7.5,0,NA,NA,NA,37.5,0,NA,NA,6,NA,NA,NA,14.7,85,2021_08
-124.136,52.114,PUNTZI MOUNTAIN (AUT),1086558,BC,15.4,0,NA,36,0,-1.2,0,NA,NA,NA,20.2,0,NA,NA,6,NA,NA,NA,104.4,24.9,2021_08
-124.403,51.675,TATLAYOKO LAKE RCS,1088015,BC,15.5,0,NA,34.7,0,-1.3,0,NA,NA,NA,32.3,0,NA,NA,7,NA,NA,NA,101.6,24.5,2021_08
-121.515,53.069,BARKERVILLE,1090660,BC,12.8,2,0.6,30,2,0,2,0,2,NA,62.3,2,NA,0,12,NA,NA,NA,155.1,3.1,2021_08
-125.959,54.383,BURNS LAKE DECKER LAKE,1091174,BC,13.5,1,NA,31.8,1,-2.2,1,NA,NA,NA,36.7,1,NA,NA,8,NA,NA,NA,139.8,4.2,2021_08
-124.286,54.455,FORT ST JAMES AUTO,1092975,BC,16.6,2,NA,31.7,2,4.6,2,NA,NA,NA,19.6,2,NA,NA,6,NA,NA,NA,63.5,23.2,2021_08
-122.286,52.531,MCLEESE LAKE GRANITE MT,1095018,BC,14.3,15,NA,33.5,10,1.5,11,0,10,NA,36.2,10,NA,0,6,NA,NA,NA,67.7,8.6,2021_08
-122.678,53.884,PRINCE GEORGE,1096439,BC,15.6,0,NA,33.2,0,1.1,0,NA,NA,NA,24.2,0,NA,NA,6,NA,NA,NA,93.3,18,2021_08
-122.672,53.889,PRINCE GEORGE AIRPORT AUTO,1096453,BC,15.7,0,NA,33.1,0,1.1,0,NA,NA,NA,20.1,0,NA,NA,6,NA,NA,NA,89.4,19.6,2021_08
-122.791,53.9,PRINCE GEORGE MASSEY AUTO,1096454,BC,17.8,0,NA,33.9,0,5.9,0,NA,NA,NA,17,0,NA,NA,5,NA,NA,NA,49.2,41.9,2021_08
-122.768,53.88,PRINCE GEORGE STP,1096468,BC,17.4,0,1.5,34,0,5,0,0,0,NA,26.6,0,58,0,6,NA,NA,NA,54.9,36.7,2021_08
-122.51,53.026,QUESNEL,1096629,BC,16.7,0,NA,36.6,0,3.1,0,NA,NA,NA,40.8,1,NA,NA,7,NA,NA,NA,64.2,24.7,2021_08
-122.506,53.027,QUESNEL AIRPORT AUTO,1096631,BC,16.6,0,NA,36.8,0,3,0,NA,NA,NA,65.6,0,NA,NA,7,NA,NA,NA,68,24.4,2021_08
-121.686,52.184,SPOKIN LAKE 4E,1097646,BC,12.3,0,-0.5,33,0,-3,0,0,0,NA,46.2,0,88,0,9,NA,NA,NA,177.7,0,2021_08
-122.054,52.183,WILLIAMS LAKE A,1098941,BC,15.6,10,NA,31.3,10,4.5,10,0,9,NA,32.9,8,NA,NA,6,NA,NA,NA,66.2,15.8,2021_08
-124.017,54.033,VANDERHOOF,1098D90,BC,16.1,5,0.2,32,5,2.5,5,0,5,NA,29.2,5,NA,0,6,NA,NA,NA,67.4,17.9,2021_08
-122.36,49.025,ABBOTSFORD A,1100031,BC,19.2,0,NA,39.4,0,8.6,0,0,0,NA,22.4,0,NA,NA,6,NA,NA,NA,21.4,59.5,2021_08
-122.36,49.025,ABBOTSFORD A,1100032,BC,19.2,0,NA,39.4,0,8.6,0,NA,NA,NA,NA,NA,NA,NA,NA,NA,NA,NA,21.4,59.5,2021_08
-121.76,49.243,AGASSIZ RCS,1100119,BC,19.8,0,1,38.2,0,9.3,0,NA,NA,NA,36.2,0,NA,NA,8,NA,NA,NA,16.2,73.5,2021_08
-121.76,49.243,AGASSIZ CDA,1100120,BC,NA,NA,NA,NA,NA,10,0,0,0,NA,42.1,0,72,0,10,NA,NA,NA,NA,NA,2021_08
-122.955,50.129,WHISTLER - NESTERS,1100875,BC,17.8,0,NA,36.8,0,6.1,0,NA,NA,NA,52.1,0,NA,NA,8,NA,NA,NA,57.6,51.4,2021_08
-122.918,49.278,BURNABY SIMON FRASER U,1101158,BC,19.1,8,1.9,33.5,8,9,8,0,8,NA,64.9,8,NA,0,5,NA,NA,NA,23.7,48.3,2021_08
-123.111,50.144,CALLAGHAN VALLEY,1101300,BC,16.5,2,NA,35,2,5.3,2,NA,NA,NA,32.7,3,NA,NA,8,NA,NA,NA,85.1,41,2021_08
-122.698,49.109,CLOVERDALE EAST,1101708,BC,19.8,0,NA,37,0,10.5,0,0,0,NA,36,0,NA,0,6,NA,NA,NA,15.5,70.5,2021_08
-121.979,49.079,CULTUS LAKE,1102221,BC,20,0,NA,38.2,0,9.2,0,NA,NA,NA,29,0,NA,NA,7,NA,NA,NA,16.5,79.2,2021_08
-123.002,49.126,DELTA BURNS BOG,1102415,BC,18.4,0,NA,34.5,0,6.2,0,NA,NA,NA,36.4,0,NA,NA,5,NA,NA,NA,28.7,40.5,2021_08
-123.093,49.011,DELTA TSAWWASSEN BEACH,1102425,BC,18.4,1,0.5,30,1,9,1,0,1,NA,36.8,1,NA,0,6,NA,NA,NA,22.9,35.4,2021_08
-122.551,49.145,FORT LANGLEY TELEGRAPH TRAIL,1102912,BC,19.8,0,NA,38.5,0,9.5,0,0,0,NA,38.8,0,NA,0,8,NA,NA,NA,16.3,71.6,2021_08
-122.573,49.264,HANEY UBC RF ADMIN,1103332,BC,18.8,4,1,33,4,10,4,0,4,NA,65.4,4,NA,0,7,NA,NA,NA,27.3,49.2,2021_08
-122.271,49.153,MISSION WEST ABBEY,1105192,BC,19.6,0,1.3,37.5,0,9.5,0,0,0,NA,30.2,0,48,0,5,NA,NA,NA,27.6,76.1,2021_08
-123.078,49.381,N VANC GROUSE MTN RESORT,1105658,BC,12.8,15,-1.3,32,15,1.5,15,0,15,NA,72,15,NA,NA,7,NA,NA,NA,92.2,8.5,2021_08
-123.115,49.315,N VANCOUVER WHARVES,1105669,BC,NA,NA,NA,NA,NA,NA,NA,0,7,NA,40,7,NA,0,5,NA,NA,NA,NA,NA,2021_08
-122.69,49.208,PITT MEADOWS CS,1106178,BC,19.9,0,NA,36.6,0,10,0,NA,NA,NA,63.1,0,NA,NA,6,NA,NA,NA,15.5,73.7,2021_08
-123.265,49.33,POINT ATKINSON,1106200,BC,19,0,NA,30.1,0,12,0,NA,NA,NA,NA,NA,NA,NA,NA,NA,NA,NA,17.2,48.5,2021_08
-123.087,49.179,RICHMOND DALLYN 2,1106764,BC,NA,NA,NA,NA,NA,NA,NA,0,0,NA,39.2,0,NA,0,6,NA,NA,NA,NA,NA,2021_08
-122.881,49.279,PORT MOODY GLENAYRE,1106CL2,BC,19,1,0.9,33,1,10,1,0,1,NA,40.4,1,NA,0,7,NA,NA,NA,31.3,60,2021_08
-123.093,49.171,RICHMOND NATURE PARK,1106PF7,BC,19.4,6,1.1,34,6,8,6,0,6,NA,34,6,NA,0,4,NA,NA,NA,11.1,45.3,2021_08
-123.303,49.106,SANDHEADS CS,1107010,BC,18.9,0,NA,28.3,0,13,0,NA,NA,NA,NA,NA,NA,NA,NA,NA,NA,NA,13.2,41.3,2021_08
-122.11,49.113,SUMAS CANAL,1107785,BC,20.6,19,NA,37,13,11,14,0,13,NA,36,13,NA,0,8,NA,NA,NA,6,37.5,2021_08
-123.187,49.183,VANCOUVER SEA ISLAND CCG,1108380,BC,19.1,0,NA,29.9,0,11,0,NA,NA,NA,34.5,0,NA,NA,5,NA,NA,NA,14.9,48.9,2021_08
-123.184,49.195,VANCOUVER INTL A,1108395,BC,18.9,0,NA,28.9,0,9.4,0,0,0,NA,36.7,0,NA,NA,5,NA,NA,NA,17.2,43.9,2021_08
-123.122,49.295,VANCOUVER HARBOUR CS,1108446,BC,19.8,0,NA,32.2,0,12,0,NA,NA,NA,41.9,0,NA,NA,5,NA,NA,NA,11.2,67.9,2021_08
-123.193,49.347,WEST VANCOUVER AUT,1108824,BC,19.6,0,NA,35.5,0,10.1,0,NA,NA,NA,51.5,0,NA,NA,5,NA,NA,NA,22.1,70.2,2021_08
-122.947,50.068,WHISTLER ROUNDHOUSE,1108906,BC,12.4,0,NA,27,0,0.5,0,0,0,NA,64.9,0,NA,0,9,NA,NA,NA,188.1,14.2,2021_08
-122.784,49.018,WHITE ROCK CAMPBELL SCIENTIFIC,1108910,BC,18.6,0,NA,37,0,10,0,NA,NA,NA,39.2,0,NA,NA,7,NA,NA,NA,21.8,39.2,2021_08
-121.498,49.368,HOPE A,1113542,BC,20.2,0,NA,37.9,0,10.7,0,NA,NA,NA,35.5,1,NA,NA,8,NA,NA,NA,12.8,81.9,2021_08
-121.493,49.37,HOPE AIRPORT,1113543,BC,20.3,2,NA,37.9,2,10.7,2,NA,NA,NA,1.7,27,NA,NA,1,NA,NA,NA,13.1,78.5,2021_08
-121.233,49.267,HOPE SLIDE,1113581,BC,16.5,0,1.3,34,0,5,0,0,0,NA,60.8,0,147,0,9,NA,NA,NA,81,35.5,2021_08
-121.934,50.684,LILLOOET,1114619,BC,23,6,NA,39.1,6,8.9,6,NA,NA,NA,63.6,6,NA,NA,8,NA,NA,NA,5.9,131.7,2021_08
-121.582,50.224,LYTTON A,1114738,BC,24.7,22,NA,39,22,14.3,22,NA,NA,NA,13.5,21,NA,NA,2,NA,NA,NA,0,60.3,2021_08
-121.582,50.224,LYTTON RCS,1114746,BC,22.1,0,NA,40.3,0,9.2,0,NA,NA,NA,52.9,0,NA,NA,8,NA,NA,NA,11.7,138.5,2021_08
-120.333,49.673,JELLICOE,1123721,BC,16.9,1,NA,35.5,1,0.5,1,0,1,NA,24.6,1,NA,0,9,NA,NA,NA,75.9,43.3,2021_08
-119.378,49.957,KELOWNA,1123939,BC,19.6,0,NA,36.7,0,3.6,0,NA,NA,NA,26.9,0,NA,NA,6,NA,NA,NA,29.6,80.7,2021_08
-119.4,49.941,KELOWNA UBCO,1123996,BC,20.8,0,NA,37.7,0,5.9,0,NA,NA,NA,22.9,0,NA,NA,6,NA,NA,NA,19.4,106.4,2021_08
-120.778,50.113,MERRITT,1125073,BC,18.3,0,NA,36.8,0,2.3,0,NA,NA,NA,26.2,0,NA,NA,6,NA,NA,NA,49.9,58.8,2021_08
-119.445,50.056,OKANAGAN CENTRE,1125700,BC,21.6,0,1.2,37,0,9.5,0,0,0,NA,27,0,84,0,7,NA,NA,NA,9.6,119.8,2021_08
-119.545,49.179,OLIVER STP,1125766,BC,22.7,11,0.9,38,10,8,11,0,10,NA,2.9,10,NA,0,2,NA,NA,NA,3.7,96.9,2021_08
-119.441,49.028,OSOYOOS CS,1125852,BC,22.4,0,0,38.8,0,8.4,0,NA,NA,NA,7.5,0,NA,NA,2,NA,NA,NA,2.9,138,2021_08
-119.717,49.783,PEACHLAND,1126070,BC,21.9,0,1.1,36,0,10,0,0,0,NA,23.7,0,91,0,5,NA,NA,NA,8.4,129.9,2021_08
-119.602,49.463,PENTICTON A,1126146,BC,20.8,1,NA,38.6,1,6.2,1,0,1,NA,12.2,1,NA,NA,3,NA,NA,NA,12.5,95.9,2021_08
-120.513,49.468,PRINCETON A,1126510,BC,18.4,2,0.5,38,2,3,2,0,2,NA,14,2,NA,0,6,NA,NA,NA,37.9,49.7,2021_08
-120.513,49.468,PRINCETON A,1126518,BC,18.7,0,NA,37.8,0,3.1,0,NA,NA,NA,NA,NA,NA,NA,NA,NA,NA,NA,39.9,62.1,2021_08
-119.194,50.223,VERNON AUTO,1128582,BC,20.6,1,NA,36.8,1,7.1,1,NA,NA,NA,26.5,7,NA,NA,6,NA,NA,NA,19.5,97.6,2021_08
-119.056,50.359,VERNON SILVER STAR LODGE,1128584,BC,14.4,0,NA,27,0,1,0,0,0,NA,55.4,0,NA,0,10,NA,NA,NA,131.5,18.6,2021_08
-120.51,49.465,PRINCETON CS,112FN0M,BC,18.8,0,NA,37.5,0,3.9,0,NA,NA,NA,13.6,0,NA,NA,6,NA,NA,NA,39.3,62.7,2021_08
-119.649,49.563,SUMMERLAND CS,112G8L1,BC,21.5,0,0.5,38.1,0,7.7,0,NA,NA,NA,16.2,0,NA,NA,3,NA,NA,NA,12.6,120.6,2021_08
-118.772,49.004,MIDWAY,1135126,BC,19.9,0,1.2,37.5,0,3.5,0,0,0,NA,20.4,0,72,0,8,NA,NA,NA,25.2,83,2021_08
-118.228,49.017,BILLINGS,1140876,BC,20.8,0,0.5,37.5,0,6.5,0,0,0,NA,44.2,0,194,0,7,NA,NA,NA,18.3,106.5,2021_08
-117.633,49.296,CASTLEGAR A,1141455,BC,20.3,0,0.3,37,0,6,0,0,0,NA,85.8,0,282,0,7,NA,NA,NA,19.9,89.9,2021_08
-117.774,49.343,CASTLEGAR BCHPA DAM,1141457,BC,20.6,4,0.7,37,2,8,2,0,2,NA,60.5,2,NA,0,7,NA,NA,NA,11.4,81.4,2021_08
-117.633,49.296,CASTLEGAR A,1141460,BC,19.8,0,NA,37.1,0,5,0,NA,NA,NA,NA,NA,NA,NA,NA,NA,NA,NA,26.3,81,2021_08
-116.972,50.239,DUNCAN LAKE DAM,1142574,BC,17,2,-0.1,33.5,1,3,1,0,1,NA,54,1,NA,0,8,NA,NA,NA,57.5,27.4,2021_08
-117.817,50.269,NAKUSP CS,1145297,BC,18.1,0,NA,33.7,0,5.1,0,NA,NA,NA,48.3,0,NA,NA,6,NA,NA,NA,40.1,44.1,2021_08
-117.206,49.586,NELSON NE,1145442,BC,19,0,NA,35,0,6,0,0,0,NA,90.4,0,NA,0,8,NA,NA,NA,29,58.8,2021_08
-117.37,49.996,NEW DENVER,1145460,BC,18.9,0,0,33.5,0,6,0,0,0,NA,53.8,0,98,0,9,NA,NA,NA,33,59.8,2021_08
-117.305,49.491,NELSON CS,1145M29,BC,19.4,0,NA,36.2,0,5.7,0,NA,NA,NA,60,0,NA,NA,5,NA,NA,NA,26.2,71.1,2021_08
-117.739,49.112,WARFIELD RCS,1148705,BC,20.4,0,NA,37.7,0,5.4,0,NA,NA,NA,55,0,NA,NA,5,NA,NA,NA,21.4,94.3,2021_08
-116.501,49.082,CRESTON CAMPBELL SCIENTIFIC,114B1F0,BC,19.7,0,NA,36.5,0,6.4,0,NA,NA,NA,34.5,0,NA,NA,7,NA,NA,NA,24.6,75.8,2021_08
-117.399,49.512,NELSON RIXEN CREEK,114EMDM,BC,18.7,0,NA,36,0,4.5,0,0,0,NA,73.4,0,NA,0,9,NA,NA,NA,43.9,65.8,2021_08
-115.782,49.612,CRANBROOK A,1152105,BC,16.9,4,NA,34.6,4,4.6,4,0,0,NA,99.5,0,NA,NA,12,NA,NA,NA,67.9,37.1,2021_08
-115.789,49.618,CRANBROOK AIRPORT AUTO,1152106,BC,17.2,0,NA,34.9,0,3.8,0,NA,NA,NA,98.1,0,NA,NA,13,NA,NA,NA,72.8,47.2,2021_08
-115.073,49.489,FERNIE,1152850,BC,16.8,6,0.5,33,6,2,6,0,6,NA,91.2,6,NA,0,7,NA,NA,NA,55.1,24.8,2021_08
-115.461,49.524,FT STEELE DANDY CRK,1153034,BC,17.2,18,NA,37,13,2.5,13,0,13,NA,68.2,13,NA,NA,10,NA,NA,NA,25.4,14.6,2021_08
-115.962,49.632,KIMBERLEY PCC,1154203,BC,17.3,9,-0.3,33,9,4,9,0,9,NA,50.3,9,NA,0,3,NA,NA,NA,41.2,26.5,2021_08
-116.061,50.631,KOOTENAY NP WEST GATE,1154410,BC,16.5,2,-1.2,32.5,2,4,2,0,2,NA,55.5,2,NA,0,9,NA,NA,NA,73.2,30.7,2021_08
-114.884,49.745,SPARWOOD CS,1157631,BC,15.4,0,NA,34.3,0,0.8,0,NA,NA,NA,86.7,0,NA,NA,6,NA,NA,NA,102.5,23.1,2021_08
-114.883,49.833,SPARWOOD A,1157635,BC,15.5,0,NA,34.7,0,0.8,0,NA,NA,NA,NA,NA,NA,NA,NA,NA,NA,NA,101.7,24.9,2021_08
-121.281,50.708,ASHCROFT,1160515,BC,22,0,NA,38.9,0,7.7,0,NA,NA,NA,51.8,0,NA,NA,8,NA,NA,NA,11.1,135.6,2021_08
-119.29,52.129,BLUE RIVER A,1160899,BC,16.3,0,0.3,36,0,2.5,0,0,0,NA,104.7,0,127,0,10,NA,NA,NA,76.1,23,2021_08
-119.293,52.125,BLUE RIVER A,1160902,BC,16.1,0,NA,35.8,0,2.5,0,NA,NA,NA,NA,NA,NA,NA,NA,NA,NA,NA,79.1,21.7,2021_08
-119.29,52.129,BLUE RIVER CS,1160H99,BC,16.2,0,NA,35.6,0,2.6,0,NA,NA,NA,90.7,3,NA,NA,7,NA,NA,NA,78.9,21.9,2021_08
-120.082,51.653,CLEARWATER AUTO,1161650,BC,18.8,0,NA,36.9,0,5,0,NA,NA,NA,35.7,0,NA,NA,7,NA,NA,NA,35.7,60.9,2021_08
-121.685,51.266,CLINTON A,1161662,BC,14.4,0,NA,33.1,0,-2,0,NA,NA,NA,0,0,NA,NA,0,NA,NA,NA,130.1,17.6,2021_08
-121.505,51.144,CLINTON RCS,1161663,BC,16.2,0,NA,33.5,0,0.7,0,NA,NA,NA,39.5,0,NA,NA,8,NA,NA,NA,90.5,33.2,2021_08
-120.449,50.703,KAMLOOPS A,1163781,BC,20.8,0,NA,36.4,0,7.3,0,0,0,NA,25.5,0,NA,NA,5,NA,NA,NA,12.4,98.2,2021_08
-120.442,50.702,KAMLOOPS AUT,1163842,BC,20.6,0,NA,36.4,0,7.6,0,NA,NA,NA,24.2,0,NA,NA,5,NA,NA,NA,12.4,93.9,2021_08
-121.217,51.681,100 MILE HOUSE 6NE,1165793,BC,15.8,0,NA,34,0,0.5,0,0,0,NA,41,0,NA,0,8,NA,NA,NA,83.7,15.5,2021_08
-119.35,50.545,SILVER CREEK,1167337,BC,18.9,0,0.5,35.5,0,2,0,0,0,NA,13.9,0,41,0,6,NA,NA,NA,35.6,64.5,2021_08
-119.778,51.576,VAVENBY,1168520,BC,18.1,2,0.6,36.5,1,6,1,0,1,NA,79.2,1,NA,0,10,NA,NA,NA,34.5,38.2,2021_08
-120.172,50.63,KAMLOOPS PRATT ROAD,116C8P0,BC,19.4,0,NA,34,0,5.5,0,0,0,NA,45.8,0,NA,0,5,NA,NA,NA,37,81.5,2021_08
-119.291,50.703,SALMON ARM CS,116FRMN,BC,18.9,1,-0.8,35.8,1,5.7,1,NA,NA,NA,14.5,2,NA,NA,5,NA,NA,NA,25.4,53.6,2021_08
-116.982,51.299,GOLDEN A,1173210,BC,16.6,0,-0.1,32.5,0,4.5,0,0,0,NA,54.2,0,120,0,9,NA,NA,NA,67.2,23.9,2021_08
-116.982,51.299,GOLDEN A,1173214,BC,16.5,0,NA,32.9,0,4.3,0,NA,NA,NA,NA,NA,NA,NA,NA,NA,NA,NA,70.9,24.1,2021_08
-116.984,51.3,GOLDEN AIRPORT,1173220,BC,16.4,0,NA,32.9,0,4.4,0,NA,NA,NA,46.9,0,NA,NA,8,NA,NA,NA,72.8,24.2,2021_08
-118.585,52.053,MICA DAM,1175122,BC,16.1,16,-0.1,29,11,4,11,0,11,NA,64.5,11,NA,0,8,NA,NA,NA,35.5,6.3,2021_08
-118.183,50.967,REVELSTOKE A,1176745,BC,17.7,1,NA,32.1,1,5.5,1,NA,NA,NA,37.4,0,NA,NA,7,NA,NA,NA,38.9,31,2021_08
-118.176,50.958,REVELSTOKE AIRPORT AUTO,1176755,BC,18,0,NA,32.4,0,6.4,0,NA,NA,NA,34.1,0,NA,NA,6,NA,NA,NA,35.2,34.6,2021_08
-116.345,51.443,YOHO PARK,11790J1,BC,13.1,0,NA,31.6,0,-1.6,0,NA,NA,NA,59.4,0,NA,0,9,NA,NA,NA,154.4,3.3,2021_08
-116.337,51.356,YOHO NP OHARA LAKE,117R00H,BC,10.6,12,NA,31,12,-1,12,0,12,NA,53.7,12,NA,NA,9,NA,NA,NA,143.2,2,2021_08
-121.627,55.687,CHETWYND A,1181508,BC,14.8,9,0.3,32,9,1,9,0,9,NA,37.6,9,NA,0,3,NA,NA,NA,81.4,10.9,2021_08
-121.627,55.687,CHETWYND A,1181513,BC,15.7,0,NA,32.4,0,0.5,0,NA,NA,NA,NA,NA,NA,NA,NA,NA,NA,NA,93.3,20.9,2021_08
-120.183,55.742,DAWSON CREEK A,1182289,BC,15.6,0,NA,33.3,0,1.9,0,NA,NA,NA,60.3,0,NA,NA,5,NA,NA,NA,95,20.1,2021_08
-120.74,56.238,FORT ST. JOHN A,1183001,BC,15.8,0,NA,30.3,0,3.1,0,0,0,NA,86.7,0,NA,NA,8,NA,NA,NA,93.7,24.2,2021_08
-120.75,56.248,FORT ST JOHN AIRPORT,1183002,BC,14.1,11,NA,30.4,11,1.2,11,NA,NA,NA,45.1,11,NA,NA,5,NA,NA,NA,85.7,7.9,2021_08
-123.133,55.299,MACKENZIE,1184791,BC,15.3,0,NA,32.7,0,0.7,0,NA,NA,NA,22.8,0,NA,NA,4,NA,NA,NA,102.4,18.9,2021_08
-123.138,55.305,MACKENZIE AIRPORT AUTO,1184793,BC,15.7,0,NA,33.9,0,1.5,0,NA,NA,NA,23.9,0,NA,NA,6,NA,NA,NA,93.3,22.5,2021_08
-130.031,58.422,DEASE LAKE A,1192341,BC,12.2,0,NA,29.1,0,1.2,0,NA,NA,NA,61.6,3,NA,NA,14,NA,NA,NA,182.5,1.3,2021_08
-122.597,58.836,FORT NELSON A,1192946,BC,15.6,0,NA,34.8,0,-0.6,0,0,0,NA,63.7,0,NA,NA,7,NA,NA,NA,92.1,17.7,2021_08
-122.574,58.841,FORT NELSON,1192948,BC,15.7,3,NA,34.6,3,0.3,3,NA,NA,NA,70,3,NA,NA,7,NA,NA,NA,84.7,19.3,2021_08
-130.025,58.426,DEASE LAKE (AUT),119BLM0,BC,12.2,0,NA,29.3,0,1.2,0,NA,NA,NA,87.7,0,NA,NA,16,NA,NA,NA,181.9,1.4,2021_08
-136.367,59.45,PLEASANT CAMP,1206197,BC,13.3,3,-0.1,27.5,3,5,3,0,3,NA,241.2,3,NA,0,19,NA,NA,NA,133.3,1,2021_08
-140.869,62.41,BEAVER CREEK A,2100155,YT,11.4,0,NA,27.6,0,-2.5,0,NA,NA,NA,NA,NA,NA,NA,NA,NA,NA,NA,203.8,0,2021_08
-139.04,61.371,BURWASH A,2100181,YT,11,0,NA,26.8,0,-4.3,0,NA,NA,NA,82,0,NA,NA,10,NA,NA,NA,217.2,0,2021_08
-139.017,61.367,BURWASH AIRPORT AUTO,2100184,YT,11,0,NA,26.9,0,-4.4,0,NA,NA,NA,82.4,0,NA,NA,10,NA,NA,NA,217.1,0,2021_08
-136.192,62.115,CARMACKS CS,2100301,YT,13.9,0,NA,32,0,-0.9,0,NA,NA,NA,64.8,0,NA,NA,9,NA,NA,NA,134.1,8.2,2021_08
-139.13,64.042,DAWSON CITY A,2100407,YT,13,0,NA,32.2,0,-1.5,0,NA,NA,NA,NA,NA,NA,NA,NA,NA,NA,NA,163.8,8.9,2021_08
-133.376,62.208,FARO (AUT),2100518,YT,13.2,0,NA,31.8,0,1.7,0,NA,NA,NA,104.4,0,NA,NA,15,NA,NA,NA,156.1,6.8,2021_08
-133.373,62.207,FARO A,2100527,YT,13.1,0,NA,31.4,0,1.4,0,NA,NA,NA,NA,NA,NA,NA,NA,NA,NA,NA,159.1,6.2,2021_08
-137.58,60.773,HAINES JUNCTION,2100630,YT,11.9,0,NA,28.1,0,-3.5,0,NA,NA,NA,NA,NA,NA,NA,NA,NA,NA,NA,187.9,0,2021_08
-138.913,69.568,HERSCHEL ISLAND,2100636,YT,7.5,4,NA,20.1,4,1.7,4,NA,NA,NA,55,4,NA,NA,11,NA,NA,NA,282.3,0,2021_08
-140.15,69.164,IVVAVIK NAT. PARK,2100660,YT,8.3,2,NA,22.5,2,-1.5,2,NA,NA,NA,37.4,2,NA,NA,11,NA,NA,NA,281.1,0,2021_08
-140.197,69.612,KOMAKUK BEACH,2100682,YT,6.8,2,NA,21.7,2,-1.8,2,NA,NA,NA,NA,NA,NA,NA,NA,NA,NA,NA,324.3,0,2021_08
-130.037,63.244,MACMILLAN PASS,2100693,YT,9.3,2,NA,27.3,2,0.4,2,NA,NA,NA,110.8,2,NA,NA,13,NA,NA,NA,252.4,0.3,2021_08
-140.848,68.801,MARGARET LAKE,2100697,YT,7.5,2,NA,22.2,2,-3.6,2,NA,NA,NA,56.1,11,NA,NA,11,NA,NA,NA,305.3,0.9,2021_08
-135.868,63.616,MAYO A,2100701,YT,13.8,1,NA,32.4,1,1.8,1,0,0,NA,63.7,0,NA,NA,12,NA,NA,NA,142.5,16.2,2021_08
-135.869,63.617,MAYO A,2100702,YT,13.8,1,NA,32.4,1,1.8,1,NA,NA,NA,NA,NA,NA,NA,NA,NA,NA,NA,142.5,16.2,2021_08
-139.839,67.571,OLD CROW RCS,2100805,YT,9.9,1,NA,27.8,1,-0.8,1,NA,NA,NA,26.2,1,NA,NA,9,NA,NA,NA,245,2.3,2021_08
-139.84,67.57,OLD CROW A,2100807,YT,10,0,NA,28,0,-0.9,0,NA,NA,NA,NA,NA,NA,NA,NA,NA,NA,NA,249.8,2.3,2021_08
-137.05,61.033,OTTER FALLS NCPC,2100840,YT,12.3,8,1.5,28,8,-2,8,0,8,NA,49,8,NA,NA,5,NA,NA,NA,132.4,1.6,2021_08
-137.367,62.817,PELLY RANCH FORT SELKIRK,2100881,YT,13.9,0,NA,32,0,-0.5,0,NA,NA,NA,NA,NA,NA,NA,NA,NA,NA,NA,139.4,13.2,2021_08
-136.218,66.981,ROCK RIVER,2100935,YT,8.5,1,NA,23.7,1,0.7,1,NA,NA,NA,68.8,1,NA,NA,14,NA,NA,NA,286.7,0.4,2021_08
-137.217,68.95,SHINGLE POINT A,2100950,YT,8.9,0,NA,23.2,0,0.9,0,NA,NA,NA,NA,NA,NA,NA,NA,NA,NA,NA,281.6,0,2021_08
-139.127,64.061,DAWSON,2100LRP,YT,13,0,NA,32.5,0,-1.5,0,NA,NA,NA,93.4,0,NA,NA,11,NA,NA,NA,163.7,9.3,2021_08
-132.733,60.167,TESLIN (AUT),2101102,YT,12.6,0,NA,31.3,0,0,0,NA,NA,NA,48.6,0,NA,0,11,NA,NA,NA,171.8,4,2021_08
-132.742,60.173,TESLIN A,2101106,YT,12.8,0,NA,31.4,0,0.6,0,NA,NA,NA,NA,NA,NA,NA,NA,NA,NA,NA,166.6,4.5,2021_08
-128.823,60.116,WATSON LAKE A,2101201,YT,14.1,2,NA,32.2,2,1.5,2,0,0,NA,62.7,0,NA,NA,9,NA,NA,NA,123.4,11.2,2021_08
-128.823,60.116,WATSON LAKE A,2101202,YT,14.1,0,NA,32.2,0,1.5,0,NA,NA,NA,NA,NA,NA,NA,NA,NA,NA,NA,133.5,11.2,2021_08
-128.832,60.116,WATSON LAKE (AUT),2101204,YT,14.1,0,NA,32.5,0,1.5,0,NA,NA,NA,99.1,0,NA,NA,13,NA,NA,NA,131.1,11.4,2021_08
-135.067,60.709,WHITEHORSE A,2101303,YT,13.4,3,NA,29.6,3,1.1,3,NA,NA,NA,NA,NA,NA,NA,NA,NA,NA,NA,133.3,4.3,2021_08
-135.098,60.733,WHITEHORSE AUTO,2101310,YT,13,0,NA,29.2,0,1,0,NA,NA,NA,70.1,0,NA,NA,9,NA,NA,NA,160.1,3.7,2021_08
-135.006,68.223,AKLAVIK A,2200105,NT,10.9,0,NA,29.1,0,3.6,0,NA,NA,NA,NA,NA,NA,NA,NA,NA,NA,NA,224.5,3.5,2021_08
-124.717,70.167,CAPE PARRY A,2200675,NT,5,0,NA,20.6,0,-1.7,0,NA,NA,NA,NA,NA,NA,NA,NA,NA,NA,NA,404.5,0,2021_08
-126.123,67.021,COLVILLE LAKE,2200824,NT,NA,NA,NA,NA,NA,NA,NA,NA,NA,NA,15.4,2,NA,NA,5,NA,NA,NA,NA,NA,2021_08
-126.129,67.021,COLVILLE LAKE A,2200827,NT,11.3,1,NA,30.1,1,-0.4,1,NA,NA,NA,12.7,1,NA,NA,7,NA,NA,NA,207.1,6.2,2021_08
-123.433,65.209,DELINE CS,2201022,NT,11.6,0,NA,30.4,0,-1.1,0,NA,NA,NA,18.2,0,NA,NA,5,NA,NA,NA,201.3,4.2,2021_08
-123.436,65.211,DELINE A,2201023,NT,11.8,0,NA,30.2,0,-1.1,0,NA,NA,NA,NA,NA,NA,NA,NA,NA,NA,NA,197.4,4.6,2021_08
-124.468,61.257,DEADMEN VALLEY,22010H0,NT,14.6,2,NA,35,2,-0.2,2,NA,NA,NA,101.7,3,NA,NA,9,NA,NA,NA,109.2,10.6,2021_08
-110.348,64.493,DIAVIK DIAMOND MINE,2201100,NT,NA,NA,NA,NA,NA,NA,NA,NA,NA,NA,0,29,NA,NA,0,NA,NA,NA,NA,NA,2021_08
-128.648,66.241,FORT GOOD HOPE A,2201406,NT,12.7,0,NA,32.7,0,0.8,0,NA,NA,NA,NA,NA,NA,NA,NA,NA,NA,NA,170.5,7.7,2021_08
-128.644,66.242,FORT GOOD HOPE CS,2201450,NT,12.9,0,NA,32.7,0,0.1,0,NA,NA,NA,17.5,0,NA,NA,7,NA,NA,NA,167.2,8,2021_08
-123.467,60.233,FORT LIARD,2201579,NT,15.4,1,NA,34.7,1,3.6,1,NA,NA,NA,77.7,1,NA,NA,7,NA,NA,NA,100.4,22.2,2021_08
-123.47,60.236,FORT LIARD A,2201581,NT,15.7,4,NA,35,4,3.7,4,NA,NA,NA,NA,NA,NA,NA,NA,NA,NA,NA,85.1,23.5,2021_08
-134.86,67.407,FORT MCPHERSON A,2201606,NT,11.9,2,NA,29.6,2,2.3,2,NA,NA,NA,NA,NA,NA,NA,NA,NA,NA,NA,184.1,6.4,2021_08
-125.569,64.91,TULITA A,2201705,NT,13.8,0,NA,31.9,0,2.4,0,NA,NA,NA,NA,NA,NA,NA,NA,NA,NA,NA,138.8,9.8,2021_08
-117.602,61.317,FORT PROVIDENCE,2201799,NT,15.2,0,NA,34.6,0,-1.3,0,NA,NA,NA,NA,NA,NA,NA,NA,NA,NA,NA,103.9,15.9,2021_08
-109.168,62.711,FORT RELIANCE (AUT),2201903,NT,13.5,2,NA,25.9,2,3.8,2,NA,NA,NA,NA,NA,NA,NA,NA,NA,NA,NA,134,2.9,2021_08
-113.69,61.181,FORT RESOLUTION A,2202010,NT,13.9,1,NA,28,1,1,1,NA,NA,NA,NA,NA,NA,NA,NA,NA,NA,NA,130.8,6.8,2021_08
-121.237,61.76,FORT SIMPSON CLIMATE,2202102,NT,14.8,0,NA,33.8,0,-0.5,0,NA,NA,NA,74.1,0,NA,NA,7,NA,NA,NA,112,13.6,2021_08
-121.237,61.76,FORT SIMPSON A,2202103,NT,15,1,NA,33.8,1,-0.5,1,0,0,NA,82.7,0,NA,NA,7,NA,NA,NA,105.5,15.5,2021_08
-121.237,61.76,FORT SIMPSON A,2202104,NT,15,0,NA,33.8,0,-0.5,0,NA,NA,NA,NA,NA,NA,NA,NA,NA,NA,NA,109.5,15.5,2021_08
-111.962,60.02,FORT SMITH A,2202201,NT,14.6,8,NA,32.5,8,3.7,8,0,2,NA,30.7,2,NA,NA,6,NA,NA,NA,87.3,9.6,2021_08
-111.929,60.026,FORT SMITH CLIMATE,2202202,NT,15.3,0,NA,33.7,0,1.8,0,NA,NA,NA,21.4,0,NA,NA,5,NA,NA,NA,104.9,22.1,2021_08
-111.962,60.02,FORT SMITH A,2202203,NT,15,1,NA,32.5,1,3.7,1,NA,NA,NA,NA,NA,NA,NA,NA,NA,NA,NA,104.5,15.2,2021_08
-105.133,63.6,HANBURY RIVER,2202351,NT,10.6,0,NA,28.4,0,-0.9,0,NA,NA,NA,80.7,0,NA,NA,7,NA,NA,NA,232.7,3.5,2021_08
-115.783,60.84,HAY RIVER A,2202401,NT,14.5,2,NA,30.3,2,1,2,0,0,NA,69,0,NA,NA,4,NA,NA,NA,109.8,9,2021_08
-115.777,60.839,HAY RIVER CLIMATE,2202402,NT,15.1,0,NA,31.5,0,2.1,0,NA,NA,NA,76.8,0,NA,NA,7,NA,NA,NA,108.3,19,2021_08
-115.783,60.84,HAY RIVER A,2202403,NT,14.4,1,NA,30.3,1,1,1,NA,NA,NA,NA,NA,NA,NA,NA,NA,NA,NA,118,9,2021_08
-113.726,61.92,INNER WHALEBACKS,2202560,NT,13.9,1,NA,23.3,1,8.5,1,NA,NA,NA,30.8,1,NA,NA,4,NA,NA,NA,125.6,1.9,2021_08
-133.483,68.304,INUVIK A,2202571,NT,11,3,NA,30.4,3,2.1,3,NA,NA,NA,NA,NA,NA,NA,NA,NA,NA,NA,201.3,6.5,2021_08
-133.517,68.317,INUVIK CLIMATE,2202578,NT,10.6,0,NA,29.6,0,2.2,0,NA,NA,NA,25.2,0,NA,NA,8,NA,NA,NA,234.4,5.7,2021_08
-121.673,69.673,KEATS POINT,2202663,NT,7.2,0,NA,25.8,0,-1,0,NA,NA,NA,NA,NA,NA,NA,NA,NA,NA,NA,335.7,0.9,2021_08
-117.245,63.134,WHATI,2202678,NT,13.1,1,NA,32.9,1,-3.2,1,NA,NA,NA,45.7,1,NA,NA,6,NA,NA,NA,157,11.1,2021_08
-110.682,62.418,LUTSELK'E A,2202690,NT,13.1,0,NA,28.4,0,-0.7,0,NA,NA,NA,NA,NA,NA,NA,NA,NA,NA,NA,159.9,7.3,2021_08
-128.974,69.925,NICHOLSON PENINSULA 2,2202751,NT,6.9,0,NA,21.6,0,0.3,0,NA,NA,NA,NA,NA,NA,NA,NA,NA,NA,NA,343.1,0,2021_08
-126.799,65.281,NORMAN WELLS A,2202801,NT,13.1,0,NA,33.4,0,-0.3,0,0,0,NA,58.5,0,NA,NA,10,NA,NA,NA,158.1,6.6,2021_08
-126.753,65.288,NORMAN WELLS CLIMATE,2202810,NT,12.7,0,NA,33.8,0,-1.1,0,NA,NA,NA,NA,NA,NA,NA,NA,NA,NA,NA,171.2,7.5,2021_08
-124.076,69.361,PAULATUK A,2203055,NT,8.7,0,NA,27.1,0,1.7,0,NA,NA,NA,NA,NA,NA,NA,NA,NA,NA,NA,287.8,1,2021_08
-124.083,69.358,PAULATUK,2203058,NT,8.9,0,NA,27.2,0,2,0,NA,NA,NA,42.4,0,NA,NA,10,NA,NA,NA,284,1.1,2021_08
-135.444,69.633,PELLY ISLAND,2203095,NT,8.2,3,NA,21.1,3,2.4,3,NA,NA,NA,NA,NA,NA,NA,NA,NA,NA,NA,274,0,2021_08
-127.209,61.963,RABBIT KETTLE,2203342,NT,13.8,3,NA,33.7,3,1.5,3,NA,NA,NA,26.7,4,NA,NA,7,NA,NA,NA,124.2,7,2021_08
-117.31,64.116,GAMETI A,2203365,NT,14.1,0,NA,30.9,0,4.4,0,NA,NA,NA,NA,NA,NA,NA,NA,NA,NA,NA,131,10,2021_08
-133.026,69.433,TUKTOYAKTUK A,2203911,NT,9.3,4,NA,23.3,4,3.5,4,NA,NA,NA,NA,NA,NA,NA,NA,NA,NA,NA,235.4,0.6,2021_08
-133.017,69.433,TUKTOYAKTUK,2203914,NT,9.2,0,NA,23.2,0,2.1,0,NA,NA,NA,NA,NA,NA,NA,NA,NA,NA,NA,273.3,0.6,2021_08
-122.359,69.199,TUKTUT NOGAIT,2203918,NT,6.7,6,NA,25.2,6,-2,6,NA,NA,NA,34.8,6,NA,NA,10,NA,NA,NA,282.6,0.7,2021_08
-114.077,64.191,WEKWEETI A,2203980,NT,12.5,0,NA,28.9,0,3.2,0,NA,NA,NA,26.8,0,NA,NA,5,NA,NA,NA,178.5,7.8,2021_08
-123.437,63.21,WRIGLEY A,2204005,NT,14.5,0,NA,34,0,0.9,0,NA,NA,NA,NA,NA,NA,NA,NA,NA,NA,NA,121.8,11.8,2021_08
-114.44,62.463,YELLOWKNIFE A,2204101,NT,13.6,0,NA,32.6,0,1.5,0,0,0,NA,25.6,0,NA,NA,6,NA,NA,NA,149.5,12.5,2021_08
-123.742,61.242,YOHIN,2204300,NT,14.4,4,NA,36.6,4,-0.6,4,NA,NA,NA,109,5,NA,NA,8,NA,NA,NA,110.3,13.9,2021_08
-130.911,69.604,LIVERPOOL BAY,220B68C,NT,8.2,0,NA,24.3,0,0.7,0,NA,NA,NA,NA,NA,NA,NA,NA,NA,NA,NA,303.7,0,2021_08
-130.228,67.179,LITTLE CHICAGO,220B6Q3,NT,12.9,6,NA,30.7,6,-0.3,6,NA,NA,NA,NA,NA,NA,NA,NA,NA,NA,NA,133.9,6.2,2021_08
-121.239,60.441,SAMBAA K'E,220CQHR,NT,13.6,0,NA,33.8,0,-2.8,0,NA,NA,NA,44.3,0,NA,NA,10,NA,NA,NA,148.3,13.1,2021_08
-133.942,68.911,STORM HILLS,220LQJJ,NT,8.8,1,NA,26.2,1,1.5,1,NA,NA,NA,NA,NA,NA,NA,NA,NA,NA,NA,278,2.2,2021_08
-122.851,61.125,LINDBURG LANDING,220N003,NT,14.7,4,NA,35.8,4,0.2,4,NA,NA,NA,121.1,4,NA,NA,9,NA,NA,NA,105,16.4,2021_08
-133.502,68.746,TRAIL VALLEY,220N005,NT,9.6,1,NA,28.7,1,-1.2,1,NA,NA,NA,10.4,19,NA,NA,3,NA,NA,NA,256.5,3.7,2021_08
-94.072,61.094,ARVIAT A,2300427,NU,10.5,0,NA,25.5,0,4.5,0,NA,NA,NA,65.2,1,NA,NA,9,NA,NA,NA,231.1,0,2021_08
-96,64.317,BAKER LAKE CLIMATE,2300501,NU,10,0,NA,23.8,0,2.3,0,NA,NA,NA,70,0,NA,NA,9,NA,NA,NA,249.4,0,2021_08
-96.078,64.299,BAKER LAKE A,2300503,NU,10.1,7,NA,24.3,7,2,7,0,0,NA,32.8,1,NA,NA,7,NA,NA,NA,189.4,0,2021_08
-96.078,64.299,BAKER LAKE A,2300504,NU,10,2,NA,24.3,2,2,2,NA,NA,NA,NA,NA,NA,NA,NA,NA,NA,NA,231,0,2021_08
-108.015,66.838,BATHURST INLET,2300551,NU,10.6,7,NA,23.1,7,0.7,7,NA,NA,NA,9.1,8,NA,NA,3,NA,NA,NA,177.3,0,2021_08
-114.94,68.755,BERNARD HARBOUR,2300556,NU,8,0,NA,20.9,0,1.9,0,NA,NA,NA,NA,NA,NA,NA,NA,NA,NA,NA,310.5,0,2021_08
-90.731,63.347,CHESTERFIELD INLET A,2300710,NU,8.7,0,NA,23.1,0,2.4,0,NA,NA,NA,NA,NA,NA,NA,NA,NA,NA,NA,289.7,0,2021_08
-115.144,67.817,KUGLUKTUK A,2300903,NU,9.1,0,NA,27.7,0,0.6,0,0,0,NA,0,0,NA,NA,0,NA,NA,NA,278.7,1.3,2021_08
-115.135,67.817,KUGLUKTUK CLIMATE,2300904,NU,9.1,0,NA,27.7,0,0.8,0,NA,NA,NA,11.5,0,NA,NA,2,NA,NA,NA,277.3,1.3,2021_08
-115.144,67.817,KUGLUKTUK A,2300905,NU,9.1,0,NA,27.7,0,0.6,0,NA,NA,NA,NA,NA,NA,NA,NA,NA,NA,NA,278.7,1.3,2021_08
-83.359,64.193,CORAL HARBOUR A,2301002,NU,7.5,11,NA,15.7,11,1.7,11,0,7,NA,0.6,7,NA,NA,0,NA,NA,NA,209.8,0,2021_08
-83.359,64.193,CORAL HARBOUR A,2301004,NU,7.5,0,NA,15.7,0,1.5,0,NA,NA,NA,NA,NA,NA,NA,NA,NA,NA,NA,325.3,0,2021_08
-83.35,64.183,CORAL HARBOUR RCS,2301010,NU,7.5,0,NA,15.4,0,1.8,0,NA,NA,NA,NA,NA,NA,NA,NA,NA,NA,NA,327,0,2021_08
-100.884,61.132,ENNADAI LAKE (AUT),2301102,NU,12.3,0,NA,26.1,0,3.7,0,NA,NA,NA,85.5,0,NA,NA,8,NA,NA,NA,178.9,2.1,2021_08
-94.067,61.1,ARVIAT CLIMATE,2301153,NU,10.6,0,NA,25.6,0,4.7,0,NA,NA,NA,98.2,0,NA,NA,9,NA,NA,NA,229.7,0,2021_08
-95.85,68.636,GJOA HAVEN A,2302337,NU,5.3,0,NA,12.1,0,-0.2,0,NA,NA,NA,20.5,1,NA,NA,7,NA,NA,NA,393.5,0,2021_08
-95.85,68.636,GJOA HAVEN CLIMATE,2302340,NU,5.4,0,NA,12.4,0,-0.2,0,NA,NA,NA,21.1,0,NA,NA,6,NA,NA,NA,391.7,0,2021_08
-100.087,68.318,HAT ISLAND,2302370,NU,4.2,0,NA,13,0,-1,0,NA,NA,NA,NA,NA,NA,NA,NA,NA,NA,NA,426.8,0,2021_08
-89.726,68.437,PELLY BAY,2303093,NU,3.6,7,NA,14.2,7,-2.7,7,NA,NA,NA,NA,NA,NA,NA,NA,NA,NA,NA,345.1,0,2021_08
-89.796,68.538,KUGAARUK CLIMATE,2303094,NU,5.4,0,NA,16.4,0,-2.7,0,NA,NA,NA,67.5,0,NA,NA,15,NA,NA,NA,389.5,0,2021_08
-89.805,68.536,KUGAARUK A,2303095,NU,5.5,1,NA,16.3,1,-2.8,1,NA,NA,NA,NA,NA,NA,NA,NA,NA,NA,NA,376.1,0,2021_08
-92.115,62.811,RANKIN INLET A,2303405,NU,9.6,0,NA,21.6,0,4.4,0,0,0,NA,60.6,0,NA,NA,8,NA,NA,NA,261.7,0,2021_08
-102.429,65.1,ROBERTSON LAKE (AUT),2303610,NU,9.2,0,NA,24.4,0,0.8,0,NA,NA,NA,65.9,0,NA,NA,9,NA,NA,NA,271.6,0,2021_08
-79.25,56.537,SANIKILUAQ A,2303660,NU,9.5,0,NA,22.5,0,3.2,0,NA,NA,NA,NA,NA,NA,NA,NA,NA,NA,NA,263.6,0,2021_08
-79.26,56.537,SANIKILUAQ,2303668,NU,9.6,4,NA,22.9,4,3.5,4,NA,NA,NA,36.4,4,NA,NA,5,NA,NA,NA,226.1,0,2021_08
-93.433,68.817,SHEPHERD BAY A,2303685,NU,5.2,0,NA,14.8,0,-1.3,0,NA,NA,NA,NA,NA,NA,NA,NA,NA,NA,NA,396.7,0,2021_08
-92.598,62.24,WHALE COVE A,2303990,NU,9.7,2,NA,20.7,2,5,2,NA,NA,NA,NA,NA,NA,NA,NA,NA,NA,NA,240.2,0,2021_08
-119.219,69.276,CROKER RIVER,230J01Q,NU,8.1,0,NA,29,0,-0.5,0,NA,NA,NA,NA,NA,NA,NA,NA,NA,NA,NA,308.4,0.6,2021_08
-111.246,65.755,LUPIN CS,230N002,NU,9.1,12,NA,25.1,12,0.7,12,NA,NA,NA,11.8,9,NA,NA,2,NA,NA,NA,169.5,0.2,2021_08
-62.333,82.5,ALERT CLIMATE,2400305,NU,1.7,3,NA,11.6,3,-3,3,NA,NA,NA,17.5,3,NA,0,2,NA,NA,NA,456,0,2021_08
-62.333,82.5,ALERT UA,2400306,NU,NA,NA,NA,NA,NA,NA,NA,7,0,NA,17.6,0,NA,0,2,NA,NA,NA,NA,NA,2021_08
-85.047,73.006,ARCTIC BAY,2400399,NU,5.2,0,NA,12.8,0,-1.4,0,NA,NA,NA,NA,NA,NA,NA,NA,NA,NA,NA,395.5,0,2021_08
-85.012,72.993,ARCTIC BAY CS,2400404,NU,5.1,0,NA,12.4,0,-0.6,0,NA,NA,NA,17.3,0,NA,NA,5,NA,NA,NA,400.3,0,2021_08
-77.23,69.224,BRAY ISLAND,2400561,NU,5.8,0,NA,11.5,0,0.3,0,NA,NA,NA,NA,NA,NA,NA,NA,NA,NA,NA,378.4,0,2021_08
-64.146,63.34,BREVOORT ISLAND,2400565,NU,4.9,0,NA,13.4,0,-1.9,0,NA,NA,NA,NA,NA,NA,NA,NA,NA,NA,NA,405.7,0,2021_08
-63.789,67.536,BROUGHTON ISLAND,2400570,NU,4.9,8,NA,12.8,8,-2.2,8,NA,NA,NA,NA,NA,NA,NA,NA,NA,NA,NA,301.8,0,2021_08
-64.033,67.547,QIKIQTARJUAQ CLIMATE,2400573,NU,4.7,0,NA,14.6,0,-0.4,0,NA,NA,NA,41.3,0,NA,NA,11,NA,NA,NA,412.6,0,2021_08
-64.032,67.547,QIKIQTARJUAQ A,2400577,NU,4.6,0,NA,14.6,0,-0.5,0,NA,NA,NA,39.2,0,NA,NA,11,NA,NA,NA,414.7,0,2021_08
-105.137,69.108,CAMBRIDGE BAY A,2400601,NU,6.7,3,NA,15.2,3,0.9,3,0,2,NA,10.1,2,NA,NA,3,NA,NA,NA,316.7,0,2021_08
-105.138,69.108,CAMBRIDGE BAY GSN,2400602,NU,6.7,0,NA,15.2,0,1.3,0,NA,NA,NA,25.9,0,NA,NA,7,NA,NA,NA,348.9,0,2021_08
-105.137,69.108,CAMBRIDGE BAY A,2400603,NU,6.6,1,NA,15.2,1,0.9,1,NA,NA,NA,NA,NA,NA,NA,NA,NA,NA,NA,341.8,0,2021_08
-76.53,64.231,KINNGAIT,2400636,NU,5.4,0,NA,13,0,0.1,0,NA,NA,NA,123.9,0,NA,NA,10,NA,NA,NA,389.5,0,2021_08
-76.525,64.23,CAPE DORSET A,2400637,NU,6,0,NA,15,0,0.4,0,NA,NA,NA,117.9,0,NA,NA,10,NA,NA,NA,372.9,0,2021_08
-61.383,66.65,CAPE DYER,2400650,NU,3.3,0,NA,13,0,-3.5,0,NA,NA,NA,NA,NA,NA,NA,NA,NA,NA,NA,455.7,0,2021_08
-78.293,73.668,CAPE LIVERPOOL,2400675,NU,2.5,2,NA,10.9,2,-1.4,2,NA,NA,NA,42.4,8,NA,NA,4,NA,NA,NA,450,0,2021_08
-107.823,69.036,CAPE PEEL WEST,2400697,NU,6.2,0,NA,15.6,0,-0.1,0,NA,NA,NA,NA,NA,NA,NA,NA,NA,NA,NA,364.5,0,2021_08
-68.517,70.483,CLYDE RIVER CLIMATE,2400802,NU,4.4,0,NA,12.7,0,-1.1,0,NA,NA,NA,77.9,1,NA,NA,9,NA,NA,NA,423,0,2021_08
-68.517,70.486,CLYDE RIVER A,2400804,NU,4.7,18,NA,12.4,18,0.9,18,NA,NA,NA,0,18,NA,NA,0,NA,NA,NA,173.3,0,2021_08
-71.167,68.65,DEWAR LAKES,2401030,NU,4,0,NA,12,0,-0.8,0,NA,NA,NA,NA,NA,NA,NA,NA,NA,NA,NA,433.9,0,2021_08
-85.934,79.989,EUREKA CLIMATE,2401199,NU,4.2,0,NA,12.4,0,-1,0,NA,NA,NA,5.3,0,NA,NA,3,NA,NA,NA,427.4,0,2021_08
-85.812,79.994,EUREKA A,2401208,NU,5,0,NA,13.7,0,-1.4,0,NA,NA,NA,NA,NA,NA,NA,NA,NA,NA,NA,403.4,0,2021_08
-94.198,72.018,FORT ROSS,2402051,NU,4.3,7,NA,10.7,7,-0.6,7,NA,NA,NA,10.9,9,NA,NA,3,NA,NA,NA,328,0,2021_08
-100.267,70.633,GATESHEAD ISLAND,2402332,NU,1.5,3,NA,11.1,3,-3.7,3,NA,NA,NA,4.7,15,NA,NA,2,NA,NA,NA,460.8,0,2021_08
-82.902,76.423,GRISE FIORD CLIMATE,2402351,NU,3.4,1,NA,10.3,1,-0.6,1,NA,NA,NA,14.4,1,NA,NA,5,NA,NA,NA,436.6,0,2021_08
-81.244,68.776,SANIRAJAK,2402353,NU,4.3,0,NA,13.3,0,-0.4,0,NA,NA,NA,84,0,NA,NA,11,NA,NA,NA,426,0,2021_08
-81.243,68.776,HALL BEACH A,2402354,NU,4.3,0,NA,13.4,0,-0.3,0,NA,NA,NA,94.1,0,NA,NA,10,NA,NA,NA,424.8,0,2021_08
-82.908,76.426,GRISE FIORD A,2402360,NU,3.5,0,NA,10.1,0,-0.6,0,NA,NA,NA,NA,NA,NA,NA,NA,NA,NA,NA,450.9,0,2021_08
-81.816,69.365,IGLOOLIK A,2402546,NU,4.6,0,NA,14.2,0,0,0,NA,NA,NA,NA,NA,NA,NA,NA,NA,NA,NA,415,0,2021_08
-68.544,63.747,IQALUIT CLIMATE,2402592,NU,7.2,0,NA,14.3,0,-0.6,0,NA,NA,NA,72.3,0,NA,NA,14,NA,NA,NA,334.5,0,2021_08
-68.556,63.757,IQALUIT A,2402596,NU,7.1,4,NA,14.3,4,0.2,4,NA,NA,NA,NA,NA,NA,NA,NA,NA,NA,NA,293.8,0,2021_08
-103.554,78.792,ISACHSEN (AUT),2402604,NU,0.8,4,NA,9,4,-4.8,4,NA,NA,NA,23.6,4,NA,NA,8,NA,NA,NA,464.5,0,2021_08
-69.877,62.848,KIMMIRUT A,2402673,NU,7.5,0,NA,15.2,0,1.7,0,NA,NA,NA,NA,NA,NA,NA,NA,NA,NA,NA,324,0,2021_08
-65.711,66.143,PANGNIRTUNG,2403049,NU,8,0,NA,17.8,0,1.9,0,NA,NA,NA,109,0,NA,NA,15,NA,NA,NA,309.2,0,2021_08
-65.714,66.145,PANGNIRTUNG A,2403054,NU,8,0,NA,17.8,0,1.8,0,NA,NA,NA,NA,NA,NA,NA,NA,NA,NA,NA,309.9,0,2021_08
-77.958,72.693,POND INLET CLIMATE,2403204,NU,5.1,0,NA,14.6,0,-1.2,0,NA,NA,NA,38.8,0,NA,NA,9,NA,NA,NA,398.7,0,2021_08
-77.969,72.689,POND INLET A,2403206,NU,5.2,0,NA,14.3,0,-0.8,0,NA,NA,NA,35.1,0,NA,NA,9,NA,NA,NA,397,0,2021_08
-105.715,75.377,REA POINT,2403450,NU,1.6,1,NA,7.5,1,-2.1,1,NA,NA,NA,19.4,1,NA,NA,5,NA,NA,NA,493.3,0,2021_08
-86.225,66.521,NAUJAAT A,2403495,NU,6.1,1,NA,13.1,1,1.4,1,NA,NA,NA,NA,NA,NA,NA,NA,NA,NA,NA,356,0,2021_08
-94.969,74.717,RESOLUTE BAY A,2403497,NU,3,0,NA,13,0,-4.2,0,NA,NA,NA,NA,NA,NA,NA,NA,NA,NA,NA,463.7,0,2021_08
-94.969,74.717,RESOLUTE BAY A,2403498,NU,3,9,NA,13,9,-4.2,9,0.8,3,NA,10,3,NA,NA,4,NA,NA,NA,331.1,0,2021_08
-94.983,74.716,RESOLUTE CS,2403505,NU,3.1,0,NA,12.9,0,-4.2,0,NA,NA,NA,14.3,0,NA,NA,2,NA,NA,NA,462.1,0,2021_08
-64.65,61.583,RESOLUTION ISLAND,2403602,NU,5.2,0,NA,16.2,0,-1.3,0,NA,NA,NA,NA,NA,NA,NA,NA,NA,NA,NA,397.5,0,2021_08
-79.033,69.083,ROWLEY ISLAND,2403625,NU,4.2,0,NA,11.3,0,-1.8,0,NA,NA,NA,NA,NA,NA,NA,NA,NA,NA,NA,429,0,2021_08
-105.296,73.766,STEFANSSON ISLAND,2403756,NU,2.1,14,NA,11.5,14,-2.3,14,NA,NA,NA,12.8,14,NA,NA,4,NA,NA,NA,270.6,0,2021_08
-91.816,81.161,SVARTEVAEG,2403833,NU,0.8,2,NA,8.9,2,-5.3,2,NA,NA,NA,19.9,2,NA,22,5,NA,NA,NA,498.4,0,2021_08
-93.577,69.547,TALOYOAK A,2403855,NU,6.5,16,NA,13.9,16,1.8,16,0,16,NA,17,16,NA,NA,3,NA,NA,NA,172.8,0,2021_08
-93.577,69.547,TALOYOAK A,2403856,NU,6,0,NA,13.9,0,-1.6,0,NA,NA,NA,NA,NA,NA,NA,NA,NA,NA,NA,372.6,0,2021_08
-89.446,65.879,WAGER BAY (AUT),2403945,NU,7.9,9,NA,14.1,9,2.3,9,NA,NA,NA,52,10,NA,NA,8,NA,NA,NA,222.3,0,2021_08
-112.161,74.457,CAPE PROVIDENCE,2501419,NT,1.6,3,NA,8.4,3,-2.2,3,NA,NA,NA,19.5,9,NA,NA,3,NA,NA,NA,459.1,0,2021_08
-117.806,70.763,ULUKHAKTOK A,2502503,NT,6.1,0,NA,16.2,0,-1.2,0,NA,NA,NA,NA,NA,NA,NA,NA,NA,NA,NA,367.7,0,2021_08
-117.8,70.761,HOLMAN CS,2502505,NT,6.1,1,NA,16.2,1,-0.4,1,NA,NA,NA,34.2,1,NA,NA,7,NA,NA,NA,356.8,0,2021_08
-125.254,71.993,SACHS HARBOUR CLIMATE,2503648,NT,2.3,0,NA,12.1,0,-3.4,0,NA,NA,NA,35.2,0,NA,NA,7,NA,NA,NA,485.6,0,2021_08
-125.241,71.994,SACHS HARBOUR A,2503649,NT,2.2,2,NA,11.9,2,-3.5,2,NA,NA,NA,NA,NA,NA,NA,NA,NA,NA,NA,459.2,0,2021_08
-119.538,73.231,THOMSEN RIVER,2503886,NT,4,8,NA,13.2,8,-1.9,8,NA,NA,NA,30.9,9,NA,NA,10,NA,NA,NA,321.7,0,2021_08
-119.347,76.238,MOULD BAY CS,250M001,NT,1.3,7,NA,5.5,7,-2.6,7,NA,NA,NA,15.3,6,NA,NA,6,NA,NA,NA,400.4,0,2021_08
-112.967,54.283,ABEE AGDM,3010010,AB,14.7,1,NA,30.6,1,-0.3,1,NA,NA,NA,53.4,3,NA,NA,6,NA,NA,NA,108.3,10.4,2021_08
-111.181,53.113,ALBERT HALL AGCM,3010060,AB,16.8,0,NA,33.5,0,1.7,0,NA,NA,NA,31.8,0,NA,NA,6,NA,NA,NA,71,33.8,2021_08
-111.779,52.315,ALLIANCE AGCM,3010162,AB,17.5,0,NA,36.9,0,1.1,0,NA,NA,NA,14,0,NA,NA,2,NA,NA,NA,65.1,48.7,2021_08
-112.279,53.917,ANDREW AGDM,3010237,AB,16,1,NA,31.7,1,2,1,NA,NA,NA,58.9,3,NA,NA,8,NA,NA,NA,81.9,22.3,2021_08
-111.465,52.582,BELLSHILL AGCM,3010650,AB,17.5,1,NA,35.6,1,4.2,1,NA,NA,NA,28,1,NA,NA,3,NA,NA,NA,59.2,43.4,2021_08
-110.101,52.124,BODO AGDM,3010730,AB,18.5,0,NA,37.9,0,3.9,0,NA,NA,NA,41.3,0,NA,NA,8,NA,NA,NA,51.9,68.6,2021_08
-114.441,53.089,BRETON PLOTS,3010816,AB,15.8,1,NA,31.5,1,2.1,1,NA,NA,NA,63.2,7,NA,NA,6,NA,NA,NA,88.6,21.4,2021_08
-113.922,53.931,BUSBY AGCM,3010979,AB,15.8,0,NA,32.2,0,0.9,0,NA,NA,NA,41.4,0,NA,NA,9,NA,NA,NA,88.1,19.6,2021_08
-110.51,52.334,CADOGAN AGCM,3010992,AB,17.8,0,NA,37.6,0,4,0,NA,NA,NA,21.2,0,NA,NA,2,NA,NA,NA,61.2,56.2,2021_08
-112.817,53.05,CAMROSE,3011240,AB,16.2,0,0.3,32.7,0,1.4,0,NA,NA,NA,51.3,0,100,NA,5,NA,NA,NA,76,18.8,2021_08
-110.713,51.937,CONSORT AGDM,3011815,AB,17.9,0,NA,37.4,0,3.6,0,NA,NA,NA,14,20,NA,NA,2,NA,NA,NA,60.7,59,2021_08
-111.449,52.074,CORONATION CLIMATE,3011887,AB,16.7,0,NA,37.6,0,-0.7,0,NA,NA,NA,10.9,0,NA,NA,5,NA,NA,NA,79.8,38.1,2021_08
-113.903,52.733,CRESTOMERE AGCM,3011892,AB,15.8,0,NA,32.5,0,0.5,0,NA,NA,NA,82.9,2,NA,NA,4,NA,NA,NA,84.8,16.3,2021_08
-113.176,52.183,DELBURNE AGCM,3012050,AB,16.7,0,NA,35.6,0,4.3,0,NA,NA,NA,70.3,3,NA,NA,11,NA,NA,NA,72.1,30.8,2021_08
-110.588,53.659,DEWBERRY AGCM,3012073,AB,17.2,0,NA,33,0,2.7,0,NA,NA,NA,38.2,3,NA,NA,6,NA,NA,NA,61.3,37.1,2021_08
-110.433,52.778,EDGERTON AGCM,3012192,AB,17.5,1,NA,36.4,1,4.4,1,NA,NA,NA,21.3,1,NA,NA,5,NA,NA,NA,60,44.4,2021_08
-113.606,53.307,EDMONTON INTERNATIONAL CS,3012206,AB,15.3,11,NA,31.7,11,1.1,11,NA,NA,NA,45.3,11,NA,NA,2,NA,NA,NA,65.3,10.8,2021_08
-113.517,53.573,EDMONTON BLATCHFORD,3012209,AB,18,0,NA,32.8,0,6.5,0,NA,NA,NA,39,0,NA,NA,3,NA,NA,NA,43.1,42.1,2021_08
-113.467,53.667,EDMONTON NAMAO AWOS A,3012212,AB,16.8,1,NA,32.4,1,3.4,1,NA,NA,NA,48.5,0,NA,NA,9,NA,NA,NA,63.6,28.9,2021_08
-113.579,53.31,EDMONTON INTL A,3012216,AB,15.7,0,NA,31.7,0,1,0,0,0,NA,49.5,0,NA,NA,4,NA,NA,NA,86.8,14.2,2021_08
-113.538,53.49,EDMONTON SOUTH CAMPUS,3012220,AB,18.2,0,NA,33.2,0,7.1,0,NA,NA,NA,38.3,0,NA,NA,4,NA,NA,NA,41.4,46.3,2021_08
-113.856,53.668,EDMONTON VILLENEUVE A,3012229,AB,16.7,1,NA,32.2,1,4.2,1,NA,NA,NA,34.6,1,NA,NA,5,NA,NA,NA,63.8,24.4,2021_08
-114.108,53.548,EDMONTON STONY PLAIN,301222F,AB,17.5,0,1.5,32,0,5,0,0,0,0,49.8,0,79,0,6,NA,NA,NA,54.8,40.1,2021_08
-112.868,53.683,ELK ISLAND NAT PARK,3012275,AB,16.8,0,1.1,32.1,0,5.3,0,NA,NA,NA,63.5,0,121,NA,7,NA,NA,NA,68.5,30.8,2021_08
-111,52.967,FABYAN,3012515,AB,17.5,0,1.5,34,0,5,0,0,0,0,32.2,0,53,0,7,NA,NA,NA,59.7,43.4,2021_08
-112.858,52.744,FERINTOSH AGCM,3012590,AB,15.7,0,NA,33.2,0,-0.2,0,NA,NA,NA,47.9,0,NA,NA,3,NA,NA,NA,86,15.2,2021_08
-111.813,52.041,FLEET AGCM,3012635,AB,17,0,NA,37,0,1.8,0,NA,NA,NA,27.9,1,NA,NA,4,NA,NA,NA,73.7,41.7,2021_08
-112.123,52.548,FORESTBURG AGCM,3012653,AB,17,0,NA,35.5,0,1.5,0,NA,NA,NA,13.5,0,NA,NA,3,NA,NA,NA,63.4,33.4,2021_08
-113.183,53.717,FORT SASKATCHEWAN,3012710,AB,19.9,10,3.9,35,8,6,10,0,8,NA,37.4,8,NA,0,5,NA,NA,NA,11.7,50.7,2021_08
-110.621,53.071,GILT EDGE NORTH AGCM,3012790,AB,17.6,1,NA,34.9,1,4.3,1,NA,NA,NA,45.6,1,NA,NA,6,NA,NA,NA,56.4,43.6,2021_08
-114.32,53.295,ST. FRANCIS,3012799,AB,17,0,NA,31.9,0,5.8,0,NA,NA,NA,45.8,0,NA,NA,7,NA,NA,NA,64.9,32.8,2021_08
-112.278,52.987,GLADSTONE AGCM,3012810,AB,16.1,0,NA,33.1,0,0.3,0,NA,NA,NA,42.6,1,NA,NA,4,NA,NA,NA,79.5,19.2,2021_08
-114.539,53.833,GLENEVIS AGCM,3012818,AB,16.5,0,NA,32.5,0,3.2,0,NA,NA,NA,NA,NA,NA,NA,NA,NA,NA,NA,74.2,26.7,2021_08
-110.803,52.113,GOOSEBERRY LAKE AGCM,3012871,AB,17,0,NA,37.6,0,-0.6,0,NA,NA,NA,16.1,1,NA,NA,5,NA,NA,NA,79.8,47.6,2021_08
-112.164,52.116,HALKIRK AGCM,3012999,AB,16.5,0,NA,36.9,0,0.8,0,NA,NA,NA,23.2,25,NA,NA,3,NA,NA,NA,78.5,32.2,2021_08
-111.212,51.78,HEMARUKA AGCM,3013140,AB,17.1,0,NA,37.4,0,2.3,0,NA,NA,NA,21.4,10,NA,NA,3,NA,NA,NA,74,45.2,2021_08
-112.246,53.185,HOLDEN AGDM,3013340,AB,16.6,0,NA,33,0,2.3,0,NA,NA,NA,54,14,NA,NA,3,NA,NA,NA,69.3,25.9,2021_08
-110.784,52.578,HUGHENDEN AGCM,3013362,AB,17.6,0,NA,36.7,0,3.9,0,NA,NA,NA,20.4,1,NA,NA,2,NA,NA,NA,60.1,49,2021_08
-111.872,52.848,KILLAM AGDM,3013640,AB,17.1,0,NA,34.5,0,0.7,0,NA,NA,NA,NA,NA,NA,NA,NA,NA,NA,NA,63.8,35.6,2021_08
-111.113,52.29,KESSLER AGCM,3013644,AB,17.2,0,NA,37.2,0,0.9,0,NA,NA,NA,NA,NA,NA,NA,NA,NA,NA,NA,72.1,48.4,2021_08
-111.548,53.047,KINSELLA RESEARC STATION,3013647,AB,16.6,0,NA,33.1,0,0.6,0,NA,NA,NA,24.5,0,NA,NA,4,NA,NA,NA,75.6,31,2021_08
-110.416,53.353,KITSCOTY AGCM,3013660,AB,17.5,1,NA,33.6,1,4.4,1,NA,NA,NA,25.5,1,NA,NA,5,NA,NA,NA,58.2,42.5,2021_08
-113.474,54.003,LEGAL AGCM,3013790,AB,16.5,0,NA,32.6,0,2.6,0,NA,NA,NA,39,0,NA,NA,5,NA,NA,NA,72.4,25.3,2021_08
-110.579,53.943,LINDBERGH AGDM,3013921,AB,16.6,0,NA,32,0,2.3,0,NA,NA,NA,48.3,0,NA,NA,5,NA,NA,NA,68.2,26,2021_08
-110.073,53.309,LLOYDMINSTER,3013959,AB,16.8,1,NA,33.6,1,4.7,1,NA,NA,NA,21.9,2,NA,NA,8,NA,NA,NA,63.9,29,2021_08
-110.073,53.309,LLOYDMINSTER A,3013961,AB,17.1,0,1.2,34,0,5,0,0,0,0,28,0,47,0,8,NA,NA,NA,62.8,35.6,2021_08
-111.255,53.456,MANNVILLE AGCM,3014195,AB,17.2,0,NA,32.6,0,4.5,0,NA,NA,NA,43.4,0,NA,NA,6,NA,NA,NA,65.5,39.9,2021_08
-110.55,52.017,MONITOR,3014600,AB,NA,NA,NA,NA,NA,NA,NA,0,0,NA,39,0,73,0,7,NA,NA,NA,NA,NA,2021_08
-112.3,53.567,MUNDARE AGDM,3014665,AB,17.1,0,NA,32.5,0,4.3,0,NA,NA,NA,56.6,0,NA,NA,6,NA,NA,NA,62.8,34,2021_08
-111.114,53.72,MYRNAM AGCM,3014690,AB,16.8,1,NA,32.9,1,0.1,1,NA,NA,NA,47.4,1,NA,NA,3,NA,NA,NA,68.6,33.8,2021_08
-113.165,53.262,NEW SAREPTA AGCM,3014795,AB,16.1,0,NA,32.4,0,2.7,0,NA,NA,NA,39.5,1,NA,NA,4,NA,NA,NA,80.8,22.7,2021_08
-113.35,53.65,OLIVER AGDM,3014921,AB,16.3,1,NA,32.1,1,2.5,1,NA,NA,NA,NA,NA,NA,NA,NA,NA,NA,NA,75.6,24.6,2021_08
-112.879,53.995,RADWAY AGCM,3015346,AB,16,0,NA,32.5,0,-0.1,0,NA,NA,NA,NA,NA,NA,NA,NA,NA,NA,NA,84.8,21.4,2021_08
-111.726,53.425,RANFURLY AUTO,3015401,AB,17.5,0,NA,33.3,0,4,0,NA,NA,NA,25.3,0,NA,NA,3,NA,NA,NA,58.6,42.2,2021_08
-110.343,52.587,RIBSTONE SOUTH AGCM,3015480,AB,17.1,1,NA,36.6,1,2.7,1,NA,NA,NA,35,1,NA,NA,3,NA,NA,NA,68.8,40.7,2021_08
-110.102,53.019,RIVERCOURSE AGCM,3015501,AB,17,0,NA,34.7,0,3.7,0,NA,NA,NA,27,3,NA,NA,6,NA,NA,NA,67.8,36.8,2021_08
-114.912,52.421,ROCKY MTN HOUSE (AUT),3015523,AB,14.3,0,NA,31.1,0,-0.6,0,NA,NA,NA,87.6,0,NA,NA,9,NA,NA,NA,120.5,6.7,2021_08
-112.422,52.792,ROSALIND AGCM,3015600,AB,16.6,0,NA,34,0,0,0,NA,NA,NA,17.3,4,NA,NA,4,NA,NA,NA,71.1,27,2021_08
-111.453,54.282,ST. LINA AGCM,3015673,AB,16.3,0,NA,30.8,0,1.2,0,NA,NA,NA,46.3,6,NA,NA,6,NA,NA,NA,79.1,25.2,2021_08
-111.272,54.011,ST. PAUL AGCM,3015676,AB,15.5,10,NA,30.9,10,3.6,8,NA,NA,NA,46.7,0,NA,NA,7,NA,NA,NA,61.2,9.5,2021_08
-110.755,51.59,SEDALIA AGCM,3015797,AB,17.8,0,NA,37.6,0,3.3,0,NA,NA,NA,54.6,0,NA,NA,4,NA,NA,NA,60.8,55.9,2021_08
-112.539,53.333,SHONTS AGCM,3015900,AB,15.9,1,NA,33,1,0.3,1,NA,NA,NA,50,2,NA,NA,5,NA,NA,NA,81.3,19.1,2021_08
-112.499,54.278,SMOKY LAKE AGDM,3016022,AB,16.1,0,NA,31.6,0,3.9,0,NA,NA,NA,67.2,0,NA,NA,6,NA,NA,NA,86.3,27,2021_08
-111.683,51.816,SPONDIN AGCM,3016070,AB,16.8,0,NA,37.3,0,0.8,0,NA,NA,NA,28,21,NA,NA,4,NA,NA,NA,78.2,42.3,2021_08
-112.596,52.347,STETTLER AGDM,3016124,AB,16.9,0,NA,36.8,0,2.5,0,NA,NA,NA,20.7,4,NA,NA,5,NA,NA,NA,68.6,35.9,2021_08
-113.895,53.217,THORSBY AGCM,3016441,AB,15.9,0,NA,32.3,0,2,0,NA,NA,NA,48.3,0,NA,NA,4,NA,NA,NA,84.5,20.7,2021_08
-114.718,53.439,TOMAHAWK AGDM,3016505,AB,16.1,1,NA,32.4,1,4.6,1,NA,NA,NA,44.1,1,NA,NA,5,NA,NA,NA,80.7,24.4,2021_08
-110.081,53.664,TULLIBY LAKE AGCM,3016593,AB,17.1,0,NA,33.2,0,2.5,0,NA,NA,NA,34.8,0,NA,NA,6,NA,NA,NA,62.1,34.6,2021_08
-113.033,53.5,UNCAS,3016650,AB,NA,NA,NA,NA,NA,NA,NA,0,0,NA,49.6,0,NA,0,4,NA,NA,NA,NA,NA,2021_08
-111.678,53.625,TWO HILLS AGDM,3016655,AB,17.3,0,NA,32,0,3.4,0,NA,NA,NA,50.3,0,NA,NA,3,NA,NA,NA,64,41.3,2021_08
-110.882,53.344,VERMILION AGDM,3016802,AB,17.4,0,NA,32.8,0,2.1,0,NA,NA,NA,44.4,0,NA,NA,6,NA,NA,NA,63.2,43.1,2021_08
-111.732,53.182,VIKING AGCM,3016841,AB,16.9,1,NA,33.1,1,2.5,1,NA,NA,NA,26.1,1,NA,NA,4,NA,NA,NA,64.7,32.9,2021_08
-111.921,54.13,VILNA AGCM,3016852,AB,16.1,0,NA,31.5,0,1.6,0,NA,NA,NA,65.8,1,NA,NA,8,NA,NA,NA,81.7,21.5,2021_08
-115.126,53.144,VIOLET GROVE CS,3016860,AB,16,0,NA,32,0,3.1,0,NA,NA,NA,68.9,0,NA,NA,5,NA,NA,NA,83.8,23,2021_08
-112.098,53.505,VEGREVILLE,3016GF0,AB,16.7,0,1.1,32.6,0,0.9,0,NA,NA,NA,41.5,0,80,NA,5,NA,NA,NA,69.6,28.9,2021_08
-113.444,52.98,WETASKIWIN AGCM,3017282,AB,15.4,1,NA,32.9,1,1,1,NA,NA,NA,61.9,17,NA,NA,5,NA,NA,NA,94.9,15.7,2021_08
-111.224,51.491,YOUNGSTOWN AGCM,3017705,AB,17.6,0,NA,36.9,0,3.9,0,NA,NA,NA,28.5,2,NA,NA,4,NA,NA,NA,64.2,52.3,2021_08
-114.108,53.547,EDMONTON STONY PLAIN CS,301A001,AB,17,1,NA,32.1,1,4.6,1,NA,NA,NA,45,1,NA,NA,5,NA,NA,NA,62.6,33.1,2021_08
-110.206,51.67,ESTHER 1,301B460,AB,18.2,0,NA,38,0,3.3,0,NA,NA,NA,61.3,0,NA,NA,5,NA,NA,NA,56.2,62.2,2021_08
-111.096,52.829,WAINWRIGHT CFB AIRFIELD 21,301S001,AB,17.9,0,NA,35.3,0,4.6,0,NA,NA,NA,17.7,0,NA,NA,3,NA,NA,NA,56.6,52,2021_08
-110.317,51.066,ACADIA VALLEY,3020035,AB,18.6,0,NA,37.3,0,4.4,0,NA,NA,NA,26.5,0,NA,NA,6,NA,NA,NA,48,65.6,2021_08
-111.006,50.81,ATLEE AGCM,3020405,AB,18.4,0,NA,36.5,0,5,0,NA,NA,NA,46.8,0,NA,NA,7,NA,NA,NA,50.1,62.6,2021_08
-113.357,51.379,BEISEKER AGCM,3020610,AB,15.9,0,NA,34.8,0,1.5,0,NA,NA,NA,42.5,0,NA,NA,7,NA,NA,NA,86.6,21.5,2021_08
-112.803,51.998,BIG VALLEY AGCM,3020679,AB,17.4,0,NA,37,0,3.9,0,NA,NA,NA,46.3,0,NA,NA,8,NA,NA,NA,59.1,40.8,2021_08
-110.686,50.798,BUFFALO AGCM,3020950,AB,18.6,0,NA,37.8,0,4.5,0,NA,NA,NA,27.3,0,NA,NA,6,NA,NA,NA,47.4,65.9,2021_08
-111.221,51.024,CABIN LAKE AGCM,3021000,AB,18.1,0,NA,37.4,0,3.3,0,NA,NA,NA,NA,NA,NA,NA,NA,NA,NA,NA,51.3,54.2,2021_08
-110.797,51.067,CAPPON,3021200,AB,17.9,0,NA,37.7,0,3.6,0,NA,NA,NA,29.7,2,NA,NA,7,NA,NA,NA,56.4,52.8,2021_08
-110.824,51.276,CEREAL AGCM,3021463,AB,18,0,NA,36.8,0,2.7,0,NA,NA,NA,58.5,0,NA,NA,5,NA,NA,NA,56.4,55.9,2021_08
-112.252,51.775,CRAIGMYLE AGCM,3021912,AB,17.2,0,NA,37,0,3,0,NA,NA,NA,28.3,0,NA,NA,7,NA,NA,NA,67.2,43.1,2021_08
-112.677,51.445,DRUMHELLER EAST,30221LG,AB,19,1,NA,37.7,1,5.2,1,NA,NA,NA,57,1,NA,NA,6,NA,NA,NA,34.8,64.8,2021_08
-112.097,51.053,FINNEGAN AGCM,3022650,AB,17.6,1,NA,36.6,1,1.3,1,NA,NA,NA,NA,NA,NA,NA,NA,NA,NA,NA,57.1,46,2021_08
-112.135,51.453,HAND HILLS AGCM,3022990,AB,16.6,0,NA,35.1,0,3.2,0,NA,NA,NA,45.5,0,NA,NA,5,NA,NA,NA,80.5,38.3,2021_08
-114.486,52.31,HESPERO AGCM,3023200,AB,15.1,0,NA,33.8,0,-0.2,0,NA,NA,NA,71.5,2,NA,NA,7,NA,NA,NA,101.6,12.4,2021_08
-112.5,51.183,HUSSAR AGDM,3023402,AB,17,0,NA,34.9,0,3.5,0,NA,NA,NA,54.4,7,NA,NA,5,NA,NA,NA,76.5,45.1,2021_08
-110.359,51.913,KIRRIEMUIR AGCM,3023660,AB,17.9,0,NA,37.7,0,3.6,0,NA,NA,NA,42.4,8,NA,NA,4,NA,NA,NA,60.9,57.5,2021_08
-113.756,52.449,LACOMBE CDA 2,3023722,AB,15.9,0,NA,34.1,0,1.8,0,NA,NA,NA,62.2,0,NA,NA,4,NA,NA,NA,84.4,19.1,2021_08
-114.473,52.553,LEEDALE AGDM,3023740,AB,14.1,0,NA,30.2,0,0.6,0,NA,NA,NA,75.5,0,NA,NA,7,NA,NA,NA,125,3.5,2021_08
-113.656,51.619,LINDEN AGCM,3023850,AB,15.4,0,NA,35,0,-0.4,0,NA,NA,NA,92.9,0,NA,NA,8,NA,NA,NA,97.8,18.3,2021_08
-110.341,49.458,LODGE CREEK,3023900,AB,16.7,0,NA,34,0,0.3,0,NA,NA,NA,40.7,1,NA,NA,6,NA,NA,NA,83.3,41.5,2021_08
-112.675,51.66,MORRIN AGDM,3024668,AB,17.1,1,NA,36.6,1,2.3,1,NA,NA,NA,7.9,23,NA,NA,2,NA,NA,NA,67.4,39.9,2021_08
-114.085,51.759,OLDS AGDM,3024925,AB,15.8,0,NA,33.9,0,2.7,0,NA,NA,NA,76.6,2,NA,NA,10,NA,NA,NA,95,27.5,2021_08
-110.35,51.383,OYEN AGDM,3024965,AB,18,0,NA,37.6,0,4.7,0,NA,NA,NA,49.7,1,NA,NA,5,NA,NA,NA,58.8,59.9,2021_08
-111.621,50.74,PATRICIA AGCM,3025013,AB,18.1,0,NA,37.2,0,4,0,NA,NA,NA,33,1,NA,NA,3,NA,NA,NA,51.5,53.2,2021_08
-111.705,51.125,POLLOCKVILLE AGDM,3025243,AB,17.8,0,NA,37.3,0,1.1,0,NA,NA,NA,36.9,0,NA,NA,3,NA,NA,NA,54.4,47.9,2021_08
-113.6,52.433,PRENTISS,3025297,AB,16.3,0,NA,34.2,0,4.7,0,NA,NA,NA,73,0,NA,NA,5,NA,NA,NA,77.8,26.6,2021_08
-113.894,52.182,RED DEER REGIONAL A,3025484,AB,15.7,0,NA,34,0,1.8,0,NA,NA,NA,98.1,0,NA,NA,10,NA,NA,NA,91.6,18.9,2021_08
-113.62,53.692,ST. ALBERT RESEARCH STATION,3025750,AB,16,0,NA,32.3,0,1.6,0,NA,NA,NA,54.4,0,NA,NA,7,NA,NA,NA,84.2,22.5,2021_08
-110.091,50.307,SCHULER AGDM,3025768,AB,18.3,0,NA,36.8,0,2.4,0,NA,NA,NA,30.4,2,NA,NA,6,NA,NA,NA,53.3,63.6,2021_08
-111.646,51.463,SHEERNESS AGCM,3025890,AB,17.8,0,NA,35.9,0,4.6,0,NA,NA,NA,29,0,NA,NA,6,NA,NA,NA,61,55.3,2021_08
-111.388,51.301,SUNNYNOOK AGCM,3026264,AB,17.1,0,NA,36.6,0,0.8,0,NA,NA,NA,33.3,3,NA,NA,3,NA,NA,NA,70.8,42.1,2021_08
-113.206,51.768,THREE HILLS,3026479,AB,16.4,1,NA,36.5,1,1.3,1,NA,NA,NA,66,3,NA,NA,7,NA,NA,NA,73.2,24.1,2021_08
-111.955,50.895,VERGER,3026800,AB,17.2,0,NA,35.1,0,1.2,0,NA,NA,NA,35.9,0,NA,NA,2,NA,NA,NA,64.2,38.8,2021_08
-114.683,51.778,SUNDRE A,3026KNQ,AB,14.5,0,NA,33.8,0,0.1,0,NA,NA,NA,NA,NA,NA,NA,NA,NA,NA,NA,120.4,12.7,2021_08
-113.591,51.936,WIMBORNE AGCM,3027582,AB,16,0,NA,34.2,0,1.7,0,NA,NA,NA,76,0,NA,NA,9,NA,NA,NA,85.5,24.1,2021_08
-113.434,49.528,ARDENVILLE,3030200,AB,17.6,0,NA,34.1,0,2.1,0,NA,NA,NA,63,1,NA,NA,7,NA,NA,NA,73.7,60,2021_08
-114.013,50.512,AZURE,3030450,AB,16.8,0,NA,35.4,0,2.8,0,NA,NA,NA,63.3,6,NA,NA,5,NA,NA,NA,80.1,41.6,2021_08
-112.3,49.8,BARNWELL AGDM,3030525,AB,18.2,1,NA,35.6,1,2.7,1,NA,NA,NA,45.7,1,NA,NA,6,NA,NA,NA,50.6,55.4,2021_08
-113.224,50.026,BARONS AGCM,3030529,AB,17.3,0,NA,35.8,0,3,0,NA,NA,NA,48.1,9,NA,NA,5,NA,NA,NA,63.1,42.8,2021_08
-112.465,50.893,BASSANO AGCM,3030540,AB,17.5,0,NA,35.8,0,0.7,0,NA,NA,NA,33.3,0,NA,NA,3,NA,NA,NA,61.7,47.5,2021_08
-114.152,50.707,BLACK DIAMOND,3030680,AB,15.9,0,NA,35.6,0,0.9,0,NA,NA,NA,59.7,4,NA,NA,4,NA,NA,NA,93.7,27.3,2021_08
-113.64,50.546,BLACKIE AGCM,3030690,AB,16.4,0,NA,36.5,0,-0.5,0,NA,NA,NA,51.6,2,NA,NA,5,NA,NA,NA,81.7,32.8,2021_08
-113.05,49.567,BLOOD TRIBE AGDM,3030720,AB,17.1,0,NA,34.6,0,2.2,0,NA,NA,NA,47.6,2,NA,NA,5,NA,NA,NA,75.6,48.4,2021_08
-111.45,49.734,BOW ISLAND,3030768,AB,18.4,0,NA,36,0,4.3,0,NA,NA,NA,23.1,0,NA,NA,6,NA,NA,NA,47.7,60.4,2021_08
-111.366,49.868,BOW ISLAND IRRIGATION AGDM,3030772,AB,18.7,0,NA,36.6,0,5.2,0,NA,NA,NA,26.3,1,NA,NA,6,NA,NA,NA,43.8,66,2021_08
-113.817,49.617,BROCKET AGDM,3030830,AB,17.1,0,NA,34.6,0,1.6,0,NA,NA,NA,81.1,0,NA,NA,5,NA,NA,NA,75.8,49.4,2021_08
-110.484,50.339,BULL SPRINGS AGCM,3030879,AB,18.7,0,NA,36.6,0,4.1,0,NA,NA,NA,22.9,0,NA,NA,5,NA,NA,NA,46.8,67.3,2021_08
-111.849,50.555,BROOKS,3030QLP,AB,18,0,NA,35.9,0,2.1,0,NA,NA,NA,31,0,NA,NA,3,NA,NA,NA,49.8,51.3,2021_08
-114.013,51.123,CALGARY INTL A,3031092,AB,17.4,2,NA,34.2,2,4.5,2,0,1,NA,76.6,0,NA,NA,8,NA,NA,NA,65.3,48.3,2021_08
-114,51.109,CALGARY INT'L CS,3031094,AB,16.6,0,NA,34,0,4.6,0,NA,NA,NA,70.2,0,NA,NA,7,NA,NA,NA,82.4,38.9,2021_08
-114.371,51.105,CALGARY SPRINGBANK A,3031109,AB,15.1,0,NA,33.1,0,0.5,0,NA,NA,NA,49.3,1,NA,NA,6,NA,NA,NA,107.1,16.9,2021_08
-113.286,49.201,CARDSTON,3031322,AB,17.3,1,NA,33.3,1,2.8,1,NA,NA,NA,59,1,NA,NA,5,NA,NA,NA,74.9,54.1,2021_08
-113.376,49.001,CARWAY,3031402,AB,16,0,NA,32.4,0,1.2,0,NA,NA,NA,88,0,NA,NA,7,NA,NA,NA,98.7,37.8,2021_08
-113.35,50.282,CHAMPION AGDM,3031480,AB,17.2,0,NA,36.5,0,3.4,0,NA,NA,NA,50.6,0,NA,NA,5,NA,NA,NA,69.9,44.9,2021_08
-113.639,50.004,CLARESHOLM,3031640,AB,17.5,0,NA,36.6,0,0.3,0,NA,NA,NA,60.5,0,NA,NA,6,NA,NA,NA,64.5,48.1,2021_08
-114.222,51.076,COP UPPER,3031875,AB,16.9,0,NA,34.5,0,4.4,0,NA,NA,NA,NA,NA,NA,NA,NA,NA,NA,NA,80.5,46.3,2021_08
-112.433,50.183,ENCHANT AGDM,3032422,AB,18.3,0,NA,36,0,2.4,0,NA,NA,NA,32.9,0,NA,NA,4,NA,NA,NA,48.4,56.7,2021_08
-111.054,49.553,ETZIKOM AGCM,3032450,AB,18.3,0,NA,36.3,0,2.9,0,NA,NA,NA,20.9,1,NA,NA,7,NA,NA,NA,50.4,61.2,2021_08
-112.033,49.8,FINCASTLE AGDM,3032550,AB,18.4,0,NA,36.7,0,3.7,0,NA,NA,NA,58.2,2,NA,NA,7,NA,NA,NA,48,60.7,2021_08
-111.486,49.483,FOREMOST AGDM,3032642,AB,18.5,0,NA,36,0,3.5,0,NA,NA,NA,33.3,1,NA,NA,4,NA,NA,NA,49.7,65.8,2021_08
-113.379,49.786,FORT MACLEOD AGCM,3032683,AB,17.4,0,NA,34.6,0,1.4,0,NA,NA,NA,56,3,NA,NA,6,NA,NA,NA,67.7,47.9,2021_08
-112.941,50.934,GLEICHEN AGCM,3032801,AB,17.1,0,NA,35.1,0,4.7,0,NA,NA,NA,52.1,0,NA,NA,6,NA,NA,NA,68.6,40.6,2021_08
-111.733,49.874,GRASSY LAKE,3032927,AB,18.5,0,NA,36.4,0,4.1,0,NA,NA,NA,47.8,1,NA,NA,6,NA,NA,NA,44.8,60.2,2021_08
-112.733,49.9,IRON SPRINGS AGDM,3033498,AB,17.8,0,NA,33.8,0,3.6,0,NA,NA,NA,57.8,2,NA,NA,5,NA,NA,NA,57.8,51.1,2021_08
-114.292,50.869,PRIDDIS OBSERVATORY,3033505,AB,14,13,NA,30.7,13,3.7,13,NA,NA,NA,67.9,13,NA,NA,5,NA,NA,NA,80,8.7,2021_08
-110.261,49.989,IRVINE AGCM,3033550,AB,19.5,0,NA,37,0,4,0,NA,NA,NA,21.2,0,NA,NA,6,NA,NA,NA,38.7,85,2021_08
-113.631,51.191,KEOMA AGCM,3033620,AB,16,0,NA,35.2,0,0.4,0,NA,NA,NA,56.5,6,NA,NA,6,NA,NA,NA,88.4,27.2,2021_08
-112.299,50.6,LATHOM AGCM,3033770,AB,17.8,0,NA,35.7,0,3.6,0,NA,NA,NA,35.7,16,NA,NA,2,NA,NA,NA,57.8,50.3,2021_08
-112.799,49.63,LETHBRIDGE,3033875,AB,17.9,2,NA,35.8,2,3.4,2,NA,NA,NA,35.6,2,NA,NA,3,NA,NA,NA,55.6,53.4,2021_08
-112.763,49.647,LETHBRIDGE AGTECH AGCM,3033877,AB,17.6,0,NA,35.1,0,3.2,0,NA,NA,NA,36.9,9,NA,NA,4,NA,NA,NA,61.7,49,2021_08
-112.768,49.695,LETHBRIDGE CDA,3033890,AB,19.1,2,NA,36.1,2,0,1,NA,NA,NA,NA,NA,NA,NA,NA,NA,NA,NA,37.5,69.7,2021_08
-112.783,49.7,LETHBRIDGE CDA 2,3033892,AB,NA,NA,NA,NA,NA,NA,NA,0,0,NA,29.2,0,NA,0,6,NA,NA,NA,NA,NA,2021_08
-112.75,49.683,LETHBRIDGE DEMO FARM AGDM,3033897,AB,17.8,0,NA,34.9,0,3.3,0,NA,NA,NA,38.3,4,NA,NA,4,NA,NA,NA,56.2,49.7,2021_08
-110.721,50.019,MEDICINE HAT,3034479,AB,19,1,NA,37.7,1,2.6,1,NA,NA,NA,28.8,1,NA,NA,6,NA,NA,NA,36.6,67.9,2021_08
-110.717,50.025,MEDICINE HAT RCS,3034485,AB,19.2,0,NA,37.7,0,3.5,0,NA,NA,NA,25.8,0,NA,NA,7,NA,NA,NA,37.7,76.3,2021_08
-113.349,50.673,MOSSLEIGH AGCM,3034577,AB,17,0,NA,36.4,0,2.7,0,NA,NA,NA,53,1,NA,NA,5,NA,NA,NA,72.2,40.6,2021_08
-114.099,51.369,NIER AGDM,3034795,AB,15.1,0,NA,34,0,0,0,NA,NA,NA,56.5,3,NA,NA,8,NA,NA,NA,111.8,22,2021_08
-113.997,49.521,PINCHER CREEK,3035198,AB,16.1,2,NA,33.1,2,1.6,2,NA,NA,NA,92.2,2,NA,NA,5,NA,NA,NA,90.7,34.5,2021_08
-114.005,49.522,PINCHER CREEK CLIMATE,3035208,AB,16.2,0,NA,33.3,0,1.6,0,NA,NA,NA,103.5,0,NA,NA,6,NA,NA,NA,93,37.6,2021_08
-112.983,50.606,QUEENSTOWN,3035340,AB,18.1,0,0.9,35,0,5,0,0,0,0,45.8,0,93,0,4,NA,NA,NA,58,61.4,2021_08
-112.803,50.598,QUEENSTOWN,3035342,AB,18,1,NA,35.2,1,4.9,1,NA,NA,NA,42.2,1,NA,NA,4,NA,NA,NA,58.2,57,2021_08
-112.117,50.367,RAINIER AGCM,3035355,AB,18,0,NA,36,0,3,0,NA,NA,NA,33.6,0,NA,NA,4,NA,NA,NA,51.3,52.6,2021_08
-111.213,50.099,RALSTON AGCM,3035362,AB,19,0,NA,36.9,0,4.9,0,NA,NA,NA,24.4,5,NA,NA,6,NA,NA,NA,43.4,75.7,2021_08
-112.683,49.483,RAYMOND AGDM,3035422,AB,18,1,NA,34.9,1,4.6,1,NA,NA,NA,45.2,4,NA,NA,5,NA,NA,NA,61.4,60.5,2021_08
-111.701,50.265,ROLLING HILLS AGCM,3035530,AB,18,0,NA,36.7,0,1.6,0,NA,NA,NA,34,1,NA,NA,5,NA,NA,NA,53.6,53.9,2021_08
-112.05,50.833,ROSEMARY AGDM,3035650,AB,17.1,0,NA,35.8,0,0.5,0,NA,NA,NA,35.8,0,NA,NA,3,NA,NA,NA,65.2,36,2021_08
-110.917,49.917,SEVEN PERSONS AGDM,3035845,AB,18.7,0,NA,37.1,0,2.9,0,NA,NA,NA,25.4,1,NA,NA,5,NA,NA,NA,45.7,65.9,2021_08
-110.215,50.732,SOCIAL PLAINS AGCM,3036040,AB,18.5,0,NA,37.3,0,5,0,NA,NA,NA,22.9,0,NA,NA,7,NA,NA,NA,50.8,66.6,2021_08
-112.982,51.228,STANDARD AGCM,3036086,AB,17.5,0,NA,34.8,0,5,0,NA,NA,NA,59.6,2,NA,NA,7,NA,NA,NA,65.5,50.4,2021_08
-113.883,50.183,STAVELY AAFC,3036099,AB,16.6,0,NA,34.1,0,4.6,0,NA,NA,NA,87.1,0,NA,NA,8,NA,NA,NA,87.6,43,2021_08
-113.283,51.033,STRATHMORE AGDM,3036205,AB,17,0,NA,33.9,0,4.8,0,NA,NA,NA,42.8,3,NA,NA,3,NA,NA,NA,72.6,43,2021_08
-112.124,49.792,TABER,3036360,AB,15.7,18,NA,36.5,14,3.5,15,0,14,NA,55,14,NA,0,3,NA,NA,NA,34.9,5.1,2021_08
-111.321,50.456,TIDE LAKE AGCM,3036485,AB,18.4,0,NA,36.7,0,4.9,0,NA,NA,NA,34.5,0,NA,NA,6,NA,NA,NA,50,63.4,2021_08
-112.863,50.304,TRAVERS AGCM,3036500,AB,18.3,1,NA,35.4,1,3.7,1,NA,NA,NA,36.9,1,NA,NA,4,NA,NA,NA,54.5,62.2,2021_08
-112.133,50.05,VAUXHALL CDA CS,3036682,AB,18.2,0,NA,34.8,0,2.9,0,NA,NA,NA,NA,NA,NA,NA,NA,NA,NA,NA,50.5,55.2,2021_08
-112.117,49.5,WRENTHAM AGDM,3037675,AB,18.3,1,NA,36.3,1,4.4,1,NA,NA,NA,43,1,NA,NA,7,NA,NA,NA,55.5,63.9,2021_08
-113.961,50.729,OKOTOKS,303M9JM,AB,17.8,0,1.6,36.5,0,3,0,0,0,0,56.4,0,91,0,6,NA,NA,NA,57.3,51.1,2021_08
-112.788,49.871,PICTURE BUTTE WEST,303N1G3,AB,17.1,0,NA,34,0,2.5,0,0,0,NA,49.2,0,NA,0,8,NA,NA,NA,70.8,42.3,2021_08
-112.817,49.05,DEL BONITA AGDM,3042045,AB,16.2,0,NA,32.9,0,2.6,0,NA,NA,NA,66.9,1,NA,NA,8,NA,NA,NA,97.5,40.8,2021_08
-110.678,49.364,MANYBERRIES AGCM,3044203,AB,17.9,0,NA,35.4,0,3.2,0,NA,NA,NA,24,0,NA,NA,9,NA,NA,NA,64,59.4,2021_08
-111.652,49.137,MASINASIN AGDM,3044232,AB,18.6,0,NA,36.3,0,2.7,0,NA,NA,NA,43.5,1,NA,NA,5,NA,NA,NA,55.8,75.5,2021_08
-112.05,49.133,MILK RIVER,3044533,AB,17.4,0,NA,35.5,0,2.8,0,NA,NA,NA,44.2,0,NA,NA,7,NA,NA,NA,74.2,56.2,2021_08
-110.467,49.117,ONEFOUR CDA,3044923,AB,18.7,0,NA,36.1,0,4.1,0,NA,NA,NA,25.8,0,NA,NA,6,NA,NA,NA,55.4,75.9,2021_08
-111.126,49.225,PAKOWKI LAKE AGCM,3045000,AB,18.4,0,NA,36.1,0,3.7,0,NA,NA,NA,40.5,1,NA,NA,9,NA,NA,NA,52.2,64.6,2021_08
-111.025,49.029,PINHORN AGCM,3045100,AB,17.9,0,NA,34.9,0,3.6,0,NA,NA,NA,41.1,1,NA,NA,7,NA,NA,NA,64.8,61.6,2021_08
-112.16,49.283,WARNER AGCM,3046951,AB,18.2,0,NA,35.7,0,4.2,0,NA,NA,NA,39.7,3,NA,NA,7,NA,NA,NA,62.5,67.6,2021_08
-115.552,51.193,BANFF CS,3050519,AB,14.8,0,NA,32.2,0,0,0,NA,NA,NA,53.3,0,NA,NA,10,NA,NA,NA,117.2,18.2,2021_08
-114.175,49.468,BEAVER MINES,3050602,AB,15.5,0,NA,31.5,0,0.8,0,NA,NA,NA,117.1,0,NA,NA,7,NA,NA,NA,107.9,29.7,2021_08
-115.067,51.083,BOW VALLEY,3050778,AB,15.8,0,NA,34.2,0,0.8,0,NA,NA,NA,NA,NA,NA,NA,NA,NA,NA,NA,94.4,27.7,2021_08
-114.482,49.628,CROWSNEST,3051R4R,AB,14.1,0,NA,30.3,0,-1.5,0,NA,NA,NA,97,2,NA,NA,10,NA,NA,NA,132.5,11.7,2021_08
-118.03,52.926,JASPER WARDEN,3053536,AB,14.5,0,NA,33.4,0,-1.7,0,NA,NA,NA,77,0,NA,NA,7,NA,NA,NA,118.5,10.8,2021_08
-115.035,51.028,KANANASKIS,3053600,AB,15.1,0,1.3,33,0,0.5,0,0,0,0,52.2,0,74,0,6,NA,NA,NA,110.1,19.3,2021_08
-116.04,52.492,NORDEGG CS,3054843,AB,13.3,0,NA,31.4,0,-0.8,0,NA,NA,NA,120.7,0,NA,NA,10,NA,NA,NA,151.5,4.5,2021_08
-114.416,50.368,PEKISKO,3055119,AB,13.9,7,NA,31.7,7,-0.3,7,NA,NA,NA,85.6,9,NA,NA,7,NA,NA,NA,109.8,11.6,2021_08
-113.809,49.131,WATERTON PARK GATE,3056214,AB,16,0,NA,33.5,0,-0.9,0,NA,NA,NA,95.2,0,NA,NA,8,NA,NA,NA,100.4,38.3,2021_08
-115.787,54.144,WHITECOURT A,3057376,AB,15.5,0,NA,32.1,0,3,0,NA,NA,NA,NA,NA,NA,NA,NA,NA,NA,NA,98.1,19.2,2021_08
-115.19,50.943,NAKISKA RIDGETOP,305MGFF,AB,9.3,0,NA,24.9,0,-1.5,0,NA,NA,NA,NA,NA,NA,NA,NA,NA,NA,NA,272.8,2.4,2021_08
-113.382,54.635,ATHABASCA AGCM,3060330,AB,15.9,0,NA,32.5,0,1,0,NA,NA,NA,21.5,21,NA,NA,4,NA,NA,NA,88.2,22.5,2021_08
-112.825,54.782,ATMORE AGDM,3060406,AB,15.4,1,NA,32.2,1,-0.9,1,NA,NA,NA,40.4,1,NA,NA,8,NA,NA,NA,97.9,18.5,2021_08
-114.448,54.095,BARRHEAD CS,3060535,AB,16,0,NA,33.1,0,2,0,NA,NA,NA,25.7,0,NA,NA,6,NA,NA,NA,82.5,20.2,2021_08
-117.867,53.35,BRULE BLACK CAT,3060903,AB,14.7,1,1.4,32.5,1,-2,0,0,0,NA,127.4,0,142,0,10,NA,NA,NA,111.2,11.7,2021_08
-114.678,54.131,CAMPSIE AUTO,3061201,AB,15.1,2,NA,33.4,2,0.4,2,NA,NA,NA,24.3,2,NA,NA,5,NA,NA,NA,95.8,11.4,2021_08
-115.894,53.623,CARROT CREEK,3061350,AB,14.5,0,NA,32,0,-1,0,NA,NA,NA,68.8,0,NA,NA,9,NA,NA,NA,120.3,10.7,2021_08
-113.95,54.317,DAPP AGDM,3061975,AB,13.5,8,NA,30.4,8,0.5,8,NA,NA,NA,13.8,8,NA,NA,3,NA,NA,NA,104.4,1.1,2021_08
-116.465,53.579,EDSON,3062239,AB,14.6,0,NA,32.5,0,-1,0,NA,NA,NA,81.8,0,NA,NA,9,NA,NA,NA,116.4,11.9,2021_08
-116.453,53.58,EDSON CLIMATE,3062246,AB,14.7,0,NA,32.6,0,-0.9,0,NA,NA,NA,82.5,0,NA,NA,9,NA,NA,NA,114.8,12,2021_08
-114.983,53.6,ENTWISTLE,3062451,AB,17.5,6,2.1,34,6,4,6,0,6,NA,41,6,NA,0,8,NA,NA,NA,40,27.5,2021_08
-115.062,53.614,EVANSBURG2 AGCM,3062476,AB,14.3,0,NA,32,0,-2.4,0,NA,NA,NA,44.8,0,NA,NA,7,NA,NA,NA,122.3,8.1,2021_08
-114.769,54.41,FORT ASSINIBOINE AGCM,3062660,AB,15.4,0,NA,33.1,0,0.7,0,NA,NA,NA,29.6,0,NA,NA,11,NA,NA,NA,99,18.6,2021_08
-111.213,56.651,FORT MCMURRAY CS,3062696,AB,15.9,0,NA,32.9,0,1.1,0,NA,NA,NA,101.2,0,NA,NA,10,NA,NA,NA,87.8,21.5,2021_08
-111.223,56.653,FORT MCMURRAY A,3062697,AB,16,0,NA,33,0,1.6,0,NA,NA,NA,102.9,0,NA,NA,11,NA,NA,NA,83.9,23.2,2021_08
-118.447,53.795,HENDRICKSON CREEK,3063135,AB,10.2,0,NA,28.5,0,-4.9,0,NA,NA,NA,101.8,0,NA,NA,10,NA,NA,NA,241.4,0,2021_08
-116.479,55.396,HIGH PRAIRIE AGDM,3063165,AB,15.4,0,NA,33,0,0.3,0,NA,NA,NA,75.6,2,NA,NA,6,NA,NA,NA,101.5,21.6,2021_08
-113.543,54.821,ISLAND LAKE SOUTH,3063600,AB,15.9,0,NA,32.9,0,2.3,0,NA,NA,NA,29.8,0,NA,NA,8,NA,NA,NA,86.5,21.5,2021_08
-112.981,54.563,KINIKINIK,3063640,AB,16.4,0,NA,32.5,0,1.7,0,NA,NA,NA,25.6,1,NA,NA,6,NA,NA,NA,76.6,28.1,2021_08
-112.024,54.769,LAC LA BICHE CLIMATE,3063686,AB,16.4,0,NA,31.5,0,2.9,0,NA,NA,NA,46.1,0,NA,NA,5,NA,NA,NA,74.5,25,2021_08
-111.559,57.041,MILDRED LAKE,3064528,AB,16.8,0,NA,33.7,0,4,0,NA,NA,NA,49.2,0,NA,NA,9,NA,NA,NA,67.7,30.7,2021_08
-113.321,54.964,PLEASANT VIEW,3065200,AB,15.9,0,NA,31.5,0,2.4,0,NA,NA,NA,32.4,0,NA,NA,8,NA,NA,NA,88.8,24.1,2021_08
-111.7,54.5,RICH LAKE AGDM,3065475,AB,15,0,NA,31.1,0,0.6,0,NA,NA,NA,48.2,0,NA,NA,7,NA,NA,NA,107.4,14.6,2021_08
-111.835,53.851,ISPAS,3065712,AB,17.1,1,NA,31.9,1,4.1,1,NA,NA,NA,51.4,1,NA,NA,5,NA,NA,NA,61,35.2,2021_08
-114.777,55.293,SLAVE LAKE,3065995,AB,16.2,1,NA,30.2,1,4.5,1,NA,NA,NA,46.3,1,NA,NA,9,NA,NA,NA,73.4,19.8,2021_08
-114.777,55.293,SLAVE LAKE RCS,3065997,AB,15.9,0,NA,30.1,0,4.2,0,NA,NA,NA,67.6,0,NA,NA,9,NA,NA,NA,83.1,18.3,2021_08
-113.52,54.3,TAWATINAW AGCM,3066367,AB,15.9,0,NA,30.7,0,1.7,0,NA,NA,NA,28.7,0,NA,NA,3,NA,NA,NA,85.4,21.3,2021_08
-118.348,53.386,WILLOW CREEK 1,306GE70,AB,11.5,0,NA,30.2,0,-4.3,0,NA,NA,NA,70.5,0,NA,NA,7,NA,NA,NA,202,0.5,2021_08
-117.236,55.577,BALLATER AGCM,3070495,AB,15.5,0,NA,33.9,0,1.8,0,NA,NA,NA,53.6,0,NA,NA,8,NA,NA,NA,100,23.7,2021_08
-119.396,55.197,BEAVERLODGE RCS,3070600,AB,15.6,0,NA,32.9,0,3.3,0,NA,NA,NA,59.8,0,NA,NA,6,NA,NA,NA,99.1,23.3,2021_08
-117.886,56.118,BROWNVALE AGCM,3070800,AB,15.5,0,NA,32.2,0,-0.5,0,NA,NA,NA,56.3,2,NA,NA,8,NA,NA,NA,102.5,26.4,2021_08
-117.933,56.529,CLEAR HILLS AGCM,3071661,AB,14.9,1,NA,31.1,1,-1,1,NA,NA,NA,45.8,16,NA,NA,9,NA,NA,NA,110.7,17.4,2021_08
-117.543,56.715,DEADWOOD AGCM,3071957,AB,16.1,0,NA,32.8,0,3.2,0,NA,NA,NA,54.6,0,NA,NA,10,NA,NA,NA,83,25.2,2021_08
-117.887,55.808,EAGLESHAM AGCM,3072151,AB,15.7,0,NA,33,0,2.3,0,NA,NA,NA,71.1,0,NA,NA,9,NA,NA,NA,99.3,26.5,2021_08
-110.439,58.981,EGG ISLAND,3072246,AB,16.7,16,NA,30,16,10,16,NA,NA,NA,NA,NA,NA,NA,NA,NA,NA,NA,31.1,12.2,2021_08
-118.439,56.081,FAIRVIEW AGDM,3072525,AB,15.5,0,NA,32.9,0,-0.1,0,NA,NA,NA,40.5,0,NA,NA,6,NA,NA,NA,104,26.8,2021_08
-111.117,58.767,FORT CHIPEWYAN,3072655,AB,15.5,0,NA,33.2,0,1.9,0,NA,NA,NA,59.4,0,NA,NA,9,NA,NA,NA,98.5,21,2021_08
-111.117,58.767,FORT CHIPEWYAN RCS,3072659,AB,15.6,0,NA,33.2,0,1.8,0,NA,NA,NA,57.2,0,NA,NA,9,NA,NA,NA,96.9,21.2,2021_08
-116.04,58.382,FORT VERMILION,3072723,AB,15.8,3,NA,33.3,3,2.6,3,NA,NA,NA,56.4,3,NA,NA,6,NA,NA,NA,82.7,20.2,2021_08
-118.885,55.18,GRANDE PRAIRIE A,3072921,AB,16,1,NA,33.3,1,1.5,1,0,0,NA,56.2,0,NA,NA,6,NA,NA,NA,89.9,29.3,2021_08
-117.298,57.265,HAWK HILLS AGCM,3073071,AB,15.5,0,NA,33.4,0,1.8,0,NA,NA,NA,30.2,0,NA,NA,5,NA,NA,NA,96.5,18.8,2021_08
-117.165,58.622,HIGH LEVEL A,3073140,AB,15.2,0,NA,33,0,0.2,0,NA,NA,NA,14.4,0,NA,NA,4,NA,NA,NA,106.9,19,2021_08
-117.164,58.631,HIGH LEVEL,3073148,AB,14.5,1,NA,33.1,1,-0.6,1,NA,NA,NA,11.4,1,NA,NA,3,NA,NA,NA,119.9,14,2021_08
-117.12,55.913,JEAN COTE AGCM,3073535,AB,15.6,0,NA,32.2,0,2.9,0,NA,NA,NA,44.4,0,NA,NA,10,NA,NA,NA,100.7,24.9,2021_08
-117.677,57.788,KEG RIVER AGCM,3073644,AB,15.4,0,NA,33.2,0,-0.9,0,NA,NA,NA,51.5,1,NA,NA,5,NA,NA,NA,97.9,18.8,2021_08
-116.343,58.172,LA CRETE AGCM,3073730,AB,16.1,0,NA,34,0,3.2,0,NA,NA,NA,31.4,0,NA,NA,6,NA,NA,NA,82.5,24.7,2021_08
-119.255,55.422,LA GLACE AGCM,3073740,AB,14.2,1,NA,32.2,1,-0.3,1,NA,NA,NA,61.5,1,NA,NA,7,NA,NA,NA,128.2,15.1,2021_08
-117.451,56.974,MANNING AGDM,3074190,AB,15.6,0,NA,32.5,0,0.6,0,NA,NA,NA,NA,NA,NA,NA,NA,NA,NA,NA,95.1,20.8,2021_08
-119.745,56.314,CLEARDALE AGDM,3074935,AB,15.6,0,NA,31.8,0,-0.3,0,NA,NA,NA,27.6,5,NA,NA,5,NA,NA,NA,97.5,23.1,2021_08
-117.448,56.227,PEACE RIVER A,3075041,AB,15.4,0,NA,32.1,0,-0.4,0,0,0,NA,42.1,0,NA,NA,8,NA,NA,NA,106.6,27.1,2021_08
-117.452,56.193,ROMA,3075043,AB,16,0,NA,32.1,0,1.7,0,NA,NA,NA,43.4,0,NA,NA,9,NA,NA,NA,93.9,31.1,2021_08
-118.293,55.621,PEORIA AGDM,3075160,AB,15,0,NA,33.6,0,-1,0,NA,NA,NA,44.8,0,NA,NA,9,NA,NA,NA,111.1,19.1,2021_08
-115.278,56.552,RED EARTH,3075488,AB,15.4,0,NA,33.4,0,1.6,0,NA,NA,NA,36.1,0,NA,NA,8,NA,NA,NA,102.8,22,2021_08
-116.481,58.452,ROCKY LANE AGCM,3075550,AB,15.2,0,NA,33.3,0,-0.2,0,NA,NA,NA,32.1,0,NA,NA,7,NA,NA,NA,104.5,17.1,2021_08
-118.668,55.777,RYCROFT AGCM,3075601,AB,16.2,0,NA,34.4,0,1.6,0,NA,NA,NA,30.3,0,NA,NA,8,NA,NA,NA,88.7,32.3,2021_08
-119.345,56.076,SAVANNA AGCM,3075770,AB,15.5,0,NA,32.5,0,-0.1,0,NA,NA,NA,33.6,0,NA,NA,7,NA,NA,NA,105.5,28.2,2021_08
-117.741,54.425,SIMONETTE,3075937,AB,15.7,0,1.5,34,0,3,0,0,0,NA,116.3,0,149,0,16,NA,NA,NA,101.4,31.5,2021_08
-111.997,58.853,SWEETGRASS LANDING,3076330,AB,NA,NA,NA,NA,NA,NA,NA,NA,NA,NA,67,0,NA,NA,10,NA,NA,NA,NA,NA,2021_08
-118.408,55.352,TEEPEE CREEK AGCM,3076366,AB,15.2,0,NA,33.6,0,-0.7,0,NA,NA,NA,41.4,1,NA,NA,10,NA,NA,NA,110.3,24,2021_08
-116.848,58.021,TOMPKINS LANDING AGCM,3076530,AB,15.9,0,NA,33.2,0,1.3,0,NA,NA,NA,46.3,1,NA,NA,5,NA,NA,NA,85.4,21,2021_08
-117.199,55.098,VALLEYVIEW AGDM,3076680,AB,15.6,0,NA,33.2,0,1.7,0,NA,NA,NA,88.4,0,NA,NA,12,NA,NA,NA,100.3,26.4,2021_08
-110.283,54.417,COLD LAKE A,3081680,AB,17.5,0,1.4,32.6,0,5,0,0,0,0,35.3,0,62,NA,8,NA,NA,NA,52.8,37.4,2021_08
-110.868,54.367,DUPRE AGCM,3081690,AB,16.7,0,NA,33,0,1.7,0,NA,NA,NA,46.5,0,NA,NA,9,NA,NA,NA,66.3,26.4,2021_08
-104.71,50.201,BRATT'S LAKE CLIMATE,4010811,SK,17.5,0,NA,35.1,0,3.8,0,NA,NA,NA,113.1,0,NA,NA,11,NA,NA,NA,60,43.5,2021_08
-102.571,50.368,BROADVIEW,4010879,SK,17,0,0.1,34.6,0,2.7,0,NA,NA,NA,55.4,0,89,NA,7,NA,NA,NA,67.7,38.2,2021_08
-105.383,50.55,BUFFALO POUND LAKE,4010984,SK,18.1,3,NA,34,1,4,2,0,1,NA,97.4,1,NA,0,11,NA,NA,NA,47.6,51.4,2021_08
-104.867,51.183,DUVAL,4012300,SK,18.1,4,-0.1,38,4,6,4,0,4,NA,70.3,4,NA,NA,6,NA,NA,NA,53,55,2021_08
-102.966,49.21,ESTEVAN A,4012403,SK,18.9,3,NA,38.1,3,5.5,3,NA,NA,NA,2,3,NA,NA,1,NA,NA,NA,30,55.5,2021_08
-102.967,49.217,ESTEVAN,4012410,SK,18.3,0,NA,36.9,0,5.3,0,NA,NA,NA,27.5,0,NA,NA,5,NA,NA,NA,41.5,51.5,2021_08
-103.65,50.55,INDIAN HEAD CDA,4013480,SK,17.1,0,-0.3,34.5,0,3.8,0,NA,NA,NA,99.4,0,194,NA,10,NA,NA,NA,64,36.3,2021_08
-103.753,51.257,KELLIHER,4013660,SK,17.4,0,0.4,33.5,0,6,0,0,0,NA,68.6,0,104,0,10,NA,NA,NA,62.8,43.7,2021_08
-102.733,50.2,KIPLING,4014040,SK,17.8,0,0.7,35,0,6.5,0,0,0,NA,58.8,0,98,0,8,NA,NA,NA,58.4,53.2,2021_08
-105.25,51.417,LAST MOUNTAIN CS,4014156,SK,17.8,0,0.3,37.1,0,4.4,0,NA,NA,NA,67.8,0,132,NA,7,NA,NA,NA,56.3,51.1,2021_08
-104.633,52,LEROY,4014322,SK,17.6,0,0.5,35,0,3.5,0,0,0,NA,49.6,0,80,0,10,NA,NA,NA,61.4,49.8,2021_08
-103.889,51.152,LIPTON 2,4014481,SK,16.7,14,-0.3,35.5,13,5.5,14,0,13,NA,63.6,13,NA,NA,7,NA,NA,NA,46.3,23.4,2021_08
-105.538,50.332,MOOSE JAW CS,4015322,SK,18.3,0,NA,36.2,0,3.9,0,NA,NA,NA,157.5,0,NA,NA,11,NA,NA,NA,51.5,59.5,2021_08
-105,52.333,MUENSTER,4015440,SK,17.2,0,0.2,33,0,5,0,0,0,NA,113,0,200,0,9,NA,NA,NA,65.7,41.5,2021_08
-102.117,49.317,OXBOW,4015800,SK,18.7,1,NA,39,1,5.5,1,0,1,NA,49.6,1,NA,0,8,NA,NA,NA,36.7,57.6,2021_08
-103.983,50.567,QU'APPELLE 1,4016322,SK,17.9,0,0.2,35,0,5,0,0,0,NA,111.3,0,193,0,12,NA,NA,NA,58.4,55.7,2021_08
-104.666,50.432,REGINA INTL A,4016566,SK,17.9,0,NA,35.1,0,3.9,0,NA,NA,NA,NA,NA,NA,NA,NA,NA,NA,NA,58.7,54.2,2021_08
-104.667,50.433,REGINA RCS,4016699,SK,17.8,0,NA,34.8,0,4.2,0,NA,NA,NA,105.3,0,NA,NA,9,NA,NA,NA,59.7,54,2021_08
-105.4,51.667,WATROUS EAST,4018642,SK,17.3,0,NA,35.8,0,4.5,0,NA,NA,NA,100.1,0,NA,NA,9,NA,NA,NA,64.2,43.1,2021_08
-104.183,49.817,YELLOW GRASS NORTH,4019041,SK,18.1,0,NA,35.4,0,4,0,NA,NA,NA,71.1,0,NA,NA,6,NA,NA,NA,48.8,51.7,2021_08
-102.464,51.265,YORKTON,4019073,SK,17.2,0,NA,35.2,0,3,0,NA,NA,NA,66.7,0,NA,NA,9,NA,NA,NA,71.7,45.8,2021_08
-102.462,51.265,YORKTON,4019075,SK,17.3,0,NA,35.2,0,2.9,0,NA,NA,NA,69.7,1,NA,NA,9,NA,NA,NA,68.7,47.1,2021_08
-104.2,51.767,WYNYARD (AUT),40190LN,SK,17.7,1,NA,34.8,1,4.6,1,NA,NA,NA,57.9,1,NA,NA,9,NA,NA,NA,65,56.6,2021_08
-103.8,49.7,WEYBURN,401HP5R,SK,18.6,0,NA,35.3,0,5.3,0,NA,NA,NA,69.3,0,NA,NA,6,NA,NA,NA,40.5,59.8,2021_08
-105.946,49.729,ASSINIBOIA AIRPORT,4020286,SK,17.6,1,NA,35.1,1,3.4,1,NA,NA,NA,100.5,1,NA,NA,8,NA,NA,NA,60,48.2,2021_08
-107.311,50.832,BEECHY,4020560,SK,17.9,1,-0.5,36.5,1,2,1,0,1,NA,58,1,NA,0,9,NA,NA,NA,54.4,50.8,2021_08
-106.583,51.133,ELBOW CS,4022359,SK,17.7,0,NA,37.1,0,2.9,0,NA,NA,NA,79.4,0,NA,NA,9,NA,NA,NA,59.3,50,2021_08
-107.15,50.95,LUCKY LAKE,4024714,SK,17.8,0,NA,37.9,0,2.8,0,NA,NA,NA,56.3,0,NA,NA,12,NA,NA,NA,63,57.5,2021_08
-109.466,49.903,MAPLE CREEK,4024919,SK,19.1,0,NA,36.4,0,4.6,0,NA,NA,NA,20.3,0,NA,NA,4,NA,NA,NA,44.4,79.8,2021_08
-107.263,51.154,ROCK POINT,4026847,SK,18.3,0,0.1,38.5,0,5,0,0,0,NA,54.4,0,146,0,7,NA,NA,NA,58.4,67.5,2021_08
-107.8,50.6,STEWART VALLEY,4027775,SK,16.4,15,-1.6,32,15,4,15,0,15,NA,19.7,15,NA,0,4,NA,NA,NA,38.7,13.6,2021_08
-107.691,50.292,SWIFT CURRENT,4028038,SK,18.1,0,NA,36.8,0,3,0,NA,NA,NA,48.2,1,NA,NA,8,NA,NA,NA,60.6,64.5,2021_08
-107.733,50.267,SWIFT CURRENT CDA,4028060,SK,17.9,0,-0.2,36.5,0,3.7,0,NA,NA,NA,53.7,0,129,NA,8,NA,NA,NA,62.9,61,2021_08
-109.501,50.909,LEADER AIRPORT,402DAF0,SK,18.4,0,NA,38.3,0,3.6,0,NA,NA,NA,30.4,0,NA,NA,6,NA,NA,NA,51.4,63.6,2021_08
-105.483,49.05,CORONACH SPC,40318MN,SK,18,1,-0.4,38.4,1,1.9,1,NA,NA,NA,79.2,1,NA,NA,6,NA,NA,NA,50.2,49.9,2021_08
-109.514,49.641,CYPRESS HILLS PARK,4031999,SK,16.2,0,NA,31.9,0,3.7,0,NA,NA,NA,40.3,0,NA,NA,8,NA,NA,NA,96,40.1,2021_08
-108.989,49.438,EASTEND CYPRESS (AUT),4032322,SK,16.9,0,NA,32.9,0,3.5,0,NA,NA,NA,33.3,1,NA,NA,7,NA,NA,NA,79.4,44.1,2021_08
-107.024,49.099,MANKOTA,4034910,SK,17.9,2,-0.6,35.5,2,1.8,2,NA,NA,NA,63.9,2,NA,NA,8,NA,NA,NA,48.9,45.5,2021_08
-105.979,49.168,ROCKGLEN (AUT),4036844,SK,18.2,1,NA,36.2,1,5.5,1,NA,NA,NA,59.3,1,NA,NA,6,NA,NA,NA,59.4,64.7,2021_08
-107.586,49.058,VAL MARIE SOUTHEAST,4038412,SK,18.2,1,NA,37.2,1,1.7,1,NA,NA,NA,49,1,NA,NA,6,NA,NA,NA,47.8,52.7,2021_08
-108.407,51.294,BICKLEIGH,4040587,SK,17.6,2,-0.9,38.5,1,3,2,0,1,NA,27,1,NA,0,7,NA,NA,NA,56,43.8,2021_08
-109.2,53.45,BUTTE ST PIERRE,4041000,SK,16.5,0,0.9,34.5,0,0,0,0,0,0,25.6,0,51,0,5,NA,NA,NA,75.8,30.8,2021_08
-109.181,51.515,KINDERSLEY A,4043899,SK,17.7,2,NA,39.5,2,2.8,2,NA,NA,NA,NA,NA,NA,NA,NA,NA,NA,NA,61,52.4,2021_08
-109.181,51.515,KINDERSLEY A,4043901,SK,18.2,2,NA,39.5,2,2.8,2,0,0,NA,76,0,NA,NA,7,NA,NA,NA,53.3,59.1,2021_08
-108.256,52.772,NORTH BATTLEFORD RCS,4045607,SK,17.5,1,NA,37.4,1,4.6,1,NA,NA,NA,34.2,1,NA,NA,6,NA,NA,NA,57.5,43.1,2021_08
-108.244,52.769,NORTH BATTLEFORD,4045695,SK,17.4,1,NA,37.3,1,4.7,1,NA,NA,NA,5.4,1,NA,NA,2,NA,NA,NA,61.1,44.2,2021_08
-107.917,51.567,ROSETOWN EAST,4046884,SK,17.6,0,NA,38.4,0,1.7,0,NA,NA,NA,36.6,0,NA,NA,7,NA,NA,NA,67.1,54.6,2021_08
-108.835,52.36,SCOTT CDA,4047240,SK,17.2,0,0.7,36.9,0,4,0,NA,NA,NA,51.3,0,112,NA,6,NA,NA,NA,68,41.8,2021_08
-107.767,52.317,SONNINGDALE,4047644,SK,16.3,0,NA,36,0,1.5,0,0,0,NA,65.2,0,NA,0,8,NA,NA,NA,91.2,39.8,2021_08
-109.405,53.131,WASECA RCS,4048521,SK,17.2,1,NA,34.9,1,4.5,1,NA,NA,NA,46.3,1,NA,NA,5,NA,NA,NA,59.7,35.6,2021_08
-105.783,52.85,HOEY,4053264,SK,NA,NA,NA,NA,NA,NA,NA,0,28,NA,35.1,28,NA,NA,3,NA,NA,NA,NA,NA,2021_08
-104.6,52.817,MELFORT,4055079,SK,16.9,0,NA,35.2,0,4.5,0,NA,NA,NA,69.3,0,NA,NA,9,NA,NA,NA,78.6,45.7,2021_08
-107.05,51.483,OUTLOOK PFRA,4055736,SK,17.9,0,-0.1,36.6,0,2.8,0,NA,NA,NA,37.7,0,88,NA,6,NA,NA,NA,55.6,52.7,2021_08
-105.15,52.417,PILGER,4056121,SK,16.9,1,NA,34.3,1,3,1,NA,NA,NA,79,1,NA,NA,9,NA,NA,NA,72.6,38.8,2021_08
-105.673,53.214,PRINCE ALBERT A,4056241,SK,16.3,1,NA,34.3,1,2.8,1,0,1,NA,55.9,1,NA,NA,8,NA,NA,NA,78.1,28.5,2021_08
-105.677,53.21,PRINCE ALBERT GLASS FIELD,4056243,SK,16.7,0,NA,34.3,0,3.6,0,NA,NA,NA,60.8,0,NA,NA,8,NA,NA,NA,74.9,34.5,2021_08
-106.7,52.171,SASKATOON INTL A,4057152,SK,18.3,5,NA,37.1,5,3.3,5,NA,NA,NA,NA,NA,NA,NA,NA,NA,NA,NA,44.8,52.1,2021_08
-106.719,52.174,SASKATOON RCS,4057165,SK,17.8,0,NA,37.5,0,2.5,0,NA,NA,NA,38.4,0,NA,NA,6,NA,NA,NA,60.4,53.6,2021_08
-108.421,55.841,BUFFALO NARROWS (AUT),4060983,SK,16.6,1,NA,32.1,1,5.1,1,NA,NA,NA,39.9,20,NA,NA,4,NA,NA,NA,66.6,23.6,2021_08
-108.418,55.842,BUFFALO NARROWS A,4060988,SK,16.8,0,NA,32,0,6.2,0,NA,NA,NA,64.8,0,NA,NA,8,NA,NA,NA,63.8,27.1,2021_08
-104.483,58.083,CIGAR LAKE,4061570,SK,13,0,-0.7,31,0,-3,0,0,0,NA,53.6,0,69,0,11,NA,NA,NA,167,12.5,2021_08
-103.678,58.229,COLLINS BAY SK,4061620,SK,13.2,1,NA,30.1,1,0,1,NA,NA,NA,35.2,1,NA,NA,6,NA,NA,NA,153.7,9.4,2021_08
-103.7,58.183,COLLINS BAY CAMECO,4061632,SK,13.2,9,NA,28.5,8,4,8,0,8,NA,40.9,8,NA,0,7,NA,NA,NA,109.4,4.6,2021_08
-102.35,55.533,ISLAND FALLS (AUT),4063605,SK,15.1,0,NA,30.9,0,0.8,0,NA,NA,NA,48.4,0,NA,NA,6,NA,NA,NA,107.7,17.8,2021_08
-109.962,54.908,JIMMY LAKE AWOS,4063623,SK,16.2,19,NA,31.5,19,5.2,19,NA,NA,NA,13,19,NA,NA,4,NA,NA,NA,33,11.7,2021_08
-105.6,57.25,KEY LAKE,4063753,SK,14.5,8,NA,32.1,8,-2.4,8,NA,NA,NA,41.7,8,NA,NA,6,NA,NA,NA,91.8,11.1,2021_08
-105.618,57.256,KEY LAKE,4063757,SK,14.5,0,NA,32,0,-0.9,0,NA,NA,NA,43.4,3,NA,NA,6,NA,NA,NA,124,15.3,2021_08
-105.27,55.146,LA RONGE RCS,4064149,SK,16,1,NA,31.7,1,1.9,1,NA,NA,NA,105.1,1,NA,NA,10,NA,NA,NA,85.2,24.8,2021_08
-105.267,55.151,LA RONGE A,4064155,SK,16.1,0,NA,31.8,0,1.1,0,0,0,NA,110.1,0,NA,NA,10,NA,NA,NA,84,24.2,2021_08
-109.138,54.02,LOON LAKE RCS,4064620,SK,15,24,NA,26.8,24,6.1,24,NA,NA,NA,7.1,24,NA,NA,1,NA,NA,NA,20.9,0,2021_08
-108.523,54.125,MEADOW LAKE A,4065063,SK,16.5,1,NA,33.7,1,1.2,1,NA,NA,NA,NA,NA,NA,NA,NA,NA,NA,NA,75.3,29,2021_08
-103.283,56.333,SOUTHEND,4067655,SK,14.2,0,NA,31.1,0,-0.4,0,NA,NA,NA,71.7,0,NA,NA,7,NA,NA,NA,129.4,11,2021_08
-107.55,53.367,SPIRITWOOD WEST,4067723,SK,15.6,0,NA,34,0,1.6,0,NA,NA,NA,50.9,0,NA,NA,9,NA,NA,NA,100.2,25.5,2021_08
-105.841,59.25,STONY RAPIDS,4067799,SK,14.2,2,NA,32.1,2,-0.6,2,NA,NA,NA,NA,NA,NA,NA,NA,NA,NA,NA,121.8,11.2,2021_08
-106.067,53.917,WASKESIU LAKE,4068559,SK,16.3,0,NA,33.1,0,3.8,0,NA,NA,NA,53.7,0,NA,NA,11,NA,NA,NA,82.5,30.4,2021_08
-108.517,54.133,MEADOW LAKE,406N0NM,SK,16.1,0,NA,34.2,0,0.9,0,NA,NA,NA,39.6,0,NA,NA,8,NA,NA,NA,84.5,27.1,2021_08
-108.483,59.567,URANIUM CITY (AUT),406QLD0,SK,14.4,1,NA,32.5,1,2.9,1,NA,NA,NA,49.5,1,NA,NA,8,NA,NA,NA,119.3,12.2,2021_08
-104.008,53.333,NIPAWIN,4075525,SK,17,0,NA,35.9,0,2.7,0,NA,NA,NA,55.4,0,NA,NA,10,NA,NA,NA,69.4,39.8,2021_08
-104,53.333,NIPAWIN,407N51G,SK,17,0,NA,36,0,2.8,0,NA,NA,NA,53.2,0,NA,NA,10,NA,NA,NA,70.1,38,2021_08
-102.317,52.817,HUDSON BAY(AUT),4083324,SK,16.4,0,NA,34.8,0,1.2,0,NA,NA,NA,53.6,0,NA,NA,13,NA,NA,NA,81.8,32.8,2021_08
-99.292,49.276,BALDUR,5010140,MB,18.2,4,-0.1,35,2,6.5,2,0,1,NA,114.9,1,NA,0,7,NA,NA,NA,32.6,37,2021_08
-99.952,49.91,BRANDON A,5010481,MB,17.1,0,NA,35.5,0,4.3,0,0,0,NA,161.9,0,NA,NA,6,NA,NA,NA,64.1,37.1,2021_08
-99.95,49.9,BRANDON RCS,5010490,MB,17.5,0,NA,35.7,0,5,0,NA,NA,NA,156.8,0,NA,NA,6,NA,NA,NA,59.1,43.3,2021_08
-99.357,49.906,CARBERRY CS,5010547,MB,17.6,1,NA,36.2,1,4,1,NA,NA,NA,111.9,1,NA,NA,7,NA,NA,NA,57.7,45.2,2021_08
-99.074,49.562,CYPRESS RIVER RCS,5010641,MB,18,0,NA,36.2,0,4.2,0,NA,NA,NA,84.9,0,NA,NA,7,NA,NA,NA,52.6,51.9,2021_08
-101.203,49.927,ELKHORN 2 EAST,5010QFQ,MB,18.6,2,0.6,39,2,6,2,0,2,NA,78.4,2,NA,0,9,NA,NA,NA,46.1,62.2,2021_08
-98.3,49.983,PORTAGE ROMANCE,5012300,MB,NA,NA,NA,NA,NA,NA,NA,0,0,NA,82.5,0,NA,0,8,NA,NA,NA,NA,NA,2021_08
-98.267,49.95,PORTAGE LA PRAIRIE CDA,5012321,MB,NA,NA,NA,NA,NA,NA,NA,0,25,NA,58.8,25,NA,NA,4,NA,NA,NA,NA,NA,2021_08
-98.284,49.903,PORTAGE SOUTHPORT,5012324,MB,18.8,1,NA,37.1,1,4.9,1,NA,NA,NA,78.1,1,NA,NA,7,NA,NA,NA,43.7,69.1,2021_08
-101.363,51.183,ROBLIN,5012469,MB,16.6,0,NA,34.1,0,2,0,NA,NA,NA,82.9,0,NA,NA,9,NA,NA,NA,78.4,35,2021_08
-100.604,50.455,SHOAL LAKE CS,5012654,MB,16.2,1,NA,33.8,1,2.7,1,NA,NA,NA,123.4,1,NA,NA,10,NA,NA,NA,81.4,28,2021_08
-100.934,49.842,VIRDEN WATER,5012961,MB,19.1,2,NA,37,2,9,2,0,2,NA,50.2,2,NA,0,10,NA,NA,NA,32.5,63,2021_08
-99.942,50.655,WASAGAMING,5013117,MB,15.6,0,0,32.5,0,1.4,0,NA,NA,NA,124.2,0,210,NA,10,NA,NA,NA,103,27.9,2021_08
-100.986,49.281,MELITA,501A7AR,MB,18.7,0,NA,37.7,0,6,0,NA,NA,NA,125.3,0,NA,NA,6,NA,NA,NA,40.5,62.9,2021_08
-101.4,51.267,ROBLIN FRIESEN 3 NORTHWEST,501B4G2,MB,NA,NA,NA,NA,NA,NA,NA,0,0,NA,101.2,0,NA,0,9,NA,NA,NA,NA,NA,2021_08
-100.179,50.108,RIVERS PETTAPIECE,501BMMA,MB,NA,NA,NA,NA,NA,NA,NA,0,0,NA,124.6,0,212,0,8,NA,NA,NA,NA,NA,2021_08
-100.817,50.75,ROSSBURN 4 NORTH,501KE01,MB,NA,NA,NA,NA,NA,NA,NA,0,3,NA,149.4,3,NA,0,12,NA,NA,NA,NA,NA,2021_08
-98.319,49.4,DEERWOOD RCS,5020725,MB,19.1,0,NA,36.9,0,6.3,0,NA,NA,NA,82.9,0,NA,NA,6,NA,NA,NA,45,79.4,2021_08
-97.238,49,EMERSON AUTO,5020881,MB,19.3,0,NA,35.1,0,4.8,0,NA,NA,NA,69.5,0,NA,NA,8,NA,NA,NA,32.2,72,2021_08
-97.56,49.031,GRETNA (AUT),5021220,MB,18.7,0,NA,34.7,0,5.7,0,NA,NA,NA,140.4,0,NA,NA,7,NA,NA,NA,40,62.9,2021_08
-98.875,49.606,HOLLAND,5021302,MB,NA,NA,NA,NA,NA,NA,NA,0,8,NA,84,8,NA,0,8,NA,NA,NA,NA,NA,2021_08
-96.901,49.518,KLEEFELD (MAFRI),5021500,MB,18.7,0,NA,34.9,0,5.7,0,NA,NA,NA,102.6,0,NA,NA,7,NA,NA,NA,39.5,61.9,2021_08
-97.807,50.013,MARQUETTE,5021695,MB,19.3,2,0.4,36.5,2,7,2,0,2,NA,94,2,NA,0,7,NA,NA,NA,29.9,67.6,2021_08
-98.084,49.188,MORDEN CDA CS,5021849,MB,19.5,0,NA,35.2,0,8.3,0,NA,NA,NA,99.2,0,NA,NA,5,NA,NA,NA,33.1,78.4,2021_08
-96.85,49.933,OAKBANK,5022051,MB,NA,NA,NA,NA,NA,NA,NA,0,0,NA,120.8,0,146,0,6,NA,NA,NA,NA,NA,2021_08
-98.905,49.191,PILOT MOUND (AUT),5022125,MB,17.6,0,NA,34.9,0,2,0,NA,NA,NA,61.2,0,NA,NA,5,NA,NA,NA,58.9,46.3,2021_08
-96.035,49.353,ST LABRE,5022575,MB,NA,NA,NA,NA,NA,NA,NA,0,0,NA,63,0,83,0,7,NA,NA,NA,NA,NA,2021_08
-97.95,49.133,SCHANZENFELD,5022623,MB,NA,NA,NA,NA,NA,NA,NA,0,0,NA,98,0,127,0,8,NA,NA,NA,NA,NA,2021_08
-95.598,49.024,SPRAGUE,5022759,MB,18.5,2,NA,33.6,2,5.4,2,NA,NA,NA,116.6,3,NA,NA,6,NA,NA,NA,41,55.3,2021_08
-97.167,50.117,STONY MOUNTAIN,5022791,MB,19.3,0,0.3,38,0,6,0,0,0,NA,100.6,0,134,0,7,NA,NA,NA,35.4,75.9,2021_08
-97.273,49.85,WINNIPEG CHARLESWOOD 2,5023225,MB,NA,NA,NA,NA,NA,NA,NA,0,0,NA,135.4,0,NA,0,8,NA,NA,NA,NA,NA,2021_08
-97.24,49.91,WINNIPEG INTL A,5023227,MB,19.1,1,NA,34.7,1,4.4,1,NA,NA,NA,NA,NA,NA,NA,NA,NA,NA,NA,38.8,70.8,2021_08
-97.129,49.888,WINNIPEG THE FORKS,5023262,MB,19.9,0,NA,33.8,0,8.8,0,NA,NA,NA,109.3,0,NA,NA,7,NA,NA,NA,20.2,80.3,2021_08
-98.03,49.498,CARMAN U OF M CS,502I001,MB,18.1,0,NA,37.3,0,4.1,0,NA,NA,NA,78,0,NA,NA,7,NA,NA,NA,54.6,58.3,2021_08
-97.249,49.917,WINNIPEG A CS,502S001,MB,19,0,NA,34.5,0,4.6,0,NA,NA,NA,128.4,0,NA,NA,8,NA,NA,NA,38.8,70,2021_08
-97.022,52.36,BERENS RIVER CS,5030203,MB,15.5,1,-1,30.1,1,1.1,1,NA,NA,NA,98.6,1,NA,NA,14,NA,NA,NA,97,22.2,2021_08
-97.018,52.359,BERENS RIVER A,5030204,MB,15.5,3,NA,30.1,3,1.5,3,NA,NA,NA,NA,NA,NA,NA,NA,NA,NA,NA,89,18.2,2021_08
-97.616,52.819,GEORGE ISLAND (AUT),5030984,MB,17.7,4,NA,27.1,4,11,4,NA,NA,NA,59.6,4,NA,NA,11,NA,NA,NA,43.5,34.2,2021_08
-97.555,51.083,FISHER BRANCH (AUT),50309J6,MB,17.3,0,NA,35,0,2.2,0,NA,NA,NA,139.1,0,NA,NA,10,NA,NA,NA,69.8,46.8,2021_08
-96.982,50.631,GIMLI HARBOUR CS,5031041,MB,18.7,0,NA,33.5,0,9.5,0,NA,NA,NA,NA,NA,NA,NA,NA,NA,NA,NA,37.2,60.1,2021_08
-97.05,50.633,GIMLI CLIMATE,5031042,MB,17.6,2,NA,34.1,2,6.3,2,NA,NA,NA,110.6,2,NA,NA,9,NA,NA,NA,55.4,43.7,2021_08
-95.977,50.522,GREAT FALLS CLIMATE,5031201,MB,19.2,0,NA,33.5,0,8.2,0,NA,NA,NA,143.3,0,NA,NA,10,NA,NA,NA,31.9,67.8,2021_08
-95.197,49.624,INDIAN BAY,5031320,MB,18.7,0,1,33,0,4.5,0,0,0,NA,146.9,0,183,0,8,NA,NA,NA,34.2,56.9,2021_08
-99.268,53.186,GRAND RAPIDS (AUT),5031A10,MB,15.5,0,NA,32.6,0,1.9,0,NA,NA,NA,98.5,0,NA,NA,11,NA,NA,NA,96.5,20.2,2021_08
-95.89,50.148,PINAWA CANWARN,5032161,MB,NA,NA,NA,NA,NA,NA,NA,0,0,NA,129.8,0,NA,0,10,NA,NA,NA,NA,NA,2021_08
-96.567,50.7,VICTORIA BEACH (AUT),5032951,MB,19.6,0,NA,31.8,0,11.2,0,NA,NA,NA,NA,NA,NA,NA,NA,NA,NA,NA,21.9,73,2021_08
-96.065,50.177,PINAWA,503B1ER,MB,18.8,0,NA,33.1,0,7.5,0,NA,NA,NA,94.7,0,NA,NA,10,NA,NA,NA,34.5,60.3,2021_08
-98.7,50.05,BEAVER,5040166,MB,NA,NA,NA,NA,NA,NA,NA,0,30,NA,24,30,NA,NA,1,NA,NA,NA,NA,NA,2021_08
-100.057,51.1,DAUPHIN CS,5040681,MB,17.2,0,NA,35,0,1.7,0,NA,NA,NA,89.6,0,NA,NA,10,NA,NA,NA,67.4,43.9,2021_08
-100.053,51.101,DAUPHIN,5040689,MB,17.3,0,NA,34.4,0,1.9,0,NA,NA,NA,92.3,0,NA,NA,11,NA,NA,NA,64.3,43.6,2021_08
-100.65,52.033,COWAN,5040FJ3,MB,17,0,0.7,35.5,0,1,0,0,0,NA,133.8,0,177,0,15,NA,NA,NA,69,39.3,2021_08
-101.098,52.666,MAFEKING,5041685,MB,17.7,6,0.6,34.5,6,5,6,0,6,NA,95,6,NA,NA,13,NA,NA,NA,46.3,38.7,2021_08
-99.53,50.712,MCCREARY,5043158,MB,20.8,20,2.7,34.2,20,9.3,20,NA,NA,NA,22.3,20,NA,NA,2,NA,NA,NA,7.8,39.1,2021_08
-98.037,50.499,OAKPOINT MARINE,504K0NM,MB,18.1,0,NA,31.5,0,5.1,0,NA,NA,NA,88.7,0,NA,NA,8,NA,NA,NA,45.3,48.2,2021_08
-101.233,52.115,SWAN RIVER RCS,504K80K,MB,17.1,0,NA,35.9,0,2.7,0,NA,NA,NA,77.1,0,NA,NA,9,NA,NA,NA,70,41,2021_08
-101.683,54.683,FLIN FLON,5050919,MB,16.6,0,NA,32.6,0,4,0,NA,NA,NA,19.5,0,NA,NA,5,NA,NA,NA,71.2,29.1,2021_08
-101.883,54.767,FLIN FLON,5050920,MB,17.5,9,-0.1,33,9,5,9,0,9,NA,15.1,9,NA,NA,5,NA,NA,NA,37.9,26.5,2021_08
-101.682,54.678,FLIN FLON A,5050973,MB,16.7,1,NA,32.4,1,4,1,NA,NA,NA,NA,NA,NA,NA,NA,NA,NA,NA,68.8,29.2,2021_08
-101.091,53.971,THE PAS A,5052882,MB,16.5,2,NA,32.4,2,2.6,2,NA,NA,NA,21.6,3,NA,NA,4,NA,NA,NA,69,26.5,2021_08
-101.1,53.967,THE PAS CLIMATE,5052890,MB,16.7,0,NA,32.2,0,2.7,0,NA,NA,NA,32.5,0,NA,NA,6,NA,NA,NA,69.3,27.9,2021_08
-94.066,58.739,CHURCHILL A,5060595,MB,12.4,0,NA,28.9,0,4.1,0,NA,NA,NA,37.4,0,NA,NA,8,NA,NA,NA,176.9,2.8,2021_08
-94.066,58.739,CHURCHILL A,5060605,MB,12.4,1,NA,28.9,1,4.1,1,NA,NA,NA,NA,NA,NA,NA,NA,NA,NA,NA,171.5,2.8,2021_08
-94.067,58.733,CHURCHILL CLIMATE,5060608,MB,12.4,0,NA,29.3,0,4.5,0,NA,NA,NA,38.8,0,NA,NA,8,NA,NA,NA,176,3,2021_08
-98.03,54.54,CROSS LAKE JENPEG 2,5060622,MB,16.6,28,NA,23.1,28,6.2,28,NA,NA,NA,0,28,NA,NA,0,NA,NA,NA,5.9,1.7,2021_08
-94.704,56.359,GILLAM,5060999,MB,14,0,NA,29.4,0,3.1,0,NA,NA,NA,90.5,0,NA,NA,8,NA,NA,NA,126.5,3,2021_08
-94.711,56.358,GILLAM A,5061022,MB,13.9,4,NA,29.4,4,4.1,4,0,1,NA,61,1,NA,NA,7,NA,NA,NA,113.2,2.9,2021_08
-94.711,56.358,GILLAM A,5061025,MB,13.9,0,NA,29.4,0,2.8,0,NA,NA,NA,NA,NA,NA,NA,NA,NA,NA,NA,129.8,2.9,2021_08
-94.654,53.857,ISLAND LAKE A,5061374,MB,15.7,1,NA,28.3,1,5.2,1,NA,NA,NA,74.3,1,NA,NA,14,NA,NA,NA,93.2,22.7,2021_08
-96.51,56.038,KELSEY DAM CS,5061422,MB,14.2,1,NA,30.2,1,1.2,1,NA,NA,NA,27.8,1,NA,NA,5,NA,NA,NA,124.2,10.1,2021_08
-101.076,56.864,LYNN LAKE,5061645,MB,14,1,NA,31.1,1,0.7,1,NA,NA,NA,12.6,2,NA,NA,1,NA,NA,NA,133.1,14.2,2021_08
-101.067,56.85,LYNN LAKE RCS,5061649,MB,13.7,0,NA,31.7,0,-0.2,0,NA,NA,NA,77,0,NA,NA,6,NA,NA,NA,149.4,15.3,2021_08
-97.844,53.958,NORWAY HOUSE,5062040,MB,16,0,NA,30.8,0,4.2,0,NA,NA,NA,79.2,1,NA,NA,11,NA,NA,NA,87.8,24.9,2021_08
-98.512,58.706,TADOULE LAKE,5062835,MB,13.5,1,NA,30.5,1,2.1,1,NA,NA,NA,66.5,1,NA,NA,7,NA,NA,NA,143.7,8.1,2021_08
-98.502,58.716,TADOULE LAKE CS,5062840,MB,12.8,7,NA,30,7,0.6,7,NA,NA,NA,38,6,NA,NA,3,NA,NA,NA,127.4,3.2,2021_08
-97.877,55.799,THOMPSON AIRPORT,5062918,MB,13.6,0,NA,30.3,0,-1.1,0,NA,NA,NA,35.4,0,NA,NA,7,NA,NA,NA,147,10.5,2021_08
-97.863,55.805,THOMPSON A,5062921,MB,13.7,5,NA,29.7,5,-0.2,5,0,2,NA,36.7,2,NA,NA,6,NA,NA,NA,120.7,7.7,2021_08
-82.432,52.928,ATTAWAPISKAT A,6010400,ON,15.1,0,NA,31.5,0,0.4,0,NA,NA,NA,103,0,NA,NA,11,NA,NA,NA,111.1,21.6,2021_08
-89.897,53.818,BIG TROUT LAKE A,6010735,ON,14.4,1,NA,27,1,0.1,1,NA,NA,NA,107.2,2,NA,NA,11,NA,NA,NA,116.7,9.5,2021_08
-89.892,53.816,BIG TROUT LAKE,6010740,ON,14.1,1,NA,27.5,1,-0.3,1,NA,NA,NA,94.8,2,NA,NA,10,NA,NA,NA,124.2,7.1,2021_08
-93.221,50.631,EAR FALLS (AUT),6012199,ON,18.9,0,NA,32.7,0,8.7,0,NA,NA,NA,77,0,NA,NA,12,NA,NA,NA,33.4,61.5,2021_08
-87.676,56.019,FORT SEVERN A,6012501,ON,12.7,0,NA,28.9,0,1.6,0,NA,NA,NA,72,0,NA,NA,10,NA,NA,NA,166.4,3.5,2021_08
-87.934,52.196,LANSDOWNE HOUSE A,6014351,ON,14.1,18,NA,31.3,18,2.2,18,NA,NA,NA,70.9,18,NA,NA,6,NA,NA,NA,54.6,4.5,2021_08
-87.936,52.196,LANSDOWNE HOUSE (AUT),6014353,ON,15.8,3,NA,33.4,3,1.7,3,NA,NA,NA,105.6,3,NA,NA,10,NA,NA,NA,93.7,31.3,2021_08
-91.763,53.441,MUSKRAT DAM,6015026,ON,14.8,2,NA,29.6,2,1.9,2,NA,NA,NA,159.3,2,NA,NA,12,NA,NA,NA,107,14.3,2021_08
-85.433,54.983,PEAWANUCK (AUT),6016295,ON,13.3,0,NA,29.1,0,0.1,0,NA,NA,NA,59.5,0,NA,NA,8,NA,NA,NA,152.6,6.2,2021_08
-85.443,54.988,PEAWANUCK A,6016298,ON,13.3,0,NA,29.1,0,1,0,NA,NA,NA,58.4,1,NA,NA,8,NA,NA,NA,150.7,6.2,2021_08
-90.218,51.449,PICKLE LAKE (AUT),6016525,ON,18.1,2,NA,32.9,2,4.7,2,NA,NA,NA,109.3,2,NA,NA,10,NA,NA,NA,53.5,56.6,2021_08
-90.214,51.446,PICKLE LAKE A,6016528,ON,17.9,0,NA,33,0,4.7,0,NA,NA,NA,0,1,NA,NA,0,NA,NA,NA,61,57.3,2021_08
-93.793,51.067,RED LAKE A,6016971,ON,18.2,0,NA,32.5,0,6.7,0,NA,NA,NA,NA,NA,NA,NA,NA,NA,NA,NA,47.4,53.4,2021_08
-93.344,53.064,SANDY LAKE A,6017401,ON,15.5,1,NA,30.5,1,4,1,NA,NA,NA,139.1,1,NA,NA,13,NA,NA,NA,93.9,19,2021_08
-93.967,48.633,BARWICK,6020559,ON,20.1,0,2.2,34.5,0,4,0,0,0,NA,85.2,0,108,0,7,NA,NA,NA,23.8,89.4,2021_08
-91.628,48.761,ATIKOKAN (AUT),6020LPQ,ON,18.6,0,NA,33.1,0,3.9,0,NA,NA,NA,51.4,0,NA,NA,8,NA,NA,NA,40.1,59.1,2021_08
-93.439,48.651,FORT FRANCES RCS,6022474,ON,18.9,0,NA,33.1,0,1.4,0,NA,NA,NA,67.1,0,NA,NA,5,NA,NA,NA,47.3,74.4,2021_08
-92.623,48.76,MINE CENTRE SOUTHWEST,6025205,ON,19.8,4,NA,34,2,4,2,0,2,NA,64.8,2,NA,0,6,NA,NA,NA,18.8,67.9,2021_08
-92.744,49.828,DRYDEN REGIONAL,6032125,ON,19.4,0,NA,33,0,8.6,0,NA,NA,NA,87.1,0,NA,NA,8,NA,NA,NA,30.2,73,2021_08
-94.378,49.791,KENORA RCS,6034073,ON,19.6,0,NA,32.4,0,8.6,0,NA,NA,NA,96,0,NA,NA,8,NA,NA,NA,25.1,73.3,2021_08
-94.363,49.788,KENORA A,6034076,ON,19.7,2,NA,32.1,2,8.4,2,0,1,NA,99.6,0,NA,NA,10,NA,NA,NA,23.7,73.4,2021_08
-93.717,49.65,RAWSON LAKE,6036904,ON,17.1,0,-1.2,27.5,0,8.5,0,0,0,NA,47.4,0,54,0,7,NA,NA,NA,62.5,35.6,2021_08
-93.733,49.664,RAWSON LAKE (AUT),6036907,ON,19.4,0,NA,33,0,8.4,0,NA,NA,NA,78.9,0,NA,NA,10,NA,NA,NA,28,70.9,2021_08
-94.763,49.469,ROYAL ISLAND (AUT),6037201,ON,21,0,NA,33.6,0,11.4,0,NA,NA,NA,70.4,0,NA,NA,7,NA,NA,NA,10.8,104.3,2021_08
-91.908,50.114,SIOUX LOOKOUT A,6037776,ON,18.7,1,NA,32.9,1,5.8,1,0,0,NA,77,0,NA,NA,9,NA,NA,NA,36.5,57.6,2021_08
-91.906,50.114,SIOUX LOOKOUT AIRPORT,6037800,ON,19.2,0,NA,32.9,0,7.6,0,NA,NA,NA,89.6,0,NA,NA,8,NA,NA,NA,32.5,70.3,2021_08
-88.905,50.294,ARMSTRONG (AUT),6040325,ON,17.1,0,NA,32.4,0,0.3,0,NA,NA,NA,95.6,1,NA,NA,8,NA,NA,NA,73.6,47,2021_08
-88.91,50.29,ARMSTRONG A,6040327,ON,17.4,0,NA,32.1,0,0.3,0,NA,NA,NA,0,2,NA,NA,0,NA,NA,NA,68.1,49.5,2021_08
-88.345,49.154,CAMERON FALLS (AUT),6041110,ON,18.4,1,NA,29.9,1,6.8,1,NA,NA,NA,45,1,NA,NA,7,NA,NA,NA,33.4,44.2,2021_08
-85.833,47.333,CARIBOU ISLAND (AUT),6041222,ON,19,1,NA,25.2,1,13,1,NA,NA,NA,11.2,2,NA,NA,2,NA,NA,NA,7.4,38.8,2021_08
-86.939,49.779,GERALDTON A,6042717,ON,17.8,2,NA,32,2,4.1,2,0,0,NA,47.1,0,NA,NA,7,NA,NA,NA,55.7,50.5,2021_08
-86.989,49.779,GERALDTON A,6042718,ON,17.8,2,NA,32,2,4.1,2,NA,NA,NA,NA,NA,NA,NA,NA,NA,NA,NA,55.7,50.5,2021_08
-86.932,49.781,GERALDTON AIRPORT,6042719,ON,17.7,1,NA,32.2,1,3.7,1,NA,NA,NA,51.2,1,NA,NA,7,NA,NA,NA,60.8,51.5,2021_08
-89.267,48.467,HAZELWOOD,6043390,ON,NA,NA,NA,NA,NA,NA,NA,0,3,NA,45.8,3,NA,0,8,NA,NA,NA,NA,NA,2021_08
-86.346,48.757,MARATHON A,6044967,ON,16.6,4,NA,25.3,4,4.7,4,NA,NA,NA,NA,NA,NA,NA,NA,NA,NA,NA,51.1,13.3,2021_08
-86.287,48.608,PUKASKWA (AUT),6046768,ON,17.5,0,NA,25.5,0,6.3,0,NA,NA,NA,28.3,0,NA,NA,7,NA,NA,NA,35.9,20.8,2021_08
-87.092,48.816,TERRACE BAY AIRPORT,6048232,ON,16.1,0,NA,25.2,0,5.2,0,NA,NA,NA,50.4,0,NA,NA,11,NA,NA,NA,62.8,4.6,2021_08
-89.322,48.372,THUNDER BAY,6048260,ON,19,0,NA,34.4,0,5,0,NA,NA,NA,45.7,0,NA,NA,4,NA,NA,NA,22.9,54.6,2021_08
-89.322,48.372,THUNDER BAY A,6048262,ON,19,0,NA,34.4,0,5,0,NA,NA,NA,NA,NA,NA,NA,NA,NA,NA,NA,22.9,54.7,2021_08
-89.327,48.369,THUNDER BAY CS,6048268,ON,18.4,15,NA,30.5,15,5.6,15,NA,NA,NA,38.6,15,NA,NA,3,NA,NA,NA,13.2,18.9,2021_08
-90.467,49.033,UPSALA (AUT),6049095,ON,17.7,0,NA,32,0,4,0,NA,NA,NA,89,0,NA,NA,8,NA,NA,NA,56,47.4,2021_08
-89.119,48.369,WELCOME ISLAND (AUT),6049443,ON,18.9,0,NA,27.1,0,11.8,0,NA,NA,NA,35.6,0,NA,NA,4,NA,NA,NA,11.2,37.9,2021_08
-88.306,49.69,LITTLE FLATLAND ISLAND (AUT),6049470,ON,18.9,0,NA,28.3,0,11.8,0,NA,NA,NA,50.8,0,NA,NA,7,NA,NA,NA,22.3,48.9,2021_08
-84.814,47.723,LAKE SUPERIOR PROVINCIAL PARK,6054425,ON,17.5,0,NA,29.8,0,4.4,0,NA,NA,NA,58.7,0,NA,NA,7,NA,NA,NA,39.6,25.1,2021_08
-84.51,46.485,SAULT STE MARIE A,6057591,ON,19.9,0,NA,30.9,0,7.9,0,0,0,NA,95.3,0,NA,NA,6,NA,NA,NA,8.3,68.6,2021_08
-84.517,46.478,SAULT STE. MARIE AIRPORT,6057593,ON,20.6,0,NA,31,0,10.5,0,NA,NA,NA,92.9,0,NA,NA,6,NA,NA,NA,5.7,85.3,2021_08
-84.786,47.967,WAWA A,6059413,ON,17.7,0,NA,29.8,0,6.4,0,NA,NA,NA,NA,NA,NA,NA,NA,NA,NA,NA,35.7,25.6,2021_08
-81.483,45.967,KILLARNEY (AUT),605DJ25,ON,20.6,0,NA,27.8,0,13.7,0,NA,NA,NA,NA,NA,NA,NA,NA,NA,NA,NA,1.9,82.7,2021_08
-83.347,47.82,CHAPLEAU A,6061365,ON,18.3,0,NA,30.3,0,6,0,NA,NA,NA,NA,NA,NA,NA,NA,NA,NA,NA,38.7,48.7,2021_08
-82.025,46.193,MASSEY,6065006,ON,20.2,0,2.4,31,0,8,0,0,0,NA,157,0,185,0,8,NA,NA,NA,10,77.4,2021_08
-80.303,46.215,MONETVILLE 2,6065252,ON,20.9,1,NA,33,1,7.5,1,0,1,NA,70.1,1,NA,0,9,NA,NA,NA,7.4,93,2021_08
-80.796,46.632,SUDBURY CLIMATE,6068145,ON,19.8,0,NA,31.1,0,7.4,0,NA,NA,NA,87.8,0,NA,NA,10,NA,NA,NA,19.9,76,2021_08
-80.798,46.626,SUDBURY A,6068153,ON,20.1,0,NA,30.9,0,7.8,0,0,0,NA,85.9,0,NA,NA,10,NA,NA,NA,17.3,81.1,2021_08
-82.124,49.383,BONNER LAKE,6070QK6,ON,19.1,1,NA,32,1,2,0,0,1,NA,40.2,1,NA,0,8,NA,NA,NA,29.8,63.9,2021_08
-79.849,47.695,EARLTON A,6072223,ON,19.4,0,NA,31.3,0,7.3,0,NA,NA,NA,31.5,1,NA,NA,5,NA,NA,NA,27.3,72.2,2021_08
-79.849,47.695,EARLTON CLIMATE,6072230,ON,19.5,0,NA,31.8,0,7.8,0,NA,NA,NA,55,0,NA,NA,6,NA,NA,NA,26.2,72.5,2021_08
-82.468,49.412,KAPUSKASING A,6073976,ON,18.3,1,NA,32.2,1,0.4,1,0,0,NA,30.1,0,NA,NA,7,NA,NA,NA,50.5,59.4,2021_08
-82.468,49.412,KAPUSKASING A,6073978,ON,18.5,0,NA,32.2,0,0.4,0,NA,NA,NA,NA,NA,NA,NA,NA,NA,NA,NA,50.5,66.5,2021_08
-82.444,49.406,KAPUSKASING CDA ON,6073980,ON,18.1,0,NA,30.7,0,2.2,0,NA,NA,NA,30.8,1,NA,NA,7,NA,NA,NA,54.4,56.1,2021_08
-80,48.15,KIRKLAND LAKE CS,6074211,ON,19.3,0,NA,31.6,0,7.8,0,NA,NA,NA,38.3,0,NA,NA,8,NA,NA,NA,29.6,70.1,2021_08
-80.608,51.291,MOOSONEE,6075420,ON,17.2,0,NA,33.4,0,1.4,0,NA,NA,NA,57.8,0,NA,NA,8,NA,NA,NA,74,47.7,2021_08
-80.65,51.267,MOOSONEE UA,6075425,ON,19.3,19,4.4,33,19,6,19,0,19,NA,18.5,19,NA,NA,3,NA,NA,NA,20.5,36,2021_08
-80.618,51.292,MOOSONEE RCS,6075435,ON,17.4,0,NA,33.1,0,2.7,0,NA,NA,NA,58.5,0,NA,NA,9,NA,NA,NA,67.2,48.7,2021_08
-84.164,49.747,NAGAGAMI (AUT),6075543,ON,18.1,0,NA,33,0,0.2,0,NA,NA,NA,55.2,0,NA,NA,7,NA,NA,NA,59.2,61.2,2021_08
-85.901,51.659,OGOKI POST A,6075786,ON,17.2,0,NA,33.1,0,3.7,0,NA,NA,NA,72.3,16,NA,NA,4,NA,NA,NA,71.2,46.1,2021_08
-81.39,48.557,TIMMINS CLIMATE,6078282,ON,18.3,0,NA,30.9,0,5,0,NA,NA,NA,63.9,0,NA,NA,8,NA,NA,NA,47.1,57,2021_08
-81.377,48.571,TIMMINS A,6078286,ON,18.3,1,NA,31.1,1,4.4,1,NA,NA,NA,NA,NA,NA,NA,NA,NA,NA,NA,47.5,56.4,2021_08
-78.267,45.533,ALGONQUIN PARK EAST GATE,6080192,ON,19.5,0,NA,30.8,0,4.9,0,NA,NA,NA,45.9,0,NA,NA,7,NA,NA,NA,25.1,71.6,2021_08
-79.424,46.364,NORTH BAY A,6085680,ON,20.1,1,NA,30.9,1,6.3,1,NA,NA,NA,5.2,1,NA,NA,1,NA,NA,NA,13.5,75.6,2021_08
